id,codigo,nome,ceg,subsistema,latitude,longitude,data_inicio_operacao,coordenadas_aproximadas
1,BAUEMC,MACAUBAS,EOL.CV.BA.030283-0.01,NE,-12.35,-42.34,2012-07-06,FALSE
2,BAUESR,SEABRA,EOL.CV.BA.030306-2.01,NE,-12.27,-42.37,2012-07-06,FALSE
3,BAUENH,N.HORIZONTE - EOL NH,EOL.CV.BA.030305-4.01,NE,-12.31,-42.35,2012-07-06,FALSE
4,BAUEPS,PORTO SEGURO,EOL.CV.BA.030323-2.01,NE,-13.86,-42.67,2014-07-04,FALSE
5,BAUENC,N SRA CONCEIC,EOL.CV.BA.030318-6.01,NE,-13.9,-42.68,2014-07-04,FALSE
6,BAUEIH,ILHEUS (ILHEUS),EOL.CV.BA.030315-1.01,NE,-13.88,-42.66,2014-07-04,FALSE
7,BAUEIP,IGAPORA,EOL.CV.BA.030321-6.01,NE,-13.86,-42.66,2014-07-04,FALSE
8,BAUEPT,PLANALTINA,EOL.CV.BA.030322-4.01,NE,-13.99,-42.64,2014-07-04,FALSE
9,BAUEPV,PAJEU DO VENTO,EOL.CV.BA.030319-4.01,NE,-14.01,-42.63,2014-07-04,FALSE
10,BAUELA,LICINIO DE ALMEIDA,EOL.CV.BA.030317-8.01,NE,-14.18,-42.65,2014-07-04,FALSE
11,BAUEGB,GUANAMBI,EOL.CV.BA.030328-3.01,NE,-14.2,-42.62,2014-07-04,FALSE
12,BAUECB,CANDIBA,EOL.CV.BA.030316-0.01,NE,-14.19,-42.65,2014-07-04,FALSE
13,BAUESS,SERRA DO SALTO,EOL.CV.BA.030314-3.01,NE,-14.16,-42.64,2014-07-04,FALSE
14,BAUERV,RIO VERDE,EOL.CV.BA.030341-0.01,NE,-14.16,-42.6,2014-07-04,FALSE
15,BAUEAV,ALVORADA,EOL.CV.BA.030320-8.01,NE,-14.19,-42.59,2014-07-04,FALSE
16,BAUEGP,GUIRAPA,EOL.CV.BA.030342-9.01,NE,-14.22,-42.64,2014-07-04,FALSE
17,BAUEPD,PINDAI,EOL.CV.BA.030324-0.01,NE,-14.2,-42.66,2014-07-04,FALSE
18,BAPEDO,PEDRA DO REINO,EOL.CV.BA.030288-0.01,NE,-9.51,-40.88,2014-01-01,FALSE
19,BAPDR3,PEDRA REINO III 3LER,EOL.CV.BA.030608-8.01,NE,-9.49,-40.87,2014-01-01,FALSE
20,BAUET2,CAETITE 2,EOL.CV.BA.030437-9.01,NE,-14.19,-42.5,2014-10-08,FALSE
21,BAUET3,CAETITE 3,EOL.CV.BA.030448-4.01,NE,-14.22,-42.51,2014-10-08,FALSE
22,BAUESG,SETE GAMELEIRAS,EOL.CV.BA.030455-7.01,NE,-9.86,-41.1,2013-03-26,FALSE
23,BAUEPL,SAO PEDRO DO LAGO,EOL.CV.BA.030456-5.01,NE,-9.89,-41.1,2013-03-02,FALSE
24,BAUEPB,PEDRA BRANCA,EOL.CV.BA.030443-3.01,NE,-9.87,-41.1,2013-03-02,FALSE
25,BAUEVA,VENTOS DA ANDORINHA,EOL.CV.BA.030944-3.01,NE,-10.58,-40.64,2015-11-14,FALSE
26,BAEVC1,V C FORMOSO 1 13 LEN,EOL.CV.BA.030943-5.01,NE,-10.63,-40.69,2016-01-23,FALSE
27,BAEVC2,V C FORMOSO 2 13 LEN,EOL.CV.BA.031010-7.01,NE,-10.52,-40.61,2015-12-08,FALSE
28,BAUEVM,VENTOS DE MORRINHOS,EOL.CV.BA.030945-1.01,NE,-10.57,-40.63,2015-11-14,FALSE
29,BAUEVS,V SERTAO 13 LEN,EOL.CV.BA.030946-0.01,NE,-10.56,-40.57,2016-01-01,FALSE
30,BAUECR,CRISTAL 3LER,EOL.CV.BA.030727-0.01,NE,-11.8,-41.39,2017-11-10,FALSE
31,BAUESJ,SAO JUDAS 3LER,EOL.CV.BA.030725-4.01,NE,-11.66,-41.36,2017-12-01,FALSE
32,BAUEAR,ARACAS 3LER,EOL.CV.BA.030495-6.01,NE,-14.13,-42.56,2014-10-11,FALSE
33,BAUEDP,DA PRATA,EOL.CV.BA.030490-5.01,NE,-13.95,-42.64,2014-10-11,FALSE
34,BAUEPR,PRIMAVERA 3LER,EOL.CV.BA.030726-2.01,NE,-11.73,-41.37,2017-11-10,FALSE
35,BAUEMR,MORRAO,EOL.CV.BA.030506-5.01,NE,-14.09,-42.68,2014-10-11,FALSE
36,BAUESE,SERAIMA,EOL.CV.BA.030546-4.01,NE,-14.15,-42.71,2014-10-11,FALSE
37,BAUETQ,TANQUE 3LER,EOL.CV.BA.030544-8.01,NE,-14.1,-42.61,2014-10-11,FALSE
38,BAUEVN,V DO NORDESTE 3LER,EOL.CV.BA.030476-0.01,NE,-14.12,-42.61,2014-10-11,FALSE
39,BAUEDR,DOIS RIACHOS (EGP),EOL.CV.BA.031121-9.01,NE,-11.82,-41.46,2015-11-14,FALSE
40,BAUEAT,AMETISTA,EOL.CV.BA.030779-3.01,NE,-14.13,-42.59,2015-03-04,FALSE
41,BAUEBR,BORGO,EOL.CV.BA.030837-4.01,NE,-14.51,-42.59,2016-01-01,FALSE
42,BAUECE,CAETITE,EOL.CV.BA.030792-0.01,NE,-14.47,-42.58,2016-01-01,FALSE
43,BAUEPO,PELOURINHO,EOL.CV.BA.030793-9.01,NE,-14.53,-42.59,2016-01-01,FALSE
44,BAUEDU,DOURADOS (UEE DOURAD,EOL.CV.BA.030778-5.01,NE,-13.86,-42.73,2015-03-04,FALSE
45,BAUEJO,JOANA,EOL.CV.BA.030801-3.01,NE,-13.92,-42.62,2014-09-26,FALSE
46,BAUEMA,MARON,EOL.CV.BA.030768-8.01,NE,-14.09,-42.62,2015-03-04,FALSE
47,BAUEPI,PILÕES,EOL.CV.BA.030776-9.01,NE,-14.03,-42.62,2015-03-04,FALSE
48,BAUEMI,EMILIANA,EOL.CV.BA.030807-2.01,NE,-13.91,-42.62,2014-10-09,FALSE
49,BAUESP,SERRA DO ESPINHACO,EOL.CV.BA.030802-1.01,NE,-14.5,-42.58,2016-01-01,FALSE
50,BAEPGO,ESPIGAO,EOL.CV.BA.030803-0.01,NE,-14.48,-42.59,2016-01-01,FALSE
51,BAEANG,ANGICAL,EOL.CV.BA.030732-7.01,NE,-14.35,-42.61,2016-02-05,FALSE
52,BAECOQ,COQUEIRINHO,EOL.CV.BA.030738-6.01,NE,-14.42,-42.63,2016-02-17,FALSE
53,BAECAI,CAITITU,EOL.CV.BA.030739-4.01,NE,-14.45,-42.64,2016-02-16,FALSE
54,BAEINH,INHAMBU,EOL.CV.BA.030751-3.01,NE,-14.39,-42.59,2016-02-05,FALSE
55,BAETAM,TAMANDUA MIRIM,EOL.CV.BA.030753-0.01,NE,-14.38,-42.61,2016-02-16,FALSE
56,BAECOR,CORRUPIAO,EOL.CV.BA.030752-1.01,NE,-14.29,-42.59,2016-02-05,FALSE
57,BAETEI,EÓLICA TEIU,EOL.CV.BA.030731-9.01,NE,-14.34,-42.59,2016-02-05,FALSE
58,BAEA02,ASSURUA 1 II ENERGIA,EOL.CV.BA.031343-2.01,NE,-11.16,-42.67,2016-04-05,FALSE
59,BAUET1,CAETITE 1,EOL.CV.BA.030976-1.01,NE,-14.16,-42.48,2014-10-03,FALSE
60,BAEMUS,MUSSAMBE,EOL.CV.BA.031352-1.01,NE,-9.86,-41.08,2015-10-14,FALSE
61,BAEMBU,MORRO BRANCO I,EOL.CV.BA.031336-0.01,NE,-9.85,-41.06,2015-11-04,FALSE
62,BAEBAU,BARAUNAS I,EOL.CV.BA.031335-1.01,NE,-9.89,-41.12,2015-11-20,FALSE
63,BAECTC,CAETITE C,EOL.CV.BA.031523-0.01,NE,-14.11,-42.47,2015-09-09,FALSE
64,BAECTA,CAETITE A,EOL.CV.BA.031344-0.01,NE,-14.14,-42.48,2015-09-09,FALSE
65,BAECTB,CAETITE B,EOL.CV.BA.031342-4.01,NE,-14.11,-42.47,2015-09-09,FALSE
66,BAECQ2,COQUEIRINHO 2,EOL.CV.BA.031518-4.01,NE,-14.5,-42.65,2019-09-19,FALSE
67,BAEPPG,EOL Papagaio,EOL.CV.BA.031511-7.01,NE,-14.48,-42.64,2019-10-04,FALSE
68,BAECO3,CORRUPIAO 3,EOL.CV.BA.031458-7.01,NE,-14.27,-42.58,2020-02-13,FALSE
69,BAECAR,CARCARA,EOL.CV.BA.031447-1.01,NE,-14.28,-42.59,2020-02-14,FALSE
70,BAETE2,TEIU 2,EOL.CV.BA.031431-5.01,NE,-14.44,-42.69,2019-11-20,FALSE
71,BAECT2,CAITITU 2,EOL.CV.BA.031432-3.01,NE,-14.33,-42.61,2020-01-28,FALSE
72,BAECT3,CAITITU 3,EOL.CV.BA.031459-5.01,NE,-14.32,-42.61,2020-01-29,FALSE
73,BAECAU,ACAUA,EOL.CV.BA.031433-1.01,NE,-14.41,-42.66,2019-11-13,FALSE
74,BAEAN2,ANGICAL 2,EOL.CV.BA.031435-8.01,NE,-14.42,-42.64,2019-09-17,FALSE
75,BAEA05,ASSURUA 1 I ENERGIA,EOL.CV.BA.031341-6.01,NE,-11.18,-42.71,2016-04-07,FALSE
76,BAEA07,ASSURUA 1 III ENERGI,EOL.CV.BA.031356-4.01,NE,-11.07,-42.68,2016-04-05,FALSE
77,BAUEDA,DAMASCENA,EOL.CV.BA.031338-6.01,NE,-11.86,-41.47,2016-04-30,FALSE
78,BAUEEP,EOL ESPERANCA,EOL.CV.BA.031355-6.01,NE,-11.8,-41.39,2017-12-21,FALSE
79,BAUEMN,MANICOBA,EOL.CV.BA.031337-8.01,NE,-11.89,-41.46,2017-12-06,FALSE
80,BAUEVG,VENTOS DE GUARÁS I,EOL.CV.BA.031563-0.01,NE,-10.61,-40.65,2016-04-26,FALSE
81,BAEBAD,BARAUNAS II,EOL.CV.BA.031667-9.01,NE,-9.87,-41.06,2016-03-11,FALSE
82,BAEBCO,EOL BANDA DE COURO,EOL.CV.BA.031607-5.01,NE,-9.85,-41.05,2016-03-11,FALSE
83,BAEVB2,VENTOS DA BAHIA 2,EOL.CV.BA.031758-6.01,NE,-12.01,-41.44,2017-09-21,FALSE
84,BAECLF,CAMPO LARGO VI,EOL.CV.BA.033631-9.01,NE,-10.42,-41.4,2018-11-02,FALSE
85,BAEVB8,VENTOS DA BAHIA 8,EOL.CV.BA.031771-3.01,NE,-12.03,-41.45,2017-09-21,FALSE
86,BAEVB4,VENTOS DA BAHIA 4,EOL.CV.BA.031770-5.01,NE,-11.98,-41.44,2017-09-21,FALSE
87,BAECR1,CRISTALANDIA I,EOL.CV.BA.032081-1.01,NE,-13.93,-41.56,2017-09-01,FALSE
88,BAECR2,CRISTALANDIA II,EOL.CV.BA.032082-0.01,NE,-13.97,-41.55,2017-09-01,FALSE
89,BAECR3,CRISTALANDIA III,EOL.CV.BA.032083-8.01,NE,-14,-41.54,2017-09-01,FALSE
90,BAEA04,ASSURUA IV,EOL.CV.BA.032343-8.01,NE,-11.05,-42.69,2018-01-04,FALSE
91,BAETM2,TAMANDUÁ MIRIM 2,EOL.CV.BA.031606-7.01,NE,-14.46,-42.67,2019-11-14,FALSE
92,BAECND,CASA NOVA 2,EOL.CV.BA.031519-2.01,NE,-9.27,-41.05,2017-12-09,FALSE
93,BAECNT,CASA NOVA 3,EOL.CV.BA.031524-9.01,NE,-9.31,-41.12,2018-02-28,FALSE
94,BAESMR,VENTOS DO SAO MARIO,EOL.CV.BA.033650-5.01,NE,-11.59,-41.23,2018-06-29,FALSE
95,BAESPL,VENTOS DO SAO PAULO,EOL.CV.BA.033652-1.01,NE,-11.57,-41.3,2018-06-29,FALSE
96,BAESTD,VENTOS DA STA DULCE,EOL.CV.BA.033648-3.01,NE,-11.6,-41.33,2018-06-29,FALSE
97,BAESTE,VENT DA ST ESPERANCA,EOL.CV.BA.033649-1.01,NE,-11.6,-41.31,2018-06-29,FALSE
98,BAEDF1,DELFINA 1,EOL.CV.BA.032357-8.01,NE,-10.06,-40.98,2017-10-31,FALSE
99,BAEDF2,DELFINA 2,EOL.CV.BA.032358-6.01,NE,-10.04,-40.96,2017-11-02,FALSE
100,BAEDF5,DELFINA 5,EOL.CV.BA.032359-4.01,NE,-10.02,-40.93,2017-10-31,FALSE
101,BAEDF3,DELFINA 3,EOL.CV.BA.032521-0.01,NE,-10,-40.93,2017-11-02,FALSE
102,BAEDF4,DELFINA 4,EOL.CV.BA.032522-8.01,NE,-10.07,-40.98,2017-10-31,FALSE
103,BAEDF6,DELFINA 6,EOL.CV.BA.032523-6.01,NE,-10.03,-40.95,2017-10-31,FALSE
104,BAEDF7,DELFINA 7,EOL.CV.BA.032524-4.01,NE,-9.99,-40.91,2017-10-31,FALSE
105,BAECLC,CAMPO LARGO III,EOL.CV.BA.033628-9.01,NE,-10.5,-41.54,2018-08-22,FALSE
106,BAECLD,CAMPO LARGO IV,EOL.CV.BA.033629-7.01,NE,-10.49,-41.51,2018-08-22,FALSE
107,BAECLE,CAMPO LARGO V,EOL.CV.BA.033630-0.01,NE,-10.42,-41.43,2018-10-31,FALSE
108,BAECLG,CAMPO LARGO 7,EOL.CV.BA.033632-7.01,NE,-10.52,-41.49,2018-07-04,FALSE
109,BAECLU,CAMPO LARGO XXI,EOL.CV.BA.033633-5.01,NE,-10.45,-41.45,2018-10-06,FALSE
110,BAEA03,ASSURUA 3,EOL.CV.BA.032342-0.01,NE,-11.17,-42.68,2018-04-21,FALSE
111,BAECA3,CAPOEIRAS 3,EOL.CV.BA.032344-6.01,NE,-11.18,-42.74,2018-04-12,FALSE
112,BAECP1,CURRAL DE PEDRAS 1,EOL.CV.BA.032345-4.01,NE,-11.13,-42.65,2018-04-12,FALSE
113,BAECP2,CURRAL DE PEDRAS 2,EOL.CV.BA.032346-2.01,NE,-11.21,-42.7,2018-04-13,FALSE
114,BAEDI2,DIAMANTE II,EOL.CV.BA.032347-0.01,NE,-11.11,-42.67,2018-04-13,FALSE
115,BAEDI3,DIAMANTE III,EOL.CV.BA.032348-9.01,NE,-11.09,-42.68,2018-04-13,FALSE
116,BAELA1,LARANJEIRAS 1,EOL.CV.BA.032349-7.01,NE,-11.12,-42.68,2018-04-13,FALSE
117,BAELA2,LARANJEIRAS 2,EOL.CV.BA.032350-0.01,NE,-11.13,-42.7,2018-04-13,FALSE
118,BAELA5,LARANJEIRAS 5,EOL.CV.BA.032351-9.01,NE,-11.12,-42.67,2018-04-13,FALSE
119,BAEURQ,UMBURANAS 17,EOL.CV.BA.033634-3.01,NE,-10.71,-41.61,2019-02-06,FALSE
120,BAEURS,UMBURANAS 19,EOL.CV.BA.033635-1.01,NE,-10.68,-41.61,2019-02-22,FALSE
121,BAEURU,UMBURANAS 21,EOL.CV.BA.033636-0.01,NE,-10.66,-41.6,2019-01-04,FALSE
122,BAEURW,UMBURANAS 23,EOL.CV.BA.033637-8.01,NE,-10.64,-41.61,2019-03-13,FALSE
123,BAEURY,UMBURANAS 25,EOL.CV.BA.033639-4.01,NE,-10.65,-41.58,2019-03-01,FALSE
124,BAELA3,ASSURUA 3 I ENERGIA,EOL.CV.BA.033626-2.01,NE,-11.03,-42.63,2019-04-24,FALSE
125,BAELA9,ASSURUA 3 II ENERGIA,EOL.CV.BA.033627-0.01,NE,-11.08,-42.62,2019-04-24,FALSE
126,BAPEDD,PEDRA DO REINO IV,EOL.CV.BA.034777-9.01,NE,-9.5,-40.91,2018-12-26,FALSE
127,BAEB02,SERRA BABILONIA II,EOL.CV.BA.032462-0.01,NE,-11.1,-41.31,2018-12-12,FALSE
128,BAEB9,SERRA BABILONIA IX,EOL.CV.BA.032465-5.01,NE,-11.09,-41.32,2018-12-12,FALSE
129,BAEB06,SERRA BABILONIA VI,EOL.CV.BA.032466-3.01,NE,-11.05,-41.33,2018-12-12,FALSE
130,BAEB07,SERRA BABILONIA VII,EOL.CV.BA.032467-1.01,NE,-11.06,-41.32,2018-12-12,FALSE
131,BAEB08,SERRA BABILONIA VIII,EOL.CV.BA.032468-0.01,NE,-11.08,-41.3,2018-12-12,FALSE
132,BAEB10,SERRA BABILONIA X,EOL.CV.BA.032469-8.01,NE,-11.07,-41.32,2018-12-12,FALSE
133,BAEB11,SERRA BABILONIA XI,EOL.CV.BA.032470-1.01,NE,-11.08,-41.32,2018-12-12,FALSE
134,BAEB12,SERRA BABILONIA XII,EOL.CV.BA.032471-0.01,NE,-11.1,-41.32,2018-12-12,FALSE
135,BAEB01,VENTOS DA BAHIA I,EOL.CV.BA.032526-0.01,NE,-11.99,-41.53,2018-09-07,FALSE
136,BAEB03,VENTOS DA BAHIA III,EOL.CV.BA.032527-9.01,NE,-11.97,-41.52,2018-09-12,FALSE
137,BAEB09,VENTOS DA BAHIA IX,EOL.CV.BA.032531-7.01,NE,-11.99,-41.49,2018-09-12,FALSE
138,BAEB18,VENTOS D BAHIA XVIII,EOL.CV.BA.034883-0.01,NE,-12.02,-41.5,2018-09-12,FALSE
139,BAESBE,EOL VENTOS DE SANTA,EOL.CV.BA.034738-8.01,NE,-10.94,-41.23,2018-11-24,FALSE
140,BAESAC,EOL SANTA APARECIDA,EOL.CV.BA.034736-1.01,NE,-10.91,-41.22,2018-11-24,FALSE
141,BAESAU,VENTOS DE SANTA AURO,EOL.CV.BA.034742-6.01,NE,-10.98,-41.22,2018-11-24,FALSE
142,BAESEM,VENTOS DE SANTA EMIL,EOL.CV.BA.034717-5.01,NE,-11.01,-41.23,2018-11-14,FALSE
143,BAESGA,VENTOS DE SÃO GABRIE,EOL.CV.BA.034739-6.01,NE,-10.96,-41.23,2018-11-24,FALSE
144,BAEBVT,BOA VISTA DA LAGOINH,EOL.CV.BA.032759-0.01,NE,-11.76,-41.39,2018-06-29,FALSE
145,BAESTA,VENTOS DE SAO ABRAAO,EOL.CV.BA.032884-7.01,NE,-11.62,-41.35,2018-06-29,FALSE
146,BAECLB,CAMPO LARGO II,EOL.CV.BA.034633-0.01,NE,-10.51,-41.45,2018-12-21,FALSE
147,BAECLR,CAMPO LARGO XVIII,EOL.CV.BA.034643-8.01,NE,-10.44,-41.5,2018-10-31,FALSE
148,BAECLA,CAMPO LARGO I,EOL.CV.BA.034613-6.01,NE,-10.47,-41.49,2018-09-21,FALSE
149,BAECLO,CAMPO LARGO XV,EOL.CV.BA.034636-5.01,NE,-10.51,-41.45,2018-11-23,FALSE
150,BAECLP,CAMPO LARGO XVI,EOL.CV.BA.034637-3.01,NE,-10.44,-41.47,2018-09-28,FALSE
151,BAES17,V STA ESPERANCA 17,EOL.CV.BA.034509-1.01,NE,-11.5,-41.29,2021-11-13,FALSE
152,BAEDF8,ZEUS II,EOL.CV.BA.035266-7.01,NE,-9.96,-40.88,2019-08-30,FALSE
153,BASJ01,SAO JANUARIO 01,EOL.CV.BA.033508-8.01,NE,-10.32,-40.43,2020-10-02,FALSE
154,BASJ04,SAO JANUARIO 04,EOL.CV.BA.032641-0.01,NE,-10.38,-40.45,2020-09-15,FALSE
155,BASJ13,SAO JANUARIO 13,EOL.CV.BA.033532-0.01,NE,-10.34,-40.44,2020-09-04,FALSE
156,BASJ14,SAO JANUARIO 14,EOL.CV.BA.033533-9.01,NE,-10.36,-40.44,2020-09-04,FALSE
157,BAEURI,EOL UMBURANAS 9,EOL.CV.BA.031743-8.01,NE,-10.72,-41.6,2019-03-13,FALSE
158,BAEURF,EOL UMBURANAS 6,EOL.CV.BA.031796-9.01,NE,-10.66,-41.54,2019-03-21,FALSE
159,BAEURA,EOL UMBURANAS 1,EOL.CV.BA.031738-1.01,NE,-10.68,-41.53,2019-04-24,FALSE
160,BAEURB,EOL UMBURANAS 2,EOL.CV.BA.031740-3.01,NE,-10.66,-41.51,2019-04-05,FALSE
161,BAEURJ,EOL UMBURANAS 10,EOL.CV.BA.031742-0.01,NE,-10.71,-41.59,2019-03-19,FALSE
162,BAEURC,EOL UMBURANAS 03,EOL.CV.BA.031741-1.01,NE,-10.66,-41.52,2019-04-09,FALSE
163,BAEURE,EOL UMBURANAS 5,EOL.CV.BA.031737-3.01,NE,-10.63,-41.5,2019-03-30,FALSE
164,BAEUR8,EOL UMBURANAS 8,EOL.CV.BA.031832-9.01,NE,-10.6,-41.5,2019-02-06,FALSE
165,BAEURK,EOL UMBURANAS 11,EOL.CV.BA.031744-6.01,NE,-10.71,-41.57,2019-02-21,FALSE
166,BAEURM,EOL UMBURANAS 13,EOL.CV.BA.031752-7.01,NE,-10.67,-41.57,2019-03-08,FALSE
167,BAEURR,EOL UMBURANAS 18,EOL.CV.BA.031756-0.01,NE,-10.6,-41.53,2019-03-15,FALSE
168,BAEURO,EOL UMBURANAS 15,EOL.CV.BA.031754-3.01,NE,-10.62,-41.53,2019-04-05,FALSE
169,BAEURP,EOL UMBURANAS 16,EOL.CV.BA.031755-1.01,NE,-10.59,-41.51,2019-02-06,FALSE
170,BAEJ22,Ventos de São Jan 22,EOL.CV.BA.037104-1.01,NE,-10.47,-40.52,2020-07-31,FALSE
171,BAEJ20,VENTOS JANUARIO 20,EOL.CV.BA.037102-5.01,NE,-10.44,-40.46,2020-05-14,FALSE
172,BAEJ21,VENTOS JANUARIO 21,EOL.CV.BA.037103-3.01,NE,-10.43,-40.51,2020-06-03,FALSE
173,BASJ03,EOL V de S Januário3,EOL.CV.BA.033521-5.01,NE,-10.31,-40.44,2020-11-06,FALSE
174,BAEB0E,SERRA DA BABILONIA E,EOL.CV.BA.040611-2.01,NE,-11.14,-41.33,2021-07-24,FALSE
175,BASJ06,EOL Ventos de S Jan6,EOL.CV.BA.033523-1.01,NE,-10.41,-40.46,2020-11-30,FALSE
176,BASJ05,EOL Ventos de S Jan5,EOL.CV.BA.032644-5.01,NE,-10.28,-40.43,2020-12-03,FALSE
177,BASJ10,EOL Ventos S Jan 10,EOL.CV.BA.033529-0.01,NE,-5.15,-36.04,2021-01-30,FALSE
178,BASJ11,SAO JANUARIO 11,EOL.CV.BA.033530-4.01,NE,-10.44,-41.57,2021-01-06,FALSE
179,BAEB0A,SERRA DA BABILONIA A,EOL.CV.BA.037083-5.01,NE,-11.07,-41.29,2021-05-18,FALSE
180,BAEB0C,SERRA DA BABILONIA C,EOL.CV.BA.040609-0.01,NE,-3.31,-39.36,2021-06-19,FALSE
181,BAEB0F,SERRA DA BABILONIA F,EOL.CV.BA.040612-0.01,NE,-6.55,-35.01,2021-08-03,FALSE
182,BAEB13,VENTOS DA BAHIA XIII,EOL.CV.BA.032535-0.01,NE,-12.14,-41.49,2021-12-15,FALSE
183,BAEB14,VENTOS DA BAHIA XIV,EOL.CV.BA.032536-8.01,NE,-12.05,-41.43,2021-12-03,FALSE
184,RNEJ23,SAO JANUARIO 23,EOL.CV.RN.040625-2.01,NE,-5.89,-35.96,2021-12-24,FALSE
185,BAEIM2,Eólica Inhambú 2,EOL.CV.BA.032487-6.01,NE,-14.45,-42.65,2021-04-07,FALSE
186,BAETE3,Eólica Teiú 3,EOL.CV.BA.037093-2.01,NE,-14.4,-42.64,2021-12-04,FALSE
187,BAECO2,Eólica Corrupião 2,EOL.CV.BA.037019-3.01,NE,-14.41,-42.64,2021-04-09,FALSE
188,BAEARZ,Eólica Ararinha Azul,EOL.CV.BA.037001-0.01,NE,-14.41,-42.64,2021-04-27,FALSE
189,BAEUMC,UMBURANA DE CHEIRO,EOL.CV.BA.035233-0.01,NE,-9.83,-41.04,2020-12-31,FALSE
190,BAESEV,SERRA DO VENTO,EOL.CV.BA.035229-2.01,NE,-9.81,-41.03,2020-11-19,FALSE
191,BAESEF,SERRA DO FOGO,EOL.CV.BA.035222-5.01,NE,-9.8,-41.02,2020-12-05,FALSE
192,BAECNA,EOL Casa Nova A,EOL.CV.BA.037209-9.01,NE,-9.26,-41.01,2020-12-24,FALSE
193,BAEC09,EOL Campo Largo IX,EOL.CV.BA.034631-4.01,NE,-10.46,-41.39,2021-02-23,FALSE
194,BAEC14,EOL Campo Largo XIV,EOL.CV.BA.034634-9.01,NE,-10.44,-41.5,2021-03-31,FALSE
195,BAEC10,EOL Campo Largo X,EOL.CV.BA.034630-6.01,NE,-10.5,-41.48,2021-03-05,FALSE
196,BAEC11,EOL Campo Largo XI,EOL.CV.BA.034625-0.01,NE,-10.4,-41.44,2021-09-02,FALSE
197,BAEC17,EOL Campo Largo XVII,EOL.CV.BA.034638-1.01,NE,-10.46,-41.51,2021-04-07,FALSE
198,BAEC19,EOL Campo Largo XIX,EOL.CV.BA.034645-4.01,NE,-10.44,-41.57,2021-05-21,FALSE
199,BAEC20,EOL Campo Largo XX,EOL.CV.BA.034647-0.01,NE,-10.48,-41.57,2021-06-25,FALSE
200,BAEC08,EOL Campo Largo VIII,EOL.CV.BA.034614-4.01,NE,-10.46,-41.39,2021-05-04,FALSE
201,BAEB0D,SERRA DA BABILÔNIA D,EOL.CV.BA.040610-4.01,NE,-11.14,-41.33,2021-07-06,FALSE
202,BAEB0B,SERRA DA BABILÔNIA B,EOL.CV.BA.040608-2.01,NE,-11.12,-41.32,2021-05-15,FALSE
203,BAEC22,EOL Campo Largo XXII,EOL.CV.BA.034648-9.01,NE,-10.5,-41.61,2021-06-25,FALSE
204,BAEC13,EOL Campo Largo XIII,EOL.CV.BA.034622-5.01,NE,-10.4,-41.49,2021-09-02,FALSE
205,BAEC12,EOL Campo Largo XII,EOL.CV.BA.034623-3.01,NE,-10.4,-41.44,2021-08-20,FALSE
206,BAES26,Ventos Santa E 26,EOL.CV.BA.034514-8.01,NE,-11.53,-41.32,2021-11-13,FALSE
207,BAES21,Ventos de Sta Espe21,EOL.CV.BA.034511-3.01,NE,-11.55,-41.28,2021-11-13,FALSE
208,BAES22,Ventos de Sta Espe22,EOL.CV.BA.034512-1.01,NE,-11.52,-41.27,2021-12-30,FALSE
209,BAES25,Ventos de Sta Espe25,EOL.CV.BA.034513-0.01,NE,-11.59,-41.33,2021-12-31,FALSE
210,CEBBR,BEBERIBE,EOL.CV.CE.028174-3.01,NE,-4.19,-38.08,2008-09-11,FALSE
211,CETAIB,TAIBA ALBATROZ,EOL.CV.CE.028858-6.01,NE,-3.51,-38.91,2014-01-01,FALSE
212,CEPRU,PARACURU,EOL.CV.CE.028706-7.01,NE,-3.43,-38.96,2008-11-29,FALSE
213,CEEOLI,CANOAQUBR(E-RV-ACEP),EOL.CV.CE.028649-4.01,NE,-4.53,-37.69,2014-01-01,FALSE
214,CELGMO,LAGOA DO MATO,EOL.CV.CE.028652-4.01,NE,-13.83,-42.64,2014-01-01,FALSE
215,CEFRC,FOZ DO RIO CHORO,EOL.CV.CE.028630-3.01,NE,-4.13,-38.15,2009-01-31,FALSE
216,CEUPRJ,PRAIAS DE PARAJURU,EOL.CV.CE.028724-5.01,NE,-4.36,-37.88,2009-08-19,FALSE
217,CEUFM,PRAIA FORMOSA,EOL.CV.CE.028631-1.01,NE,-2.91,-41.04,2009-08-26,FALSE
218,CEUCZ,ICARAIZINHO,EOL.CV.CE.028699-0.01,NE,-3.02,-39.67,2009-10-14,FALSE
219,CEUECQ,CANOAQUBR(E-BV-ACEP),EOL.CV.CE.028788-1.01,NE,-4.47,-37.76,2010-01-26,FALSE
220,CEUEBV,BONS VENTOS,EOL.CV.CE.028887-0.01,NE,-4.45,-37.76,2010-02-11,FALSE
221,CEUEEN,ENACEL,EOL.CV.CE.028770-9.01,NE,-4.51,-37.76,2010-03-18,FALSE
222,CEUEPM,PRAIA DO MORGADO,EOL.CV.CE.028440-8.01,NE,-2.82,-40.23,2010-05-26,FALSE
223,CEUEVR,VOLTA DO RIO,EOL.CV.CE.028441-6.01,NE,-2.85,-39.97,2010-09-03,FALSE
224,CEUEFU,FAISA I,EOL.CV.CE.030352-6.01,NE,-3.32,-39.27,2014-03-29,FALSE
225,CEUEFD,FAISA II,EOL.CV.CE.030331-3.01,NE,-3.32,-39.24,2014-07-31,FALSE
226,CEUEFT,FAISA III,EOL.CV.CE.030332-1.01,NE,-3.35,-39.27,2014-03-29,FALSE
227,CEUEFQ,FAISA IV,EOL.CV.CE.030329-1.01,NE,-3.32,-39.27,2014-03-29,FALSE
228,CEUEFC,FAISA V,EOL.CV.CE.030309-7.01,NE,-3.37,-39.26,2014-10-30,FALSE
229,CEDUNA,DUNAS DE PARACURU,EOL.CV.CE.030299-6.01,NE,-3.43,-38.98,2014-01-01,FALSE
230,CEQUIX,QUIXABA,EOL.CV.CE.030369-0.01,NE,-4.56,-37.68,2014-01-01,FALSE
231,CEUECJ,NOVA CAJUCOCO,EOL.CV.CE.030294-5.01,NE,-2.92,-39.95,2014-03-21,FALSE
232,CEUECO,COQUEIROS,EOL.CV.CE.030282-1.01,NE,-2.89,-39.97,2014-11-07,FALSE
233,CEUEEM,EMBUACA,EOL.CV.CE.030336-4.01,NE,-3.21,-39.33,2014-03-29,FALSE
234,CEICAR,ICARAI,EOL.CV.CE.030289-9.01,NE,-3.02,-39.62,2014-01-01,FALSE
235,CEUEAG,TAIBA AGUIA,EOL.CV.CE.028857-8.01,NE,-3.55,-38.89,2014-06-19,FALSE
236,CEUEID,ICARAÍ II,EOL.CV.CE.030356-9.01,NE,-3.07,-39.6,2014-03-28,FALSE
237,CEUEAD,TAIBA ANDORINHA,EOL.CV.CE.030373-9.01,NE,-3.53,-38.9,2014-06-19,FALSE
238,CEUECL,COLONIA,EOL.CV.CE.030295-3.01,NE,-3.54,-38.88,2014-06-19,FALSE
239,CEUEIU,ICARAI I,EOL.CV.CE.030372-0.01,NE,-3.08,-39.59,2014-03-29,FALSE
240,CEEGOB,EOL GOIABEIRA,EOL.CV.CE.030920-6.01,NE,-4.59,-37.71,2018-12-22,FALSE
241,CEJAI,JANDAIA1,EOL.CV.CE.030907-9.01,NE,-4.41,-37.88,2020-05-30,FALSE
242,RNEJU1,JUNCO 1,EOL.CV.RN.030902-8.02,NE,-5.03,-36.92,2015-12-05,FALSE
243,CENSF,NS FATIMA 13LEN,EOL.CV.CE.030930-3.01,NE,-4.43,-37.87,2020-06-02,FALSE
244,CEEPTM,EOL PITOMBEIRA,EOL.CV.CE.030926-5.01,NE,-4.6,-37.65,2018-12-22,FALSE
245,CEESCT,EOL SANTA CATARINA,EOL.CV.CE.030924-9.01,NE,-4.59,-37.68,2018-12-22,FALSE
246,CESCL,SAO CLEMENTE,EOL.CV.CE.030927-3.01,NE,-4.41,-37.84,2020-05-30,FALSE
247,CESJN,SAO JANUARIO,EOL.CV.CE.030921-4.01,NE,-4.49,-37.8,2020-06-02,FALSE
248,CEEUBA,EOL UBATUBA,EOL.CV.CE.030918-4.01,NE,-4.66,-37.61,2018-12-22,FALSE
249,CEEVHZ,EOL VENTOS DE HORIZO,EOL.CV.CE.030925-7.01,NE,-4.62,-37.69,2018-12-22,FALSE
250,CEUEGU,GUAJIRÚ,EOL.CV.CE.030663-0.01,NE,-3.26,-39.22,2013-11-22,FALSE
251,CEUETR,TRAIRÍ,EOL.CV.CE.030662-2.01,NE,-3.22,-39.29,2013-11-22,FALSE
252,CEUEBU,NOVA BURITI,EOL.CV.CE.030279-1.01,NE,-2.89,-39.98,2014-04-03,FALSE
253,CEUEFL,FLEIXEIRAS I,EOL.CV.CE.030670-3.01,NE,-3.2,-39.36,2014-01-28,FALSE
254,CEUESC,SAO CRISTOVAO,EOL.CV.CE.030912-5.01,NE,-3.26,-39.25,2014-11-11,FALSE
255,CEUESJ,SAO JORGE CE,EOL.CV.CE.030911-7.01,NE,-3.25,-39.25,2014-11-11,FALSE
256,CEUEMU,MUNDAÚ,EOL.CV.CE.030656-8.01,NE,-3.19,-39.37,2014-04-01,FALSE
257,CEUEAP,STO ANTONIO DE PADUA,EOL.CV.CE.030916-8.01,NE,-3.27,-39.22,2014-11-11,FALSE
258,CEEMAU,MALHADINHA 1,EOL.CV.CE.030841-2.01,NE,-3.95,-41.12,2016-10-20,FALSE
259,CEUEIG,ILHA GRANDE,EOL.CV.CE.030691-6.01,NE,-3.07,-39.7,2014-08-20,FALSE
260,CEUEBC,BOCA DO CÓRREGO,EOL.CV.CE.030697-5.01,NE,-3.1,-39.67,2014-08-30,FALSE
261,CEUERB,RIBEIRAO EOLOS,EOL.CV.CE.030695-9.01,NE,-3.1,-39.68,2014-09-25,FALSE
262,BAEARA,ARAPAPA,EOL.CV.BA.031434-0.01,NE,-14.43,-42.69,2019-11-21,FALSE
263,RNUER3,RIACHÃO I,EOL.CV.RN.030870-6.01,NE,-5.52,-35.43,2015-06-27,FALSE
264,RNUER2,RIACHÃO II,EOL.CV.RN.030871-4.01,NE,-5.57,-35.45,2015-06-01,FALSE
265,RNUER4,RIACHÃO IV,EOL.CV.RN.030874-9.01,NE,-5.52,-35.47,2015-06-01,FALSE
266,CEEIT5,ITAREMA V,EOL.CV.CE.031482-0.01,NE,-2.97,-39.88,2016-01-01,FALSE
267,CEEIT2,ITAREMA II,EOL.CV.CE.031483-8.01,NE,-2.92,-39.86,2016-02-23,FALSE
268,CEEIT1,ITAREMA I,EOL.CV.CE.031485-4.01,NE,-2.92,-39.84,2016-04-01,FALSE
269,PEEBR1,SANTA BRIGIDA I,EOL.CV.PE.031365-3.01,NE,-8.81,-36.75,2015-12-25,FALSE
270,PEEBR7,SANTA BRIGIDA VII,EOL.CV.PE.031422-6.01,NE,-8.8,-36.76,2015-12-25,FALSE
271,PEEBR2,SANTA BRIGIDA II,EOL.CV.PE.031363-7.01,NE,-8.8,-36.73,2015-12-25,FALSE
272,PEEBR3,SANTA BRIGIDA III,EOL.CV.PE.031354-8.01,NE,-8.85,-36.77,2015-12-25,FALSE
273,PEEBR4,SANTA BRIGIDA IV,EOL.CV.PE.031370-0.01,NE,-8.83,-36.76,2015-12-25,FALSE
274,PEEBR5,SANTA BRIGIDA 5,EOL.CV.PE.031346-7.01,NE,-8.85,-36.73,2015-12-25,FALSE
275,PEEBR6,SANTA BRIGIDA VI,EOL.CV.PE.031353-0.01,NE,-8.87,-36.75,2015-12-25,FALSE
276,RNECA2,CAICARA II,EOL.CV.RN.030915-0.02,NE,-4.99,-36.93,2015-12-09,FALSE
277,CEEIT3,ITAREMA III,EOL.CV.CE.031484-6.01,NE,-2.95,-39.84,2016-04-06,FALSE
278,CEECVA,CATAVENTOS ACARAU I,EOL.CV.CE.033756-0.01,NE,-2.84,-40.06,2018-05-29,FALSE
279,CETAIA,WWP TAIBA,EOL.CV.CE.002801-0.01,NE,-3.49,-38.93,2014-01-01,FALSE
280,CEEIT4,ITAREMA IV,EOL.CV.CE.031813-2.01,NE,-2.97,-39.88,2016-07-27,FALSE
281,CEEIT6,ITAREMA VI,EOL.CV.CE.031815-9.01,NE,-2.93,-39.88,2016-07-27,FALSE
282,CEEIT7,ITAREMA VII,EOL.CV.CE.031816-7.01,NE,-2.93,-39.88,2016-07-27,FALSE
283,CEEIT9,ITAREMA IX,EOL.CV.CE.031814-0.01,NE,-2.93,-39.88,2016-07-29,FALSE
284,CEEIT8,ITAREMA VIII,EOL.CV.CE.031817-5.01,NE,-2.93,-39.88,2016-07-27,FALSE
285,CEESMA,SANTA MONICA I,EOL.CV.CE.032013-7.01,NE,-3.26,-39.28,2016-10-11,FALSE
286,CEECAA,EOL CACIMBAS 1,EOL.CV.CE.032011-0.01,NE,-3.25,-39.28,2016-12-20,FALSE
287,CEEVMC,EOL MORRO DO CHAPEU,EOL.CV.CE.030582-0.01,NE,-3.85,-41.16,2016-10-06,FALSE
288,CEEVIT,EOL TIANGUA,EOL.CV.CE.030585-5.01,NE,-3.87,-41.19,2016-09-28,FALSE
289,CEEVPA,EOL PARAZINHO,EOL.CV.CE.030596-0.01,NE,-3.88,-41.16,2016-09-28,FALSE
290,CEEVTN,EOL TIANGUA NORTE,EOL.CV.CE.030584-7.01,NE,-3.84,-41.18,2016-09-28,FALSE
291,CEEVFO,VENTO FORMOSO,EOL.CV.CE.030595-2.01,NE,-3.86,-41.13,2016-10-07,FALSE
292,CEEEST,ESTRELA,EOL.CV.CE.032010-2.01,NE,-3.25,-39.29,2017-03-18,FALSE
293,CEEOVE,EOLICA OURO VERDE,EOL.CV.CE.032012-9.01,NE,-3.28,-39.31,2017-04-06,FALSE
294,CEECH1,PEDRA CHEIROSA 1,EOL.CV.CE.031736-5.01,NE,-2.99,-39.74,2017-06-27,FALSE
295,CEECH2,PEDRA CHEIROSA 2,EOL.CV.CE.031698-9.01,NE,-3.01,-39.73,2017-06-27,FALSE
296,CEEBC2,EOL B VEN CACIMBAS 2,EOL.CV.CE.031644-0.01,NE,-3.89,-41.04,2018-06-16,FALSE
297,CEEBC3,EOL B VEN CACIMBAS 3,EOL.CV.CE.031627-0.01,NE,-3.86,-41.02,2018-05-10,FALSE
298,CEEBC4,EOL B VEN CACIMBAS 4,EOL.CV.CE.031621-0.01,NE,-3.93,-41.03,2018-05-18,FALSE
299,CEEBC5,EOL B VEN CACIMBAS 5,EOL.CV.CE.031579-6.01,NE,-3.92,-41.03,2018-05-18,FALSE
300,CEEBC7,EOL B VEN CACIMBAS 7,EOL.CV.CE.031611-3.01,NE,-3.86,-41.04,2018-06-16,FALSE
301,CEEGRR,EOL GARROTE,EOL.CV.CE.035197-0.01,NE,-4.73,-37.32,2017-12-01,FALSE
302,CEESRM,EOL SAO RAIMUNDO,EOL.CV.CE.035219-5.01,NE,-4.77,-37.29,2017-12-01,FALSE
303,CEESI3,SANTO INACIO III,EOL.CV.CE.035217-9.01,NE,-4.76,-37.29,2017-12-05,FALSE
304,CEESI4,Santo Inácio IV,EOL.CV.CE.031866-3.01,NE,-4.74,-37.3,2017-12-05,FALSE
305,CEESR1,EOL SERROTE I,EOL.CV.CE.040878-6.01,NE,-4.53,-37.69,2021-01-13,FALSE
306,CEESR2,EOL SERROTE II,EOL.CV.CE.040879-4.01,NE,-3.28,-39.33,2021-01-13,FALSE
307,CEESR4,EOL SERROTE IV,EOL.CV.CE.040881-6.01,NE,-3.3,-39.39,2021-01-13,FALSE
308,CEESR8,EOL SERROTE VIII,EOL.CV.CE.040885-9.01,NE,-3.33,-39.32,2021-03-23,FALSE
309,CEESR6,EOL SERROTE VI,EOL.CV.CE.040883-2.01,NE,-3.22,-39.37,2021-02-27,FALSE
310,CEESR3,EOL SERROTE III,EOL.CV.CE.040880-8.01,NE,-3.3,-39.35,2021-01-13,FALSE
311,CEESR7,EOL SERROTE VII,EOL.CV.CE.040884-0.01,NE,-3.31,-39.32,2021-04-09,FALSE
312,CEESR5,EOL SERROTE V,EOL.CV.CE.040882-4.01,NE,-3.31,-39.36,2021-01-27,FALSE
313,CEESM1,EOL Serra do Mato I,EOL.CV.CE.032375-6.01,NE,-3.27,-39.39,2021-10-28,FALSE
314,CEESM2,EOL Serra do MatoII,EOL.CV.CE.032376-4.01,NE,-3.27,-39.35,2021-10-29,FALSE
315,CEESM4,EOL Serra do Mato IV,EOL.CV.CE.032378-0.01,NE,-3.22,-39.39,2021-12-04,FALSE
316,CEESM3,EOL Serra do MatoIII,EOL.CV.CE.032377-2.01,NE,-3.26,-39.34,2021-10-29,FALSE
317,CEESM5,EOL Serra do Mato V,EOL.CV.CE.032453-1.01,NE,-3.23,-39.4,2021-11-30,FALSE
318,CEESM6,EOL Serra do Mato VI,EOL.CV.CE.032379-9.01,NE,-3.24,-39.4,2021-11-18,FALSE
319,MAEDT1,EOL DELTA 3 01,EOL.CV.MA.033682-3.01,N,-2.67,-42.62,2017-09-01,FALSE
320,MAEDT7,EOL DELTA 3 07,EOL.CV.MA.033680-7.01,N,-2.62,-42.66,2017-07-07,FALSE
321,MAEDT3,EOL DELTA 3 03,EOL.CV.MA.033684-0.01,N,-2.65,-42.63,2017-09-01,FALSE
322,MAEDT4,EOL DELTA 3 04,EOL.CV.MA.033685-8.01,N,-2.66,-42.61,2017-07-26,FALSE
323,MAEDT5,EOL DELTA 3 05,EOL.CV.MA.033675-0.01,N,-2.63,-42.64,2017-07-20,FALSE
324,MAEDT6,EOL DELTA 3 06,EOL.CV.MA.033673-4.01,N,-2.63,-42.65,2017-07-13,FALSE
325,MAEDT2,EOL DELTA 3 02,EOL.CV.MA.033683-1.01,N,-2.62,-42.66,2017-07-20,FALSE
326,MAEDT8,DELTA 3 VIII,EOL.CV.MA.033686-6.01,N,-2.67,-42.64,2017-11-07,FALSE
327,MAEDS2,DELTA 6 II,EOL.CV.MA.037967-0.01,N,-2.66,-42.61,2019-01-25,FALSE
328,MAEDS1,DELTA 6 I,EOL.CV.MA.037970-0.01,N,-2.69,-42.57,2019-01-10,FALSE
329,MAEDS3,DELTA 5 II,EOL.CV.MA.037972-7.01,N,-2.67,-42.6,2018-12-28,FALSE
330,MAEDT9,DELTA 5 I I5,EOL.CV.MA.037976-0.01,N,-2.7,-42.55,2018-12-28,FALSE
331,MAED7I,Eólica Delta 7 I,EOL.CV.MA.040572-8.01,N,-2.68,-42.6,2019-10-16,FALSE
332,MAED72,DELTA 7 II,EOL.CV.MA.040573-6.01,N,-2.69,-42.58,2019-10-15,FALSE
333,MAED8I,DELTA 8 I,EOL.CV.MA.040574-4.01,N,-2.7,-42.57,2019-11-01,FALSE
334,D29041,MILLENNIUM,EOL.CV.PB.029041-6.01,NE,-6.49,-34.97,2007-11-28,FALSE
335,D29085,ALBATROZ,EOL.CV.PB.029085-8.01,NE,-6.55,-34.97,2009-01-31,FALSE
336,D29088,ATLANTICA,EOL.CV.PB.029088-2.01,NE,-6.55,-34.97,2009-01-17,FALSE
337,D29084,CAMURIM,EOL.CV.PB.029084-0.01,NE,-6.56,-34.97,2009-01-31,FALSE
338,D29089,CARAVELA,EOL.CV.PB.029089-0.01,NE,-6.56,-34.97,2009-01-31,FALSE
339,D29086,COELHOS I,EOL.CV.PB.029086-6.01,NE,-6.58,-34.97,2009-03-05,FALSE
340,D29090,COELHOS II,EOL.CV.PB.029090-4.01,NE,-6.57,-34.97,2009-02-10,FALSE
341,D29087,COELHOS III,EOL.CV.PB.029087-4.01,NE,-6.57,-34.97,2009-03-05,FALSE
342,D29091,COELHOS IV,EOL.CV.PB.029091-2.01,NE,-6.58,-34.97,2009-01-14,FALSE
343,D29092,MATARACA,EOL.CV.PB.029092-0.01,NE,-6.58,-34.98,2009-01-14,FALSE
344,D29083,PRESIDENTE,EOL.CV.PB.029083-1.01,NE,-6.57,-34.98,2009-01-14,FALSE
345,D29075,VITORIA,EOL.CV.PB.029075-0.01,NE,-6.56,-35.01,2010-11-28,FALSE
346,PBCANO,EOL CANOAS,EOL.CV.PB.033663-7.01,NE,-6.88,-36.76,2017-09-30,FALSE
347,PBLAGA,LAGOA 1,EOL.CV.PB.033664-5.01,NE,-6.87,-36.81,2017-10-31,FALSE
348,PBLAGO,LAGOA 2,EOL.CV.PB.033665-3.01,NE,-6.84,-36.79,2017-09-30,FALSE
349,PBCN4,CANOAS 4,EOL.CV.PB.037953-0.01,NE,-6.84,-36.73,2021-12-31,FALSE
350,PBCH1,CHAFARIZ 1,EOL.CV.PB.034639-0.01,NE,-6.97,-36.87,2021-08-13,FALSE
351,PBCH2,CHAFARIZ 2,EOL.CV.PB.034640-3.01,NE,-6.99,-36.89,2021-09-15,FALSE
352,PBCH3,CHAFARIZ 3,EOL.CV.PB.034642-0.01,NE,-7,-36.89,2021-09-25,FALSE
353,PBCH6,CHAFARIZ 6,EOL.CV.PB.035184-9.01,NE,-6.97,-36.85,2021-08-23,FALSE
354,PBCH7,CHAFARIZ 7,EOL.CV.PB.037958-1.01,NE,-6.92,-36.86,2021-07-29,FALSE
355,PBLG4,LAGOA 4,EOL.CV.PB.038030-0.01,NE,-6.88,-36.84,2021-12-03,FALSE
356,PBCN3,EOL Canoas 3,EOL.CV.PB.037952-2.01,NE,-6.87,-36.75,2021-12-31,FALSE
357,PBVA1,EOL Ventos de Arapuá,EOL.CV.PB.035240-3.01,NE,-7.04,-36.95,2021-11-11,FALSE
358,PBVA2,EOL Ventos Arapuá 2,EOL.CV.PB.035241-1.01,NE,-7.02,-36.96,2021-11-11,FALSE
359,PBVA3,EOL Vento de Arapuá3,EOL.CV.PB.035242-0.01,NE,-7.05,-36.96,2021-11-11,FALSE
360,PBCH5,EOL Chafariz 5,EOL.CV.PB.034646-2.01,NE,-7,-36.91,2021-09-25,FALSE
361,PBCH4,EOL Chafariz 4,EOL.CV.PB.034644-6.01,NE,-7.03,-36.93,2021-10-21,FALSE
362,D29011,XAVANTE POMBOS,EOL.CV.PE.029011-4.01,NE,-8.17,-35.39,2010-04-24,FALSE
363,D29020,GRAVATA,EOL.CV.PE.029020-3.01,NE,-8.27,-35.6,2010-04-24,FALSE
364,D29015,MANDACARU,EOL.CV.PE.029015-7.01,NE,-8.28,-35.6,2010-04-24,FALSE
365,PESNTM,SANTA MARIA,EOL.CV.PE.029019-0.01,NE,-8.29,-35.59,2010-04-24,FALSE
366,D28481,PIRAUA MACAPARANA,EOL.CV.PE.028481-5.01,NE,-7.5,-35.5,2010-05-05,FALSE
367,PEUEPF,PAU FERRO,EOL.CV.PE.030805-6.01,NE,-9.06,-38.12,2015-02-04,FALSE
368,PEUETA,TACAICO,EOL.CV.PE.030789-0.01,NE,-9.02,-38.06,2015-02-04,FALSE
369,PEUEPG,PEDRA DO GERÔNIMO,EOL.CV.PE.030806-4.01,NE,-9.07,-38.14,2015-02-04,FALSE
370,PEESV3,SERRA DAS VACAS 3,EOL.CV.PE.031560-5.01,NE,-8.9,-36.76,2015-12-18,FALSE
371,PEESV2,SERRA DAS VACAS 2,EOL.CV.PE.031540-0.01,NE,-8.9,-36.73,2015-12-18,FALSE
372,PEESV1,SERRA DAS VACAS 1,EOL.CV.PE.031537-0.01,NE,-8.93,-36.74,2015-12-18,FALSE
373,PEESV4,SERRA DAS VACAS 4,EOL.CV.PE.031574-5.01,NE,-8.91,-36.73,2015-12-18,FALSE
374,PEECL1,SAO CLEMENTE I,EOL.CV.PE.031818-3.01,NE,-8.73,-36.7,2016-05-25,FALSE
375,PEECL3,SAO CLEMENTE III,EOL.CV.PE.031820-5.01,NE,-8.71,-36.72,2016-05-25,FALSE
376,PEECL4,SAO CLEMENTE IV,EOL.CV.PE.031821-3.01,NE,-8.7,-36.76,2016-05-25,FALSE
377,PEECL5,SAO CLEMENTE V,EOL.CV.PE.031822-1.01,NE,-8.78,-36.76,2016-06-14,FALSE
378,PEECL6,SAO CLEMENTE VI,EOL.CV.PE.031823-0.01,NE,-8.76,-36.71,2016-05-25,FALSE
379,PEECL7,SAO CLEMENTE VII,EOL.CV.PE.031824-8.01,NE,-8.75,-36.73,2016-05-25,FALSE
380,PEECL8,SAO CLEMENTE VIII,EOL.CV.PE.031825-6.01,NE,-8.7,-36.78,2016-06-21,FALSE
381,PIEES3,SANTO ESTEVAO III,EOL.CV.PE.031763-2.01,NE,-7.73,-40.64,2016-12-09,FALSE
382,PIEES5,SANTO ESTEVAO V,EOL.CV.PE.031764-0.01,NE,-7.76,-40.67,2016-12-13,FALSE
383,PIEES1,SANTO ESTEVAO I,EOL.CV.PE.031761-6.01,NE,-7.74,-40.67,2016-06-23,FALSE
384,PIEES2,SANTO ESTEVAO II,EOL.CV.PE.031762-4.01,NE,-7.75,-40.63,2017-05-06,FALSE
385,PIEES4,VENTOS STO ESTEVAO 4,EOL.CV.PE.032365-9.01,NE,-7.79,-40.63,2017-10-03,FALSE
386,PEESV5,SERRA DAS VACAS V,EOL.CV.PE.032360-8.01,NE,-8.91,-36.76,2017-12-01,FALSE
387,PEESV6,SERRA DAS VACAS VII,EOL.CV.PE.032361-6.01,NE,-8.92,-36.78,2017-12-01,FALSE
388,PEETA2,EGP Fonte d Ventos 3,EOL.CV.PE.044554-1.01,NE,-9.01,-38.07,2021-12-22,FALSE
389,PEEPF2,EGP Fontes Ventos 2,EOL.CV.PE.044553-3.01,NE,-9.03,-38.09,2021-12-22,FALSE
390,D28731,PEDRA DO SAL,EOL.CV.PI.028731-8.01,NE,-2.83,-41.71,2008-12-30,FALSE
391,D30827,PORTO DAS BARCAS,EOL.CV.PI.030827-7.01,NE,-2.82,-41.74,2014-07-02,FALSE
392,D30830,PORTO SALGADO,EOL.CV.PI.030830-7.01,NE,-2.84,-41.73,2014-07-10,FALSE
393,D30838,DELTA DO PARNAIBA,EOL.CV.PI.030838-2.01,NE,-2.84,-41.71,2014-07-02,FALSE
394,PIEO01,SANTO ONOFRE 1,EOL.CV.PI.031364-5.01,NE,-7.55,-40.73,2015-12-18,FALSE
395,PIEJ9,SANTA JOANA IX,EOL.CV.PI.031417-0.01,NE,-7.45,-40.74,2015-08-27,FALSE
396,PIEO03,SANTO ONOFRE III,EOL.CV.PI.031886-8.02,NE,-7.56,-40.73,2015-12-18,FALSE
397,PIEJ02,SANTA JOANA II,EOL.CV.PI.031361-0.01,NE,-7.57,-40.7,2015-12-18,FALSE
398,PIEJ06,SANTA JOANA VI,EOL.CV.PI.031367-0.01,NE,-7.53,-40.74,2015-12-18,FALSE
399,PIEJ08,SANTA JOANA VIII,EOL.CV.PI.031366-1.01,NE,-7.6,-40.73,2015-12-18,FALSE
400,PIEJ15,SANTA JOANA XIV,EOL.CV.PI.031368-8.01,NE,-7.51,-40.73,2015-12-18,FALSE
401,PIEO02,SANTO ONOFRE II,EOL.CV.PI.031362-9.01,NE,-7.59,-40.73,2015-12-18,FALSE
402,PIEJ10,VENTOS STA JOANA X,EOL.CV.PI.031393-9.01,NE,-7.44,-40.71,2015-07-09,FALSE
403,PIEJ12,SANTA JOANA XII,EOL.CV.PI.031414-5.01,NE,-7.49,-40.75,2015-07-09,FALSE
404,PIEJ13,VENTOS ST JOANA XIII,EOL.CV.PI.031394-7.01,NE,-7.41,-40.71,2015-07-09,FALSE
405,PIEJ14,SANTA JOANA XV,EOL.CV.PI.031416-1.01,NE,-7.48,-40.77,2015-07-09,FALSE
406,PIEJ11,SANTA JOANA XI,EOL.CV.PI.031388-2.01,NE,-7.48,-40.8,2015-07-09,FALSE
407,PIEJ16,SANTA JOANA XVI,EOL.CV.PI.031392-0.01,NE,-7.46,-40.72,2015-07-09,FALSE
408,PIEJ01,EOL SANTA JOANA I,EOL.CV.PI.031581-8.01,NE,-7.42,-40.67,2016-01-16,FALSE
409,PIEJ03,EOL SANTA JOANA III,EOL.CV.PI.031580-0.01,NE,-7.44,-40.75,2016-03-11,FALSE
410,PIEJ04,EOL SANTA JOANA IV,EOL.CV.PI.031520-6.01,NE,-7.45,-40.69,2016-01-16,FALSE
411,PIEJ05,EOL SANTA JOANA V,EOL.CV.PI.031538-9.01,NE,-7.37,-40.67,2016-01-22,FALSE
412,PIEJ07,EOL SANTA JOANA VII,EOL.CV.PI.031597-4.01,NE,-7.41,-40.67,2016-01-30,FALSE
413,PIEAU4,SANTO AUGUSTO IV,EOL.CV.PI.031603-2.01,NE,-7.37,-40.71,2016-02-06,FALSE
414,PIEAU3,EOL SANTO AUGUSTOIII,EOL.CV.PI.031662-8.01,NE,-7.37,-40.71,2016-01-16,FALSE
415,PIEAU5,EOL SANTO AUGUSTO V,EOL.CV.PI.031661-0.01,NE,-7.41,-40.7,2016-01-22,FALSE
416,PIESAN,SANTA ANGELINA,EOL.CV.PI.031275-4.01,NE,-7.3,-40.53,2016-07-05,FALSE
417,PITESA,EOL TESTA BRANCA III,EOL.CV.PI.033479-0.01,NE,-2.79,-41.79,2016-08-12,FALSE
418,PITEST,EOL TESTA BRANCA I,EOL.CV.PI.031666-0.01,NE,-2.81,-41.78,2016-09-23,FALSE
419,PIESFA,SANTA FATIMA,EOL.CV.PI.031273-8.01,NE,-7.34,-40.57,2017-07-28,FALSE
420,PIESRE,VENTOS SANTA REGINA,EOL.CV.PI.031276-2.01,NE,-7.33,-40.59,2017-07-19,FALSE
421,PIESBA,VENTOS SANTA BARBARA,EOL.CV.PI.031274-6.01,NE,-7.3,-40.54,2017-05-26,FALSE
422,PIESAD,VENTOS SANTO ADRIANO,EOL.CV.PI.031271-1.01,NE,-7.34,-40.56,2017-07-18,FALSE
423,PIESED,SANTA EDWIGES,EOL.CV.PI.031270-3.01,NE,-7.31,-40.56,2017-06-24,FALSE
424,PIESAL,VENTOS SANTO ALBANO,EOL.CV.PI.031272-0.01,NE,-7.36,-40.58,2017-07-19,FALSE
425,PIPORD,EOL PORTO DO DELTA,EOL.CV.PI.030639-8.01,NE,-2.84,-41.69,2016-11-04,FALSE
426,PIEAU2,SANTO AUGUSTO II,EOL.CV.PI.031747-0.02,NE,-7.77,-40.68,2016-12-29,FALSE
427,PIEAU8,SANTO AUGUSTO VIII,EOL.CV.PI.031767-5.01,NE,-7.77,-40.68,2016-12-24,FALSE
428,PIEAU1,VENTOS STO AUGUSTO I,EOL.CV.PI.031746-2.02,NE,-7.74,-40.68,2017-02-18,FALSE
429,PIEAU6,V SANTO AUGUSTO VI,EOL.CV.PI.031766-7.01,NE,-7.71,-40.68,2017-03-24,FALSE
430,PIEAU7,VENTOS STO AUGUSTO 7,EOL.CV.PI.031749-7.01,NE,-7.73,-40.68,2017-03-04,FALSE
431,PIEO04,V SANTO ONOFRE 4,EOL.CV.PI.032366-7.01,NE,-7.6,-40.68,2017-06-14,FALSE
432,PIEVI1,SAO VIRGILIO 01,EOL.CV.PI.032367-5.01,NE,-7.74,-40.72,2017-08-30,FALSE
433,PIEVI3,VENTOS S VIRGILIO 03,EOL.CV.PI.032368-3.01,NE,-7.8,-40.71,2017-09-29,FALSE
434,PIEVI2,VENTOS S VIRGILIO 02,EOL.CV.PI.033667-0.01,NE,-7.79,-40.73,2017-02-10,FALSE
435,PIEV14,VENTOS VICENTE 14,EOL.CV.PI.033138-4.01,NE,-7.99,-40.58,2017-08-02,FALSE
436,PIEV08,VENTOS S VICENTE 08,EOL.CV.PI.033144-9.01,NE,-8.01,-40.63,2017-10-06,FALSE
437,PIEV09,VENTOS S VICENTE 09,EOL.CV.PI.033143-0.01,NE,-8.02,-40.66,2017-12-06,FALSE
438,PIEV10,VENTOS S VICENTE 10,EOL.CV.PI.033136-8.01,NE,-8.02,-40.62,2017-11-17,FALSE
439,PIEV11,VENTOS S VICENTE 11,EOL.CV.PI.033141-4.01,NE,-8.02,-40.62,2017-11-09,FALSE
440,PIEV12,VENTOS S VICENTE 12,EOL.CV.PI.033140-6.01,NE,-8.02,-40.62,2017-08-29,FALSE
441,PIEV13,VENTOS S VICENTE 13,EOL.CV.PI.033139-2.01,NE,-8,-40.61,2017-09-19,FALSE
442,PIELB1,AURA LAGOA DO BARRO,EOL.CV.PI.033621-1.01,NE,-8.7,-41.64,2018-10-27,FALSE
443,PIELB3,LAGOA DO BARRO 03,EOL.CV.PI.033619-0.01,NE,-8.61,-41.55,2018-12-21,FALSE
444,PIELB4,LAGOA DO BARRO 04,EOL.CV.PI.033620-3.01,NE,-8.59,-41.54,2018-12-28,FALSE
445,PIELB5,LAGOA BARRO 05,EOL.CV.PI.033623-8.01,NE,-8.59,-41.54,2018-11-02,FALSE
446,PIELB6,LAGOA DO BARRO 06,EOL.CV.PI.033624-6.01,NE,-8.63,-41.56,2018-12-18,FALSE
447,PIELB7,LAGOA DO BARRO 07,EOL.CV.PI.033618-1.01,NE,-8.68,-41.63,2018-11-27,FALSE
448,PIEQN3,QUEIMADA NOVA 03,EOL.CV.PI.033625-4.01,NE,-8.67,-41.63,2018-12-01,FALSE
449,PIELB2,LAGOA DO BARRO 02,EOL.CV.PI.033622-0.01,NE,-8.65,-41.57,2018-12-13,FALSE
450,PISA08,SANTA ANGELA 08,EOL.CV.PI.033012-4.01,NE,-8.56,-41.49,2020-12-31,FALSE
451,PIVSA1,V STA ANGELA 01,EOL.CV.PI.033005-1.01,NE,-8.51,-41.55,2020-11-12,FALSE
452,PISA02,V STA ANGELA 02,EOL.CV.PI.033006-0.01,NE,-8.54,-41.57,2020-11-12,FALSE
453,PISA03,V STA ANGELA 03,EOL.CV.PI.033007-8.01,NE,-8.57,-41.57,2020-11-12,FALSE
454,PISA04,V STA ANGELA 04,EOL.CV.PI.033008-6.01,NE,-8.6,-41.59,2020-11-12,FALSE
455,PISA05,V STA ANGELA 05,EOL.CV.PI.033009-4.01,NE,-8.46,-41.44,2020-12-29,FALSE
456,PISA06,V STA ANGELA 06,EOL.CV.PI.033010-8.01,NE,-8.48,-41.45,2020-12-30,FALSE
457,PISA07,V STA ANGELA 07,EOL.CV.PI.033011-6.01,NE,-8.53,-41.48,2020-12-30,FALSE
458,PISA09,V STA ANGELA 09,EOL.CV.PI.033013-2.01,NE,-8.59,-41.47,2020-12-31,FALSE
459,PISA10,V STA ANGELA 10,EOL.CV.PI.033014-0.01,NE,-8.63,-41.49,2020-12-31,FALSE
460,PISA11,V STA ANGELA 11,EOL.CV.PI.033015-9.01,NE,-8.66,-41.5,2020-12-31,FALSE
461,PISA14,V STA ANGELA 14,EOL.CV.PI.033018-3.01,NE,-8.7,-41.51,2020-12-31,FALSE
462,PISA15,V STA ANGELA 15,EOL.CV.PI.033019-1.01,NE,-8.72,-41.47,2021-03-27,FALSE
463,PISA17,V STA ANGELA 17,EOL.CV.PI.033021-3.01,NE,-8.71,-41.42,2021-04-07,FALSE
464,PISA19,V STA ANGELA 19,EOL.CV.PI.033023-0.01,NE,-8.74,-41.47,2021-04-07,FALSE
465,PISA20,V STA ANGELA 20,EOL.CV.PI.033024-8.01,NE,-8.78,-41.45,2021-02-13,FALSE
466,PISA21,V STA ANGELA 21,EOL.CV.PI.033025-6.01,NE,-8.8,-41.46,2021-01-28,FALSE
467,PISA12,SANTA ANGELA 12,EOL.CV.PI.033016-7.01,NE,-8.76,-41.43,2021-03-19,FALSE
468,PISA13,SANTA ANGELA 13,EOL.CV.PI.033017-5.01,NE,-8.76,-41.4,2021-03-19,FALSE
469,PISA18,SANTA ANGELA 18,EOL.CV.PI.033022-1.01,NE,-8.73,-41.39,2021-03-13,FALSE
470,PISA16,Ventos Santa Ângela,EOL.CV.PI.033020-5.01,NE,-8.73,-41.55,2021-05-19,FALSE
471,PIEQN1,AURA QUEIMADA NOVA 1,EOL.CV.PI.032863-4.01,NE,-8.68,-41.58,2021-12-08,FALSE
472,PIEQN2,AURA QUEIMADA NOVA 2,EOL.CV.PI.040567-1.01,NE,-8.62,-41.59,2021-12-08,FALSE
473,RNUERF,RIO DO FOGO,EOL.CV.RN.028424-6.01,NE,-5.3,-35.38,2006-07-15,FALSE
474,RNUAU,ALEGRIA I,EOL.CV.RN.028444-0.01,NE,-5.09,-36.36,2010-12-30,FALSE
475,RNUEM3,MANGUE SECO 3,EOL.CV.RN.030281-3.01,NE,-5.19,-36.36,2011-08-26,FALSE
476,RNUEM2,MANGUE SECO 2,EOL.CV.RN.030284-8.01,NE,-5.17,-36.32,2011-09-24,FALSE
477,RNUEM1,MANGUE SECO 1,EOL.CV.RN.030285-6.01,NE,-5.17,-36.3,2011-09-30,FALSE
478,RNUEM5,MANGUE SECO 5,EOL.CV.RN.030290-2.01,NE,-5.17,-36.41,2011-11-01,FALSE
479,D30370,MIASSABA 2,EOL.CV.RN.030370-4.01,NE,-5.08,-36.41,2011-12-22,FALSE
480,D30121,ARATUA 1,EOL.CV.RN.030121-3.01,NE,-5.09,-36.34,2012-01-31,FALSE
481,D30333,CABECO PRETO,EOL.CV.RN.030333-0.01,NE,-5.42,-35.95,2012-05-04,FALSE
482,D30501,CABECO PRETO IV,EOL.CV.RN.030501-4.01,NE,-5.45,-35.96,2012-05-04,FALSE
483,RNUERU,REI VENTOS 1 2LER,EOL.CV.RN.030416-6.01,NE,-5.1,-36.2,2014-02-01,FALSE
484,RNUERT,REI VENTOS 3 2LER,EOL.CV.RN.030417-4.01,NE,-5.12,-36.16,2014-02-01,FALSE
485,RNUES3,MIASSABA 3,EOL.CV.RN.030339-9.01,NE,-5.13,-36.45,2014-02-01,FALSE
486,RNCEM1,MORRO DOS VENTOS I,EOL.CV.RN.030301-1.01,NE,-5.36,-35.82,2014-03-29,FALSE
487,RNCEM3,MORRO DOS VENTOS III,EOL.CV.RN.030310-0.01,NE,-5.37,-35.87,2014-03-29,FALSE
488,RNCEM4,MORRO DOS VENTOS IV,EOL.CV.RN.030311-9.01,NE,-5.38,-35.88,2014-03-29,FALSE
489,RNCEM6,MORRO DOS VENTOS VI,EOL.CV.RN.030300-3.01,NE,-5.34,-35.88,2014-03-29,FALSE
490,RNCEM9,MORRO DOS VENTOS IX,EOL.CV.RN.030302-0.01,NE,-5.31,-35.91,2014-03-29,FALSE
491,RNUER6,EURUS VI,EOL.CV.RN.030351-8.01,NE,-5.23,-35.93,2014-03-29,FALSE
492,RNUEC1,STA CLARA I (SCLARA),EOL.CV.RN.030292-9.01,NE,-5.24,-35.9,2014-03-29,FALSE
493,RNUEC2,STA CLARA II,EOL.CV.RN.030308-9.01,NE,-5.27,-35.91,2014-03-29,FALSE
494,RNUEC3,STA CLARA III,EOL.CV.RN.030293-7.01,NE,-5.27,-35.9,2014-03-29,FALSE
495,RNUEC4,STA CLARA IV,EOL.CV.RN.030307-0.01,NE,-5.24,-35.91,2014-03-29,FALSE
496,RNUEC5,STA CLARA V,EOL.CV.RN.030378-0.01,NE,-5.26,-35.92,2014-03-29,FALSE
497,RNUEC6,STA CLARA VI,EOL.CV.RN.030304-6.01,NE,-5.24,-35.93,2014-03-29,FALSE
498,RNUEAB,AREIA BRANCA (EBV),EOL.CV.RN.030340-2.01,NE,-4.97,-36.9,2014-02-18,FALSE
499,RNUEMT,MAR E TERRA,EOL.CV.RN.030389-5.01,NE,-4.96,-36.91,2014-02-18,FALSE
500,RNUAD,ALEGRIA II,EOL.CV.RN.028443-2.01,NE,-5.12,-36.38,2011-12-30,FALSE
501,D30454,MEL 2,EOL.CV.RN.030454-9.01,NE,-4.95,-36.96,2013-02-19,FALSE
502,RNCEM2,MORRO DOS VENTOS 2,EOL.CV.RN.030889-7.01,NE,-5.36,-35.84,2015-04-16,FALSE
503,RNEBF3,BAIXA DO FEIJAO 3,EOL.CV.RN.030934-6.01,NE,-5.3,-36.04,2016-05-21,FALSE
504,RNEBF2,BAIXA DO FEIJAO 2,EOL.CV.RN.030933-8.01,NE,-5.37,-36.03,2016-05-21,FALSE
505,RNEBF1,BAIXA DO FEIJAO 1,EOL.CV.RN.030932-0.01,NE,-5.32,-36.06,2016-05-21,FALSE
506,RNEBF4,BAIXA DO FEIJAO IV,EOL.CV.RN.030931-1.01,NE,-5.34,-36.04,2016-05-21,FALSE
507,RNECA1,CAICARA I,EOL.CV.RN.030895-1.02,NE,-5,-36.91,2015-12-05,FALSE
508,RNECAD,CARCARA II,EOL.CV.RN.030897-8.01,NE,-4.95,-37,2014-12-09,FALSE
509,RNEJU2,JUNCO 2,EOL.CV.RN.030914-1.02,NE,-5.03,-36.93,2015-12-05,FALSE
510,RNECP5,CABECO PRETO 5,EOL.CV.RN.030876-5.01,NE,-5.48,-36,2016-11-17,FALSE
511,RNECP6,CABECO PRETO 6,EOL.CV.RN.030900-1.01,NE,-5.45,-35.95,2016-11-19,FALSE
512,RNETER,TERRAL,EOL.CV.RN.030898-6.01,NE,-4.96,-37.04,2015-03-24,FALSE
513,RNEMC1,MACAMBIRA 1,EOL.CV.RN.031025-5.01,NE,-6.05,-36.56,2016-07-14,FALSE
514,RNEMC2,MACAMBIRA 2,EOL.CV.RN.031026-3.01,NE,-6.08,-36.53,2016-07-23,FALSE
515,RNECP3,CABECO PRETO 3,EOL.CV.RN.031015-8.01,NE,-5.4,-35.98,2016-11-17,FALSE
516,RNUEFA,FAROL,EOL.CV.RN.030502-2.01,NE,-5.1,-36.02,2015-02-25,FALSE
517,D30622,ARIZONA 1,EOL.CV.RN.030622-3.01,NE,-5.3,-35.38,2013-10-01,FALSE
518,RNUESB,S BENTO NORTE 2 LFA,EOL.CV.RN.030536-7.01,NE,-5.05,-35.98,2015-02-25,FALSE
519,RNUEOD,OLHO DAGUA 2LFA,EOL.CV.RN.030549-9.01,NE,-5.05,-35.97,2015-02-25,FALSE
520,RNUEBV,BOA VISTA 2LFA,EOL.CV.RN.030512-0.01,NE,-5.11,-35.93,2015-02-25,FALSE
521,RNECBR,COSTA BRANCA 2LFA,EOL.CV.RN.030672-0.01,NE,-5.42,-35.85,2014-12-03,FALSE
522,RNUEG1,CALANGO 1 2LFA,EOL.CV.RN.030511-1.01,NE,-6.03,-36.54,2016-01-30,FALSE
523,RNUEG2,CALANGO 2 2LFA,EOL.CV.RN.030519-7.01,NE,-6.02,-36.48,2016-01-30,FALSE
524,RNUEG3,CALANGO 3 2LFA,EOL.CV.RN.030545-6.01,NE,-6.05,-36.55,2016-01-30,FALSE
525,RNUEG4,CALANGO 4 2LFA,EOL.CV.RN.030537-5.01,NE,-6.02,-36.47,2016-01-30,FALSE
526,RNUEG5,CALANGO 5 2LFA,EOL.CV.RN.030552-9.01,NE,-6.03,-36.49,2016-01-30,FALSE
527,RNEAB8,ASA BRANCA 8 2LFA,EOL.CV.RN.030508-1.01,NE,-5.28,-35.98,2014-12-06,FALSE
528,RNEAB7,ASA BRANCA 7 2LFA,EOL.CV.RN.030513-8.01,NE,-5.25,-35.94,2014-12-06,FALSE
529,RNEAB6,ASA BRANCA 6 2LFA,EOL.CV.RN.030520-0.01,NE,-5.36,-36,2014-12-06,FALSE
530,RNEAB5,ASA BRANCA 5 2LFA,EOL.CV.RN.030507-3.01,NE,-5.38,-36.01,2014-12-06,FALSE
531,RNEAB4,ASA BRANCA 4 2LFA,EOL.CV.RN.030498-0.01,NE,-5.33,-35.99,2014-12-06,FALSE
532,RNEPEP,PEDRA PRETA 2LFA,EOL.CV.RN.030671-1.01,NE,-5.43,-35.85,2014-12-03,FALSE
533,RNEMAC,MACACOS 2LFA,EOL.CV.RN.030661-4.01,NE,-5.41,-35.85,2014-12-11,FALSE
534,RNEJUR,JUREMAS 2LFA,EOL.CV.RN.030660-6.01,NE,-5.39,-35.85,2014-12-05,FALSE
535,RNCEE1,EURUS 1 3LER,EOL.CV.RN.030503-0.01,NE,-5.37,-35.86,2014-12-03,FALSE
536,RNECV2,C DOS VENTOS 2 3LER,EOL.CV.RN.030500-6.01,NE,-5.32,-35.93,2014-12-04,FALSE
537,RNUERN,RENASCENÇA 5 3LER,EOL.CV.RN.030497-2.01,NE,-5.27,-35.86,2015-01-01,FALSE
538,RNCEE3,EURUS 3 3LER,EOL.CV.RN.030504-9.01,NE,-5.4,-35.87,2014-12-03,FALSE
539,RNUEER,EURUS 2 3LER,EOL.CV.RN.030499-9.01,NE,-5.39,-35.83,2015-01-01,FALSE
540,RNESS1,S DE SANTANA 1 3LER,EOL.CV.RN.030625-8.01,NE,-6.06,-36.58,2016-03-02,FALSE
541,RNESS2,S DE SANTANA 2 3LER,EOL.CV.RN.030609-6.01,NE,-6.1,-36.58,2016-03-02,FALSE
542,RNESS3,S DE SANTANA 3 3LER,EOL.CV.RN.030615-0.01,NE,-6.02,-36.51,2016-03-02,FALSE
543,RNEPR1,RENASCENÇA I 2LFA,EOL.CV.RN.030515-4.01,NE,-5.3,-35.87,2014-12-24,FALSE
544,RNEPR2,RENASCENÇA II 2LFA,EOL.CV.RN.030516-2.01,NE,-5.31,-35.89,2014-12-24,FALSE
545,RNEPR3,RENASCENÇA III,EOL.CV.RN.030527-8.01,NE,-5.3,-35.9,2014-12-24,FALSE
546,RNEPR4,RENASCENÇA IV,EOL.CV.RN.030551-0.01,NE,-5.3,-35.92,2014-12-24,FALSE
547,RNEVSM,VENTOS DE SÃO MIGUEL,EOL.CV.RN.030514-6.01,NE,-5.28,-35.88,2014-12-24,FALSE
548,RNEEU4,EURUS IV,EOL.CV.RN.030509-0.01,NE,-5.26,-35.81,2015-08-20,FALSE
549,RNEAB3,ASA BRANCA 3 2LFA,EOL.CV.RN.030548-0.01,NE,-5.26,-35.84,2015-09-04,FALSE
550,RNEAB2,ASA BRANCA 2 2LFA,EOL.CV.RN.030547-2.01,NE,-5.23,-35.88,2015-09-15,FALSE
551,RNEAB1,ASA BRANCA 1 2LFA,EOL.CV.RN.030505-7.01,NE,-5.23,-35.83,2015-08-05,FALSE
552,RNUEMP,MODELO I,EOL.CV.RN.030787-4.01,NE,-5.43,-35.89,2014-10-25,FALSE
553,RNUEMD,MODELO II,EOL.CV.RN.030788-2.01,NE,-5.41,-35.9,2014-10-23,FALSE
554,RNUEVX,UNIAO DOS VENTOS 10,EOL.CV.RN.030571-5.01,NE,-5.11,-35.89,2014-04-05,FALSE
555,RNUEV9,UNIAO DOS VENTOS 09,EOL.CV.RN.030570-7.01,NE,-5.09,-35.89,2014-04-05,FALSE
556,RNUEV8,UNIAO DOS VENTOS 08,EOL.CV.RN.030569-3.01,NE,-5.07,-35.89,2014-04-05,FALSE
557,RNUEV7,UNIAO DOS VENTOS 07,EOL.CV.RN.030568-5.01,NE,-5.1,-35.75,2014-04-05,FALSE
558,RNUEV6,UNIÃO DOS VENTOS 06,EOL.CV.RN.030567-7.01,NE,-5.09,-35.77,2014-04-05,FALSE
559,RNUEV5,UNIAO DOS VENTOS 05,EOL.CV.RN.030566-9.01,NE,-5.09,-35.78,2014-04-08,FALSE
560,RNUEV4,UNIÃO DOS VENTOS 04,EOL.CV.RN.030565-0.01,NE,-5.09,-35.8,2014-04-08,FALSE
561,RNUEV3,UNIAO DOS VENTOS 03,EOL.CV.RN.030564-2.01,NE,-5.08,-35.81,2014-04-08,FALSE
562,RNUEV2,UNIAO DOS VENTOS 02,EOL.CV.RN.030563-4.01,NE,-5.08,-35.83,2014-04-05,FALSE
563,RNUEV1,UNIÃO DOS VENTOS 01,EOL.CV.RN.030562-6.01,NE,-5.08,-35.84,2014-04-05,FALSE
564,RNECNB,CARNAUBAS,EOL.CV.RN.030831-5.01,NE,-5.15,-35.66,2017-06-17,FALSE
565,RNECAU,CARCARA I,EOL.CV.RN.030832-3.01,NE,-4.94,-36.99,2015-03-24,FALSE
566,RNELAN,LANCHINHA,EOL.CV.RN.030860-9.01,NE,-6.14,-36.72,2016-02-19,FALSE
567,RNERED,REDUTO,EOL.CV.RN.030843-9.01,NE,-5.13,-35.69,2017-06-17,FALSE
568,RNESJO,EOL SAO JOAO,EOL.CV.RN.030804-8.01,NE,-5.13,-35.65,2017-06-20,FALSE
569,RNESMA,SM (SANTA MARIA),EOL.CV.RN.030864-1.01,NE,-5.44,-35.92,2015-04-23,FALSE
570,RNESHE,SANTA HELENA,EOL.CV.RN.030834-0.01,NE,-5.47,-35.92,2015-05-06,FALSE
571,RNESCR,SANTO CRISTO,EOL.CV.RN.030849-8.01,NE,-5.14,-35.62,2017-06-17,FALSE
572,RNESUR,VENTOS DE STO URIEL,EOL.CV.RN.030828-5.01,NE,-5.49,-35.9,2015-05-22,FALSE
573,RNEPEL,PARQUE EÓLICO PELADO,EOL.CV.RN.030856-0.01,NE,-6,-36.44,2016-02-20,FALSE
574,RNUER1,RIACHÃO VI,EOL.CV.RN.030872-2.01,NE,-5.54,-35.45,2015-06-01,FALSE
575,RNUER7,RIACHÃO VII,EOL.CV.RN.030873-0.01,NE,-5.58,-35.46,2015-06-01,FALSE
576,RNECV1,CAMPO DOS VENTOS I,EOL.CV.RN.031072-7.01,NE,-5.35,-35.94,2016-06-23,FALSE
577,RNECV3,CAMPO DOS VENTOS III,EOL.CV.RN.031071-9.01,NE,-5.34,-35.97,2016-05-05,FALSE
578,RNECV5,Campo dos Ventos V,EOL.CV.RN.031069-7.01,NE,-5.29,-35.95,2016-06-04,FALSE
579,RNEVP1,EOL VILA PARA I,EOL.CV.RN.031759-4.01,NE,-5.04,-36.91,2016-09-10,FALSE
580,RNEVP3,EOL VILA PARA III,EOL.CV.RN.031765-9.01,NE,-5.06,-36.91,2016-10-07,FALSE
581,RNEBEN,EOL SAO BENEDITO,EOL.CV.RN.031373-4.01,NE,-5.23,-35.79,2016-08-13,FALSE
582,RNEVP2,EOL VILA PARA II,EOL.CV.RN.031757-8.01,NE,-5.04,-36.91,2016-09-15,FALSE
583,RNEVA5,EOL VILA AMAZONAS V,EOL.CV.RN.031750-0.01,NE,-5,-36.95,2016-08-27,FALSE
584,RNEDIM,VENTOS SANTO DIMAS,EOL.CV.RN.031372-6.01,NE,-5.23,-35.79,2016-10-11,FALSE
585,RNEDOM,SAO DOMINGOS,EOL.CV.RN.032215-6.01,NE,-5.21,-35.82,2016-08-27,FALSE
586,RNEMTO,VENTOS SAO MARTINHO,EOL.CV.RN.031412-9.01,NE,-5.28,-35.78,2016-11-04,FALSE
587,RNEMON,EOL SANTA MONICA,EOL.CV.RN.031427-7.01,NE,-5.28,-35.8,2016-12-09,FALSE
588,RNEURS,EOL SANTA URSULA,EOL.CV.RN.031425-0.01,NE,-5.29,-35.79,2016-11-15,FALSE
589,RNUEG6,CALANGO 6,EOL.CV.RN.031812-4.01,NE,-6.01,-36.45,2016-12-28,FALSE
590,RNESA1,SANTANA 1,EOL.CV.RN.031810-8.01,NE,-6.03,-36.44,2016-12-28,FALSE
591,RNESA2,SANTANA 2,EOL.CV.RN.031811-6.01,NE,-6.07,-36.45,2016-12-28,FALSE
592,RNEVAI,VILA ACRE 1,EOL.CV.RN.033752-8.01,NE,-5.06,-37.03,2017-06-23,FALSE
593,RNEARO,EOL AROEIRA,EOL.CV.RN.031801-9.01,NE,-5.34,-36.11,2017-12-28,FALSE
594,RNECVE,EOL CABECO VERMELHO,EOL.CV.RN.031651-2.01,NE,-5.51,-36.02,2018-05-22,FALSE
595,RNECVD,CABECO VERMELHO 2,EOL.CV.RN.031665-2.01,NE,-5.49,-35.99,2018-05-22,FALSE
596,RNUE15,UNIAO DOS VENTOS 15,EOL.CV.RN.031642-3.01,NE,-5.28,-35.76,2019-12-17,FALSE
597,RNUE16,UNIAO DOS VENTOS 16,EOL.CV.RN.031652-0.01,NE,-5.27,-35.77,2019-12-19,FALSE
598,RNEJER,JERICO,EOL.CV.RN.031802-7.01,NE,-5.37,-36.09,2017-12-28,FALSE
599,RNEUBZ,UMBUZEIROS,EOL.CV.RN.031826-4.01,NE,-5.41,-36.08,2018-03-30,FALSE
600,RNEPRA,PEDRA RAJADA,EOL.CV.RN.032352-7.01,NE,-5.91,-36.31,2017-12-07,FALSE
601,RNEPRD,PEDRA RAJADA II,EOL.CV.RN.032353-5.01,NE,-5.89,-36.29,2017-12-07,FALSE
602,RNEBE1,BOA ESPERANÇA I,EOL.CV.RN.033666-1.01,NE,-5.53,-35.97,2019-01-05,FALSE
603,RNECUT,DREEN Cutia,EOL.CV.RN.030701-7.01,NE,-5.1,-35.9,2018-12-22,FALSE
604,RNEGUA,DREEN Guajiru,EOL.CV.RN.030699-1.01,NE,-5.09,-35.91,2018-12-28,FALSE
605,RNEENE,EOL Esperança do Nor,EOL.CV.RN.032354-3.01,NE,-5.08,-35.96,2018-12-28,FALSE
606,RNEJAN,GE Jangada,EOL.CV.RN.030700-9.01,NE,-5.06,-36.01,2018-12-29,FALSE
607,RNEMHE,EOL Maria Helena,EOL.CV.RN.030702-5.01,NE,-5.07,-36.01,2018-12-28,FALSE
608,RNEPVN,PV DO NORDESTE,EOL.CV.RN.032355-1.01,NE,-5.08,-35.94,2019-01-05,FALSE
609,RNEPOT,EOL Potiguar,EOL.CV.RN.032356-0.01,NE,-5.06,-35.9,2018-12-28,FALSE
610,RNESB1,SÃO BENTO DO NORTE I,EOL.CV.RN.033640-8.01,NE,-5.13,-35.93,2019-01-29,FALSE
611,RNESB2,SÃO BENTO NORTE II,EOL.CV.RN.033642-4.01,NE,-5.15,-35.94,2019-01-29,FALSE
612,RNESB3,S BENTO DO NORTE III,EOL.CV.RN.033643-2.01,NE,-5.07,-36.03,2019-04-08,FALSE
613,RNESM1,SAO MIGUEL I,EOL.CV.RN.033644-0.01,NE,-5.15,-35.99,2019-02-14,FALSE
614,RNESM2,SAO MIGUEL II,EOL.CV.RN.033645-9.01,NE,-5.16,-36,2019-02-02,FALSE
615,RNESM3,SAO MIGUEL III,EOL.CV.RN.033647-5.01,NE,-5.16,-36,2019-02-14,FALSE
616,RNUE12,UNIÃO DOS VENTOS 12,EOL.CV.RN.031645-8.01,NE,-5.09,-35.87,2018-02-10,FALSE
617,RNUE14,UNIÃO DOS VENTOS 14,EOL.CV.RN.031643-1.01,NE,-5.1,-35.85,2018-01-26,FALSE
618,RNUE13,UNIÃO DOS VENTOS 13,EOL.CV.RN.031697-0.01,NE,-5.09,-35.86,2018-01-27,FALSE
619,RNEAV1,AVENTURA I,EOL.CV.RN.031887-6.01,NE,-5.37,-35.8,2018-03-20,FALSE
620,RNEPB2,VILA PARAIBA II,EOL.CV.RN.036985-3.01,NE,-5.11,-36.98,2020-04-10,FALSE
621,RNEPB1,VILA PARAIBA 1,EOL.CV.RN.036981-0.01,NE,-5.13,-36.98,2020-05-28,FALSE
622,RNEAV2,AVENTURA II,EOL.CV.RN.033002-7.01,NE,-5.32,-35.73,2021-07-08,FALSE
623,RNEAV3,AVENTURA III,EOL.CV.RN.033026-4.01,NE,-5.32,-35.75,2021-07-08,FALSE
624,RNEAV4,AVENTURA IV,EOL.CV.RN.037949-2.01,NE,-5.34,-35.77,2021-07-08,FALSE
625,RNEAV5,AVENTURA V,EOL.CV.RN.037950-6.01,NE,-5.34,-35.79,2021-07-08,FALSE
626,RNESR2,STA ROSA E MUNDO II,EOL.CV.RN.035211-0.01,NE,-5.88,-36.19,2021-12-01,FALSE
627,RNESR5,STA ROSA MUNDO 5,EOL.CV.RN.037664-7.01,NE,-5.9,-36.2,2021-12-18,FALSE
628,RNEVA2,Ventos Vila Acre II,EOL.CV.RN.033753-6.01,NE,-5.04,-37.02,2019-12-25,FALSE
629,RNECE1,VENTOS VILA CEARA I,EOL.CV.RN.036974-8.01,NE,-5.13,-37.04,2020-02-29,FALSE
630,RNECE2,VENTOS VILA CEARA II,EOL.CV.RN.036976-4.01,NE,-5.11,-37.04,2020-02-08,FALSE
631,RNERN1,VLRN1,EOL.CV.RN.038141-1.01,NE,-5.16,-37.02,2020-03-25,FALSE
632,RNEPI1,EOL Vila Piauí I,EOL.CV.RN.036975-6.01,NE,-5.1,-37.1,2020-07-17,FALSE
633,RNERN2,Vila Rio Grande N 2,EOL.CV.RN.038140-3.01,NE,-5.14,-37.04,2020-04-18,FALSE
634,RNEVS1,Vila Sergipe 1,EOL.CV.RN.038142-0.01,NE,-5.15,-37.06,2020-05-27,FALSE
635,RNEPI2,Vila Piauí 2,EOL.CV.RN.036973-0.01,NE,-5.1,-37.08,2020-08-27,FALSE
636,RNEPI3,Vila Piauí 3,EOL.CV.RN.036979-9.01,NE,-5.1,-37.06,2020-07-07,FALSE
637,RNEVS2,Vila Sergipe 2,EOL.CV.RN.038143-8.01,NE,-5.16,-37.06,2020-05-30,FALSE
638,RNEVS3,Vila Sergipe 3,EOL.CV.RN.038144-6.01,NE,-5.18,-37.08,2020-06-09,FALSE
639,RNEMA1,EOL Potiguar B141 SP,EOL.CV.RN.038325-2.01,NE,-5.07,-36.99,2021-02-11,FALSE
640,RNECEA,Vila Ceará I,EOL.CV.RN.036980-2.01,NE,-5.1,-37.01,2020-12-19,FALSE
641,RNEMA2,EOL Potiguar B142 SP,EOL.CV.RN.038326-0.01,NE,-5.05,-36.99,2021-03-31,FALSE
642,RNEMA3,Vila Maranhão III,EOL.CV.RN.038327-9.01,NE,-5.12,-37,2020-09-29,FALSE
643,RNETS2,EOL Terra Santa II,EOL.CV.RN.032501-5.01,NE,-5.22,-36.1,2021-06-29,FALSE
644,RNETS1,EOL Terra Santa I,EOL.CV.RN.032495-7.01,NE,-5.25,-36.05,2021-08-14,FALSE
645,RNEMT1,Ex Vila Alagoas III,EOL.CV.RN.036984-5.01,NE,-5.17,-37.1,2021-06-11,FALSE
646,RNECDU,COSTA DAS DUNAS,EOL.CV.RN.037959-0.01,NE,-5.23,-35.48,2021-06-25,FALSE
647,RNEFIB,FIGUEIRA BRANCA,EOL.CV.RN.038002-4.01,NE,-5.24,-35.46,2021-07-17,FALSE
648,RNEGAM,EOL GAMELEIRA,EOL.CV.RN.038006-7.01,NE,-5.24,-35.45,2021-08-06,FALSE
649,RNEM01,VENTOS DE SANTA MART,EOL.CV.RN.038310-4.01,NE,-5.73,-35.9,2021-10-14,FALSE
650,RNEM09,VENTOS STA MARTINA09,EOL.CV.RN.038318-0.01,NE,-5.82,-35.92,2021-06-19,FALSE
651,RNEM10,VENTOS STA MARTINA10,EOL.CV.RN.038319-8.01,NE,-5.85,-35.94,2021-07-14,FALSE
652,RNEM11,VENTOS STA MARTINA11,EOL.CV.RN.038320-1.01,NE,-5.78,-35.91,2021-08-19,FALSE
653,RNEM12,VENTOS STA MARTINA12,EOL.CV.RN.038321-0.01,NE,-5.76,-35.89,2021-09-17,FALSE
654,RNEM13,SANTA MARTINA 13,EOL.CV.RN.038322-8.01,NE,-5.71,-35.89,2021-08-31,FALSE
655,RNEFTO,FAROL DE TOUROS,EOL.CV.RN.037999-9.01,NE,-5.25,-35.5,2021-09-16,FALSE
656,RNESF2,SAO FERNANDO 2,EOL.CV.RN.037075-4.01,NE,-5.18,-36.02,2020-12-15,FALSE
657,RNEM14,SANTA MARTA 14,EOL.CV.RN.038323-6.01,NE,-5.71,-35.88,2021-11-19,FALSE
658,RNESF1,São Fernando 1,EOL.CV.RN.037073-8.01,NE,-5.17,-36.01,2020-10-03,FALSE
659,RNEP31,EOL Potiguar B31,EOL.CV.RN.040600-7.01,NE,-5.26,-37.11,2021-04-20,FALSE
660,RNEP32,EOL POTIGUAR B32,EOL.CV.RN.040601-5.01,NE,-5.18,-36.98,2021-04-30,FALSE
661,RNEP33,EOL Potiguar B33 SPE,EOL.CV.RN.040602-3.01,NE,-5.26,-37.15,2021-06-02,FALSE
662,RNESF3,EOL São Fernando 3,EOL.CV.RN.037076-2.01,NE,-5.15,-36.04,2020-12-25,FALSE
663,RNESF4,São Fernando 4,EOL.CV.RN.037077-0.01,NE,-5.12,-36.01,2021-03-30,FALSE
664,RNEEP1,EOL Vl Espírito St I,EOL.CV.RN.040594-9.01,NE,-5.18,-37.11,2021-11-26,FALSE
665,RNEEP5,Vl Espírit St 947208,EOL.CV.RN.040598-1.01,NE,-5.23,-37.13,2021-12-31,FALSE
666,RNTEB1,Toda Energia do Bras,EOL.CV.RN.046742-1.01,NE,-5.09,-37.1,2021-09-07,FALSE
667,RNECM1,EGP CUMARU 01,EOL.CV.RN.032207-5.01,NE,-5.15,-35.76,2021-08-04,FALSE
668,RNECM5,Cumaru 05,EOL.CV.RN.037021-5.01,NE,-5.14,-35.79,2021-10-16,FALSE
669,RNECM3,EGP Cumaru 3,EOL.CV.RN.032209-1.01,NE,-5.13,-35.8,2021-10-16,FALSE
670,RNECM2,EGP CUMARU 02,EOL.CV.RN.032208-3.01,NE,-5.18,-35.78,2021-08-13,FALSE
671,RNECM4,Enel G Power Cum 04,EOL.CV.RN.037020-7.01,NE,-5.16,-35.78,2021-10-16,FALSE
672,RSCH02,CHUI II,EOL.CV.RS.030790-4.01,S,-33.66,-53.4,2015-06-16,FALSE
673,RSEIN2,INDIOS 2,EOL.CV.RS.030734-3.01,S,-30,-50.33,2014-12-16,FALSE
674,RSCSE4,CORREDOR SENANDES IV,EOL.CV.RS.030840-4.01,S,-32.37,-52.34,2015-04-11,FALSE
675,RSCSE3,CORREDOR SENANDES 3,EOL.CV.RS.030819-6.01,S,-32.41,-52.36,2015-01-23,FALSE
676,RSCSE2,CORREDOR SENANDES 2,EOL.CV.RS.030842-0.01,S,-32.39,-52.33,2015-02-04,FALSE
677,RSVAR1,VENTO ARAGANO I,EOL.CV.RS.030833-1.01,S,-32.42,-52.37,2015-04-30,FALSE
678,RSUEXG,XANGRI-LA,EOL.CV.RS.031302-5.01,S,-29.78,-50.07,2014-12-11,FALSE
679,RSCH09,CHUI IX,EOL.CV.RS.031517-6.01,S,-33.69,-53.38,2015-10-22,FALSE
680,RSVC24,VERACE 24,EOL.CV.RS.031561-3.01,S,-33.64,-53.31,2015-11-26,FALSE
681,RSVC25,VERACE 25,EOL.CV.RS.031541-9.01,S,-33.64,-53.33,2015-11-26,FALSE
682,RSVC26,VERACE 26,EOL.CV.RS.031559-1.01,S,-33.65,-53.3,2015-11-26,FALSE
683,RSVC27,VERACE 27,EOL.CV.RS.031600-8.01,S,-33.65,-53.32,2015-11-26,FALSE
684,RSVC28,VERACE 28,EOL.CV.RS.031578-8.01,S,-33.63,-53.35,2015-12-16,FALSE
685,RSVC29,VERACE 29,EOL.CV.RS.031557-5.01,S,-33.62,-53.36,2015-12-16,FALSE
686,RSVC30,VERACE 30,EOL.CV.RS.031602-4.01,S,-33.61,-53.34,2015-12-16,FALSE
687,RSVC31,VERACE 31,EOL.CV.RS.031558-3.01,S,-33.61,-53.33,2015-12-16,FALSE
688,RSVC34,VERACE 34,EOL.CV.RS.031601-6.01,S,-33.56,-53.35,2016-01-07,FALSE
689,RSVC36,VERACE 36,EOL.CV.RS.031610-5.01,S,-33.6,-53.37,2015-12-25,FALSE
690,RSVC35,VERACE 35,EOL.CV.RS.031539-7.01,S,-33.59,-53.36,2015-12-11,FALSE
691,RSEGAL,GALPOES,EOL.CV.RS.031477-3.01,S,-30.88,-55.68,2015-12-16,FALSE
692,RSECSE,COXILHA SECA,EOL.CV.RS.031487-0.01,S,-30.89,-55.74,2015-12-22,FALSE
693,RSECIN,CAPAO DO INGLES,EOL.CV.RS.031510-9.01,S,-30.92,-55.71,2015-12-16,FALSE
694,RSEP2A,PONTAL 2A,EOL.CV.RS.031509-5.01,S,-30.27,-50.78,2016-12-02,FALSE
695,RSAG07,AURA MANGUEIRA VII,EOL.CV.RS.031805-1.01,S,-33.18,-52.93,2016-12-27,FALSE
696,RSAR02,AURA MIRIM II,EOL.CV.RS.031806-0.01,S,-33.14,-52.91,2016-12-27,FALSE
697,RSAG11,AURA MANGUEIRA XI,EOL.CV.RS.031719-5.01,S,-33.18,-52.92,2017-02-02,FALSE
698,RSAG15,AURA MANGUEIRA XV,EOL.CV.RS.031647-4.01,S,-33.16,-52.89,2017-03-25,FALSE
699,RSAR04,EOL AURA MIRIM IV,EOL.CV.RS.031663-6.01,S,-33.21,-52.93,2017-02-02,FALSE
700,RSAG13,EOL AURA MANG 13,EOL.CV.RS.031646-6.01,S,-33.12,-52.9,2017-05-13,FALSE
701,RSAR08,AURA MIRIM VIII,EOL.CV.RS.031699-7.01,S,-33.09,-52.9,2017-07-08,FALSE
702,RSAG12,EOL AURA MANGUEIRA12,EOL.CV.RS.031653-9.01,S,-33.1,-52.88,2017-06-02,FALSE
703,RSAR06,EOL AURA MIRIM VI,EOL.CV.RS.031701-2.01,S,-33.1,-52.86,2017-07-08,FALSE
704,RSAG17,EOL AURA MANG 17,EOL.CV.RS.031705-5.01,S,-33.1,-52.84,2017-07-21,FALSE
705,RSAG06,AURA MANGUEIRA 6,EOL.CV.RS.031696-2.01,S,-33.05,-52.86,2017-09-15,FALSE
706,RSAG04,AURA MANGUEIRA 4,EOL.CV.RS.031700-4.01,S,-33.07,-52.86,2017-09-02,FALSE
707,SCTUBA,TUBARÃO P&D,EOL.CV.SC.032016-1.01,S,-28.48,-49.03,2014-11-10,FALSE
708,D30296,B. DOS COQUEIROS,EOL.CV.SE.030296-1.01,NE,-10.81,-36.93,2012-09-01,FALSE
