ceg,data_inicio_operacao,capacidade_instalada,id,codigo,nome,subsistema,latitude,longitude,coordenadas_aproximadas
EOL.CV.BA.030283-0.01,2017-01-01,35.07,1,BAUEMC,Macaúbas,NE,-12.35,-42.34,FALSE
EOL.CV.BA.030288-0.01,2017-01-01,30,2,BAPEDO,PEDRA DO REINO,NE,-9.51,-40.88,FALSE
EOL.CV.BA.030305-4.01,2017-01-01,30.06,3,BAUENH,Novo Horizonte,NE,-12.31,-42.35,FALSE
EOL.CV.BA.030306-2.01,2017-01-01,30.06,4,BAUESR,Seabra,NE,-12.27,-42.37,FALSE
EOL.CV.BA.030314-3.01,2017-01-01,19.2,5,BAUESS,Serra do Salto,NE,-14.16,-42.64,FALSE
EOL.CV.BA.030315-1.01,2017-01-01,11.2,6,BAUEIH,Ilhéus,NE,-13.88,-42.66,FALSE
EOL.CV.BA.030316-0.01,2017-01-01,9.6,7,BAUECB,Candiba,NE,-14.19,-42.65,FALSE
EOL.CV.BA.030317-8.01,2017-01-01,24,8,BAUELA,Licínio de Almeida,NE,-14.18,-42.65,FALSE
EOL.CV.BA.030318-6.01,2017-01-01,28.8,9,BAUENC,Nossa Senhora da Conceição,NE,-13.9,-42.68,FALSE
EOL.CV.BA.030319-4.01,2017-01-01,25.6,10,BAUEPV,Pajeú do Vento,NE,-14.01,-42.63,FALSE
EOL.CV.BA.030320-8.01,2017-01-01,8,11,BAUEAV,Alvorada,NE,-14.19,-42.59,FALSE
EOL.CV.BA.030321-6.01,2017-01-01,30.4,12,BAUEIP,Igaporã,NE,-13.86,-42.66,FALSE
EOL.CV.BA.030322-4.01,2017-01-01,27.2,13,BAUEPT,Planaltina,NE,-13.99,-42.64,FALSE
EOL.CV.BA.030323-2.01,2017-01-01,6.4,14,BAUEPS,Porto Seguro,NE,-13.86,-42.67,FALSE
EOL.CV.BA.030324-0.01,2017-01-01,24,15,BAUEPD,Pindaí,NE,-14.2,-42.66,FALSE
EOL.CV.BA.030328-3.01,2017-01-01,20.8,16,BAUEGB,Guanambi,NE,-14.2,-42.62,FALSE
EOL.CV.BA.030341-0.01,2017-01-01,30.4,17,BAUERV,Rio Verde,NE,-14.16,-42.6,FALSE
EOL.CV.BA.030342-9.01,2017-01-01,28.8,18,BAUEGP,Guirapá,NE,-14.22,-42.64,FALSE
EOL.CV.BA.030437-9.01,2017-01-01,30,19,BAUET2,Caetité 2,NE,-14.19,-42.5,FALSE
EOL.CV.BA.030443-3.01,2017-01-01,30,20,BAUEPB,Pedra Branca,NE,-9.87,-41.1,FALSE
EOL.CV.BA.030448-4.01,2017-01-01,30,21,BAUET3,Caetité 3,NE,-14.22,-42.51,FALSE
EOL.CV.BA.030455-7.01,2017-01-01,30,22,BAUESG,Sete Gameleiras,NE,-9.86,-41.1,FALSE
EOL.CV.BA.030456-5.01,2017-01-01,30,23,BAUEPL,São Pedro do Lago,NE,-9.89,-41.1,FALSE
EOL.CV.BA.030456-5.01,2019-08-01,-30,23,BAUEPL,São Pedro do Lago,NE,-9.89,-41.1,FALSE
EOL.CV.BA.030456-5.01,2019-08-01,28,23,BAUEPL,São Pedro do Lago,NE,-9.89,-41.1,FALSE
EOL.CV.BA.030476-0.01,2017-01-01,23.52,24,BAUEVN,Ventos do Nordeste,NE,-14.12,-42.61,FALSE
EOL.CV.BA.030490-5.01,2017-01-01,21.84,25,BAUEDP,Da Prata,NE,-13.95,-42.64,FALSE
EOL.CV.BA.030495-6.01,2017-01-01,31.86,26,BAUEAR,Dos Araçás,NE,-14.13,-42.56,FALSE
EOL.CV.BA.030506-5.01,2017-01-01,30.24,27,BAUEMR,Morrão,NE,-14.09,-42.68,FALSE
EOL.CV.BA.030544-8.01,2017-01-01,30,28,BAUETQ,Tanque,NE,-14.1,-42.61,FALSE
EOL.CV.BA.030546-4.01,2017-01-01,30.24,29,BAUESE,Seraíma,NE,-14.15,-42.71,FALSE
EOL.CV.BA.030608-8.01,2017-01-01,18,30,BAPDR3,PEDRA DO REINO III,NE,-9.49,-40.87,FALSE
EOL.CV.BA.030725-4.01,2017-12-01,29.9,31,BAUESJ,São Judas,NE,-11.66,-41.36,FALSE
EOL.CV.BA.030726-2.01,2017-11-01,29.9,32,BAUEPR,Primavera,NE,-11.73,-41.37,FALSE
EOL.CV.BA.030727-0.01,2017-11-01,29.9,33,BAUECR,Cristal,NE,-11.8,-41.39,FALSE
EOL.CV.BA.030731-9.01,2017-01-01,16.65,34,BAETEI,Teiu,NE,-14.34,-42.59,FALSE
EOL.CV.BA.030732-7.01,2017-01-01,12.95,35,BAEANG,Angical,NE,-14.35,-42.61,FALSE
EOL.CV.BA.030738-6.01,2017-01-01,29.6,36,BAECOQ,Coqueirinho,NE,-14.42,-42.63,FALSE
EOL.CV.BA.030739-4.01,2017-01-01,22.2,37,BAECAI,Caititu,NE,-14.45,-42.64,FALSE
EOL.CV.BA.030751-3.01,2017-01-01,31.45,38,BAEINH,Inhambu,NE,-14.39,-42.59,FALSE
EOL.CV.BA.030752-1.01,2017-01-01,27.75,39,BAECOR,Corrupião,NE,-14.29,-42.59,FALSE
EOL.CV.BA.030753-0.01,2017-01-01,29.6,40,BAETAM,Tamanduá Mirim,NE,-14.38,-42.61,FALSE
EOL.CV.BA.030768-8.01,2017-01-01,30.24,41,BAUEMA,Maron,NE,-14.09,-42.62,FALSE
EOL.CV.BA.030776-9.01,2017-01-01,30.24,42,BAUEPI,Pilões,NE,-14.03,-42.62,FALSE
EOL.CV.BA.030778-5.01,2017-01-01,28.56,43,BAUEDU,Dourados,NE,-13.86,-42.73,FALSE
EOL.CV.BA.030779-3.01,2017-01-01,28.56,44,BAUEAT,Ametista,NE,-14.13,-42.59,FALSE
EOL.CV.BA.030792-0.01,2017-01-01,30.24,45,BAUECE,Caetite,NE,-14.47,-42.58,FALSE
EOL.CV.BA.030793-9.01,2017-01-01,21.84,46,BAUEPO,Pelourinho,NE,-14.53,-42.59,FALSE
EOL.CV.BA.030801-3.01,2017-01-01,28.2,47,BAUEJO,Joana,NE,-13.92,-42.62,FALSE
EOL.CV.BA.030802-1.01,2017-01-01,18.48,48,BAUESP,Serra do Espinhaço,NE,-14.5,-42.58,FALSE
EOL.CV.BA.030803-0.01,2017-01-01,10.08,49,BAEPGO,Espigão,NE,-14.48,-42.59,FALSE
EOL.CV.BA.030807-2.01,2017-01-01,28.2,50,BAUEMI,Emiliana,NE,-13.91,-42.62,FALSE
EOL.CV.BA.030837-4.01,2017-01-01,20.16,51,BAUEBR,Borgo,NE,-14.51,-42.59,FALSE
EOL.CV.BA.030943-5.01,2017-01-01,30,52,BAEVC1,Ventos de Campo Formoso I,NE,-10.63,-40.69,FALSE
EOL.CV.BA.030944-3.01,2017-01-01,30,53,BAUEVA,Ventos da Andorinha,NE,-10.58,-40.64,FALSE
EOL.CV.BA.030945-1.01,2017-01-01,30,54,BAUEVM,Ventos de Morrinhos,NE,-10.57,-40.63,FALSE
EOL.CV.BA.030946-0.01,2017-01-01,30,55,BAUEVS,Ventos do Sertão,NE,-10.56,-40.57,FALSE
EOL.CV.BA.030976-1.01,2017-01-01,30,56,BAUET1,Caetité 1,NE,-14.16,-42.48,FALSE
EOL.CV.BA.031010-7.01,2017-01-01,30,57,BAEVC2,Ventos de Campo Formoso II,NE,-10.52,-40.61,FALSE
EOL.CV.BA.031121-9.01,2017-01-01,30,59,BAUEDR,Dois Riachos,NE,-11.82,-41.46,FALSE
EOL.CV.BA.031335-1.01,2017-01-01,32.9,60,BAEBAU,Baraúnas I,NE,-9.89,-41.12,FALSE
EOL.CV.BA.031336-0.01,2017-01-01,32.9,61,BAEMBU,Morro Branco I,NE,-9.85,-41.06,FALSE
EOL.CV.BA.031337-8.01,2017-12-01,30,62,BAUEMN,Maniçoba,NE,-11.89,-41.46,FALSE
EOL.CV.BA.031338-6.01,2017-01-01,30,63,BAUEDA,Damascena,NE,-11.86,-41.47,FALSE
EOL.CV.BA.031341-6.01,2017-01-01,20,64,BAEA05,Assuruá V,NE,-11.18,-42.71,FALSE
EOL.CV.BA.031342-4.01,2017-01-01,22.1,65,BAECTB,Caetité B,NE,-14.11,-42.47,FALSE
EOL.CV.BA.031343-2.01,2017-01-01,30,66,BAEA02,Assuruá II,NE,-11.16,-42.67,FALSE
EOL.CV.BA.031344-0.01,2017-01-01,23.8,67,BAECTA,Caetité A,NE,-14.14,-42.48,FALSE
EOL.CV.BA.031352-1.01,2017-01-01,32.9,68,BAEMUS,MUSSAMBÊ,NE,-9.86,-41.08,FALSE
EOL.CV.BA.031355-6.01,2017-12-01,28,69,BAUEEP,Esperança,NE,-11.8,-41.39,FALSE
EOL.CV.BA.031356-4.01,2017-01-01,18,70,BAEA07,Assuruá VII,NE,-11.07,-42.68,FALSE
EOL.CV.BA.031431-5.01,2019-11-01,8,80,BAETE2,Teiú 2,NE,-14.44,-42.69,FALSE
EOL.CV.BA.031432-3.01,2020-01-01,10,81,BAECT2,Caititu 2,NE,-14.33,-42.61,FALSE
EOL.CV.BA.031433-1.01,2019-11-01,6,82,BAECAU,Acauã,NE,-14.41,-42.66,FALSE
EOL.CV.BA.031434-0.01,2019-11-01,4,83,BAEARA,Arapapa,NE,-14.43,-42.69,FALSE
EOL.CV.BA.031435-8.01,2019-09-01,10,84,BAEAN2,Angical 2,NE,-14.42,-42.64,FALSE
EOL.CV.BA.031447-1.01,2020-02-01,10,85,BAECAR,Carcará,NE,-14.28,-42.59,FALSE
EOL.CV.BA.031458-7.01,2020-02-01,10,86,BAECO3,Corrupião 3,NE,-14.27,-42.58,FALSE
EOL.CV.BA.031459-5.01,2020-01-01,10,87,BAECT3,Caititu 3,NE,-14.32,-42.61,FALSE
EOL.CV.BA.031511-7.01,2019-10-01,10,88,BAEPPG,Papagaio,NE,-14.48,-42.64,FALSE
EOL.CV.BA.031518-4.01,2019-09-01,16,89,BAECQ2,Coqueirinho 2,NE,-14.5,-42.65,FALSE
EOL.CV.BA.031519-2.01,2017-12-01,32.9,90,BAECND,Casa Nova II,NE,-9.27,-41.05,FALSE
EOL.CV.BA.031523-0.01,2017-01-01,8.5,91,BAECTC,Caetité C,NE,-14.11,-42.47,FALSE
EOL.CV.BA.031524-9.01,2018-02-01,28.2,92,BAECNT,Casa Nova III,NE,-9.31,-41.12,FALSE
EOL.CV.BA.031563-0.01,2017-01-01,30,93,BAUEVG,Ventos de Guarás I,NE,-10.61,-40.65,FALSE
EOL.CV.BA.031606-7.01,2019-11-01,16,94,BAETM2,Tamanduá Mirim 2,NE,-14.46,-42.67,FALSE
EOL.CV.BA.031607-5.01,2017-01-01,32.9,95,BAEBCO,Banda de Couro,NE,-9.85,-41.05,FALSE
EOL.CV.BA.031667-9.01,2017-01-01,25.85,96,BAEBAD,Baraúnas II,NE,-9.87,-41.06,FALSE
EOL.CV.BA.031737-3.01,2019-03-01,17.5,97,BAEURE,Umburanas 5,NE,-10.63,-41.5,FALSE
EOL.CV.BA.031738-1.01,2019-04-01,25,98,BAEURA,Umburanas 1,NE,-10.68,-41.53,FALSE
EOL.CV.BA.031740-3.01,2019-04-01,25,99,BAEURB,Umburanas 2,NE,-10.66,-41.51,FALSE
EOL.CV.BA.031741-1.01,2019-04-01,20,100,BAEURC,Umburanas 3,NE,-10.66,-41.52,FALSE
EOL.CV.BA.031742-0.01,2019-03-01,20,101,BAEURJ,Umburanas 10,NE,-10.71,-41.59,FALSE
EOL.CV.BA.031743-8.01,2019-03-01,17.5,102,BAEURI,Umburanas 9,NE,-10.72,-41.6,FALSE
EOL.CV.BA.031744-6.01,2019-02-01,15,103,BAEURK,Umburanas 11,NE,-10.71,-41.57,FALSE
EOL.CV.BA.031752-7.01,2019-03-01,20,104,BAEURM,Umburanas 13,NE,-10.67,-41.57,FALSE
EOL.CV.BA.031754-3.01,2019-04-01,20,105,BAEURO,Umburanas 15,NE,-10.62,-41.53,FALSE
EOL.CV.BA.031755-1.01,2019-02-01,25,106,BAEURP,Umburanas 16,NE,-10.59,-41.51,FALSE
EOL.CV.BA.031756-0.01,2019-03-01,7.5,107,BAEURR,Umburanas 18,NE,-10.6,-41.53,FALSE
EOL.CV.BA.031758-6.01,2017-09-01,27,108,BAEVB2,VENTOS DA BAHIA II,NE,-12.01,-41.44,FALSE
EOL.CV.BA.031770-5.01,2017-09-01,12,109,BAEVB4,VENTOS DA BAHIA IV,NE,-11.98,-41.44,FALSE
EOL.CV.BA.031771-3.01,2017-09-01,27,110,BAEVB8,VENTOS DA BAHIA VIII,NE,-12.03,-41.45,FALSE
EOL.CV.BA.031796-9.01,2019-03-01,20,111,BAEURF,Umburanas 6,NE,-10.66,-41.54,FALSE
EOL.CV.BA.031832-9.01,2019-02-01,25,112,BAEUR8,Umburanas 8,NE,-10.6,-41.5,FALSE
EOL.CV.BA.032081-1.01,2017-09-01,30,113,BAECR1,Cristalandia I,NE,-13.93,-41.56,FALSE
EOL.CV.BA.032082-0.01,2017-09-01,30,114,BAECR2,Cristalandia II,NE,-13.97,-41.55,FALSE
EOL.CV.BA.032083-8.01,2017-09-01,30,115,BAECR3,Cristalandia  III,NE,-14,-41.54,FALSE
EOL.CV.BA.032342-0.01,2018-04-01,12.5,129,BAEA03,Assuruá III,NE,-11.17,-42.68,FALSE
EOL.CV.BA.032343-8.01,2018-01-01,30,130,BAEA04,Assuruá IV,NE,-11.05,-42.69,FALSE
EOL.CV.BA.032344-6.01,2018-04-01,27.5,131,BAECA3,Capoeiras III,NE,-11.18,-42.74,FALSE
EOL.CV.BA.032345-4.01,2018-04-01,20,132,BAECP1,Curral de Pedras I,NE,-11.13,-42.65,FALSE
EOL.CV.BA.032346-2.01,2018-04-01,27.5,133,BAECP2,Curral de Pedras II,NE,-11.21,-42.7,FALSE
EOL.CV.BA.032347-0.01,2018-04-01,17.5,134,BAEDI2,Diamante II,NE,-11.11,-42.67,FALSE
EOL.CV.BA.032348-9.01,2018-04-01,17.5,135,BAEDI3,Diamante III,NE,-11.09,-42.68,FALSE
EOL.CV.BA.032349-7.01,2018-04-01,27.5,136,BAELA1,Laranjeiras I,NE,-11.12,-42.68,FALSE
EOL.CV.BA.032350-0.01,2018-04-01,30,615,BAELA2,Laranjeiras II,NE,-11.13,-42.7,FALSE
EOL.CV.BA.032351-9.01,2018-04-01,25,137,BAELA5,Laranjeiras V,NE,-11.12,-42.67,FALSE
EOL.CV.BA.032357-8.01,2017-10-01,28,138,BAEDF1,Delfina I,NE,-10.06,-40.98,FALSE
EOL.CV.BA.032358-6.01,2017-11-01,28,139,BAEDF2,Delfina II,NE,-10.04,-40.96,FALSE
EOL.CV.BA.032359-4.01,2017-10-01,28,140,BAEDF5,Delfina V,NE,-10.02,-40.93,FALSE
EOL.CV.BA.032462-0.01,2018-12-01,28.2,145,BAEB02,Serra da Babilônia II,NE,-11.1,-41.31,FALSE
EOL.CV.BA.032465-5.01,2018-12-01,28.2,146,BAEB9,Serra da Babilônia IX,NE,-11.09,-41.32,FALSE
EOL.CV.BA.032466-3.01,2018-12-01,25.85,147,BAEB06,Serra da Babilônia VI,NE,-11.05,-41.33,FALSE
EOL.CV.BA.032467-1.01,2018-12-01,28.2,148,BAEB07,Serra da Babilônia VII,NE,-11.06,-41.32,FALSE
EOL.CV.BA.032468-0.01,2018-12-01,28.2,149,BAEB08,Serra da Babilônia VIII,NE,-11.08,-41.3,FALSE
EOL.CV.BA.032469-8.01,2018-12-01,28.2,150,BAEB10,Serra da Babilônia X,NE,-11.07,-41.32,FALSE
EOL.CV.BA.032470-1.01,2018-12-01,28.2,151,BAEB11,Serra da Babilônia XI,NE,-11.08,-41.32,FALSE
EOL.CV.BA.032471-0.01,2018-12-01,28.2,152,BAEB12,Serra Da Babilônia XII,NE,-11.1,-41.32,FALSE
EOL.CV.BA.032487-6.01,2021-04-01,16.45,153,BAEIM2,INHAMBU 2,NE,-14.45,-42.65,FALSE
EOL.CV.BA.032521-0.01,2017-11-01,28,154,BAEDF3,Delfina III,NE,-10,-40.93,FALSE
EOL.CV.BA.032522-8.01,2017-10-01,8,155,BAEDF4,Delfina IV,NE,-10.07,-40.98,FALSE
EOL.CV.BA.032523-6.01,2017-10-01,30,156,BAEDF6,Delfina VI,NE,-10.03,-40.95,FALSE
EOL.CV.BA.032524-4.01,2017-10-01,30,157,BAEDF7,Delfina VII,NE,-9.99,-40.91,FALSE
EOL.CV.BA.032526-0.01,2018-09-01,28.6,158,BAEB01,Ventos da Bahia I,NE,-11.99,-41.53,FALSE
EOL.CV.BA.032527-9.01,2018-09-01,30.8,159,BAEB03,Ventos da Bahia III,NE,-11.97,-41.52,FALSE
EOL.CV.BA.032531-7.01,2018-09-01,28.6,160,BAEB09,Ventos da Bahia IX,NE,-11.99,-41.49,FALSE
EOL.CV.BA.032535-0.01,2021-12-01,33,161,BAEB13,VENTOS DA BAHIA XIII,NE,-12.14,-41.49,FALSE
EOL.CV.BA.032536-8.01,2021-12-01,11,162,BAEB14,VENTOS DA BAHIA XIV,NE,-12.05,-41.43,FALSE
EOL.CV.BA.032641-0.01,2020-09-01,29.4,170,BASJ04,VENTOS DE SAO JANUARIO 4,NE,-10.38,-40.45,FALSE
EOL.CV.BA.032644-5.01,2020-12-01,33.6,172,BASJ05,VENTOS DE SAO JANUARIO 05,NE,-10.28,-40.43,FALSE
EOL.CV.BA.032644-5.01,2021-03-01,-33.6,172,BASJ05,VENTOS DE SAO JANUARIO 05,NE,-10.28,-40.43,FALSE
EOL.CV.BA.032644-5.01,2021-03-01,42,172,BASJ05,VENTOS DE SAO JANUARIO 05,NE,-10.28,-40.43,FALSE
EOL.CV.BA.032759-0.01,2018-06-01,30,173,BAEBVT,Boa Vista da Lagoinha,NE,-11.76,-41.39,FALSE
EOL.CV.BA.032884-7.01,2018-06-01,28,174,BAESTA,Ventos do Santo Abraão,NE,-11.62,-41.35,FALSE
EOL.CV.BA.033508-8.01,2020-10-01,33.6,175,BASJ01,Ventos de Sao Januario,NE,-10.32,-40.43,FALSE
EOL.CV.BA.033521-5.01,2020-11-01,33.6,176,BASJ03,Ventos de Sao Januario 03,NE,-10.31,-40.44,FALSE
EOL.CV.BA.033523-1.01,2020-11-01,12.6,177,BASJ06,VENTOS DE SAO JANUARIO 06,NE,-10.41,-40.46,FALSE
EOL.CV.BA.033523-1.01,2020-12-01,-12.6,177,BASJ06,VENTOS DE SAO JANUARIO 06,NE,-10.41,-40.46,FALSE
EOL.CV.BA.033523-1.01,2020-12-01,16.8,177,BASJ06,VENTOS DE SAO JANUARIO 06,NE,-10.41,-40.46,FALSE
EOL.CV.BA.033523-1.01,2021-04-01,-16.8,177,BASJ06,VENTOS DE SAO JANUARIO 06,NE,-10.41,-40.46,FALSE
EOL.CV.BA.033523-1.01,2021-04-01,29.4,177,BASJ06,VENTOS DE SAO JANUARIO 06,NE,-10.41,-40.46,FALSE
EOL.CV.BA.033523-1.01,2021-05-01,-29.4,177,BASJ06,VENTOS DE SAO JANUARIO 06,NE,-10.41,-40.46,FALSE
EOL.CV.BA.033523-1.01,2021-05-01,37.8,177,BASJ06,VENTOS DE SAO JANUARIO 06,NE,-10.41,-40.46,FALSE
EOL.CV.BA.033529-0.01,2021-01-01,4.2,178,BASJ10,VENTOS DE SAO JANUARIO 10,NE,-5.15,-36.04,FALSE
EOL.CV.BA.033529-0.01,2021-02-01,-4.2,178,BASJ10,VENTOS DE SAO JANUARIO 10,NE,-5.15,-36.04,FALSE
EOL.CV.BA.033529-0.01,2021-02-01,21,178,BASJ10,VENTOS DE SAO JANUARIO 10,NE,-5.15,-36.04,FALSE
EOL.CV.BA.033529-0.01,2021-03-01,-21,178,BASJ10,VENTOS DE SAO JANUARIO 10,NE,-5.15,-36.04,FALSE
EOL.CV.BA.033529-0.01,2021-03-01,37.8,178,BASJ10,VENTOS DE SAO JANUARIO 10,NE,-5.15,-36.04,FALSE
EOL.CV.BA.033529-0.01,2021-04-01,-37.8,178,BASJ10,VENTOS DE SAO JANUARIO 10,NE,-5.15,-36.04,FALSE
EOL.CV.BA.033529-0.01,2021-04-01,42,178,BASJ10,VENTOS DE SAO JANUARIO 10,NE,-5.15,-36.04,FALSE
EOL.CV.BA.033530-4.01,2021-01-01,29.4,179,BASJ11,VENTOS DE SAO JANUARIO 11,NE,-10.44,-41.57,FALSE
EOL.CV.BA.033530-4.01,2021-05-01,-29.4,179,BASJ11,VENTOS DE SAO JANUARIO 11,NE,-10.44,-41.57,FALSE
EOL.CV.BA.033530-4.01,2021-05-01,37.8,179,BASJ11,VENTOS DE SAO JANUARIO 11,NE,-10.44,-41.57,FALSE
EOL.CV.BA.033530-4.01,2021-06-01,-37.8,179,BASJ11,VENTOS DE SAO JANUARIO 11,NE,-10.44,-41.57,FALSE
EOL.CV.BA.033530-4.01,2021-06-01,42,179,BASJ11,VENTOS DE SAO JANUARIO 11,NE,-10.44,-41.57,FALSE
EOL.CV.BA.033532-0.01,2020-09-01,33.6,180,BASJ13,VENTOS DE SAO JANUARIO 13,NE,-10.34,-40.44,FALSE
EOL.CV.BA.033532-0.01,2020-10-01,-33.6,180,BASJ13,VENTOS DE SAO JANUARIO 13,NE,-10.34,-40.44,FALSE
EOL.CV.BA.033532-0.01,2020-10-01,42,180,BASJ13,VENTOS DE SAO JANUARIO 13,NE,-10.34,-40.44,FALSE
EOL.CV.BA.033533-9.01,2020-09-01,37.8,181,BASJ14,VENTOS DE SAO JANUARIO 14,NE,-10.36,-40.44,FALSE
EOL.CV.BA.033533-9.01,2020-10-01,-37.8,181,BASJ14,VENTOS DE SAO JANUARIO 14,NE,-10.36,-40.44,FALSE
EOL.CV.BA.033533-9.01,2020-10-01,42,181,BASJ14,VENTOS DE SAO JANUARIO 14,NE,-10.36,-40.44,FALSE
EOL.CV.BA.033626-2.01,2019-04-01,25,185,BAELA3,Laranjeiras III,NE,-11.03,-42.63,FALSE
EOL.CV.BA.033627-0.01,2019-04-01,25,186,BAELA9,Laranjeiras IX,NE,-11.08,-42.62,FALSE
EOL.CV.BA.033628-9.01,2018-08-01,29.7,187,BAECLC,Campo Largo III,NE,-10.5,-41.54,FALSE
EOL.CV.BA.033629-7.01,2018-08-01,29.7,188,BAECLD,Campo Largo IV,NE,-10.49,-41.51,FALSE
EOL.CV.BA.033630-0.01,2018-10-01,29.7,189,BAECLE,Campo Largo V,NE,-10.42,-41.43,FALSE
EOL.CV.BA.033631-9.01,2018-11-01,29.7,190,BAECLF,Campo Largo VI,NE,-10.42,-41.4,FALSE
EOL.CV.BA.033632-7.01,2018-07-01,29.7,191,BAECLG,Campo Largo VII,NE,-10.52,-41.49,FALSE
EOL.CV.BA.033633-5.01,2018-10-01,29.7,192,BAECLU,Campo Largo XXI,NE,-10.45,-41.45,FALSE
EOL.CV.BA.033634-3.01,2019-02-01,22.5,193,BAEURQ,Umburanas 17,NE,-10.71,-41.61,FALSE
EOL.CV.BA.033635-1.01,2019-02-01,25,194,BAEURS,Umburanas 19,NE,-10.68,-41.61,FALSE
EOL.CV.BA.033636-0.01,2019-01-01,22.5,195,BAEURU,Umburanas 21,NE,-10.66,-41.6,FALSE
EOL.CV.BA.033637-8.01,2019-03-01,15,196,BAEURW,Umburanas 23,NE,-10.64,-41.61,FALSE
EOL.CV.BA.033639-4.01,2019-03-01,17.5,197,BAEURY,Umburanas 25,NE,-10.65,-41.58,FALSE
EOL.CV.BA.033648-3.01,2018-06-01,28,198,BAESTD,Ventos da Santa Dulce,NE,-11.6,-41.33,FALSE
EOL.CV.BA.033649-1.01,2018-06-01,28,199,BAESTE,Ventos da Santa Esperança,NE,-11.6,-41.31,FALSE
EOL.CV.BA.033650-5.01,2018-06-01,30,200,BAESMR,Ventos do São Mário,NE,-11.59,-41.23,FALSE
EOL.CV.BA.033652-1.01,2018-06-01,28,201,BAESPL,Ventos do São Paulo,NE,-11.57,-41.3,FALSE
EOL.CV.BA.034509-1.01,2021-11-01,42,204,BAES17,VENTOS DE SANTA ESPERANCA 17,NE,-11.5,-41.29,FALSE
EOL.CV.BA.034511-3.01,2021-11-01,46.2,205,BAES21,VENTOS DE SANTA ESPERANCA 21,NE,-11.55,-41.28,FALSE
EOL.CV.BA.034512-1.01,2021-12-01,46.2,206,BAES22,VENTOS DE SANTA ESPERANCA 22,NE,-11.52,-41.27,FALSE
EOL.CV.BA.034513-0.01,2021-12-01,25.2,207,BAES25,VENTOS DE SANTA ESPERANCA 25,NE,-11.59,-41.33,FALSE
EOL.CV.BA.034514-8.01,2021-11-01,46.2,208,BAES26,VENTOS DE SANTA ESPERANCA 26,NE,-11.53,-41.32,FALSE
EOL.CV.BA.034613-6.01,2018-09-01,29.7,209,BAECLA,Campo Largo I,NE,-10.47,-41.49,FALSE
EOL.CV.BA.034614-4.01,2021-05-01,33.6,210,BAEC08,CAMPO LARGO VIII,NE,-10.46,-41.39,FALSE
EOL.CV.BA.034622-5.01,2021-09-01,42,211,BAEC13,CAMPO LARGO XIII,NE,-10.4,-41.49,FALSE
EOL.CV.BA.034623-3.01,2021-08-01,33.6,212,BAEC12,CAMPO LARGO XII,NE,-10.4,-41.44,FALSE
EOL.CV.BA.034623-3.01,2021-09-01,-33.6,212,BAEC12,CAMPO LARGO XII,NE,-10.4,-41.44,FALSE
EOL.CV.BA.034623-3.01,2021-09-01,54.6,212,BAEC12,CAMPO LARGO XII,NE,-10.4,-41.44,FALSE
EOL.CV.BA.034625-0.01,2021-09-01,16.8,213,BAEC11,CAMPO LARGO XI,NE,-10.4,-41.44,FALSE
EOL.CV.BA.034630-6.01,2021-03-01,33.6,214,BAEC10,CAMPO LARGO X,NE,-10.5,-41.48,FALSE
EOL.CV.BA.034631-4.01,2021-02-01,25.2,215,BAEC09,CAMPO LARGO IX,NE,-10.46,-41.39,FALSE
EOL.CV.BA.034633-0.01,2018-12-01,29.7,216,BAECLB,Campo Largo II,NE,-10.51,-41.45,FALSE
EOL.CV.BA.034634-9.01,2021-03-01,21,217,BAEC14,CAMPO LARGO XIV,NE,-10.44,-41.5,FALSE
EOL.CV.BA.034636-5.01,2018-11-01,29.7,218,BAECLO,Campo Largo XV,NE,-10.51,-41.45,FALSE
EOL.CV.BA.034637-3.01,2018-09-01,29.7,219,BAECLP,Campo Largo XVI,NE,-10.44,-41.47,FALSE
EOL.CV.BA.034638-1.01,2021-04-01,29.4,220,BAEC17,CAMPO LARGO XVII,NE,-10.46,-41.51,FALSE
EOL.CV.BA.034643-8.01,2018-10-01,29.7,221,BAECLR,Campo Largo XVIII,NE,-10.44,-41.5,FALSE
EOL.CV.BA.034645-4.01,2021-05-01,33.6,222,BAEC19,CAMPO LARGO XIX,NE,-10.44,-41.57,FALSE
EOL.CV.BA.034647-0.01,2021-06-01,37.8,223,BAEC20,CAMPO LARGO XX,NE,-10.48,-41.57,FALSE
EOL.CV.BA.034648-9.01,2021-06-01,33.6,224,BAEC22,CAMPO LARGO XXII,NE,-10.5,-41.61,FALSE
EOL.CV.BA.034717-5.01,2018-11-01,27.3,233,BAESEM,Ventos de Santa Emília,NE,-11.01,-41.23,FALSE
EOL.CV.BA.034736-1.01,2018-11-01,27.3,234,BAESAC,Ventos de Santa Aparecida,NE,-10.91,-41.22,FALSE
EOL.CV.BA.034738-8.01,2018-11-01,27.3,235,BAESBE,Ventos da Santa Beatriz,NE,-10.94,-41.23,FALSE
EOL.CV.BA.034739-6.01,2018-11-01,27.3,236,BAESGA,Ventos do São Gabriel,NE,-10.96,-41.23,FALSE
EOL.CV.BA.034742-6.01,2018-11-01,27.3,237,BAESAU,Ventos de Santa Aurora,NE,-10.98,-41.22,FALSE
EOL.CV.BA.034777-9.01,2018-12-01,20,238,BAPEDD,PEDRA DO REINO IV,NE,-9.5,-40.91,FALSE
EOL.CV.BA.034883-0.01,2018-09-01,28.6,247,BAEB18,Ventos da Bahia XVIII,NE,-12.02,-41.5,FALSE
EOL.CV.BA.035222-5.01,2020-12-01,31.185,249,BAESEF,SERRA DO FOGO,NE,-9.8,-41.02,FALSE
EOL.CV.BA.035229-2.01,2020-11-01,31.185,250,BAESEV,SERRA DO VENTO,NE,-9.81,-41.03,FALSE
EOL.CV.BA.035233-0.01,2020-12-01,31.185,251,BAEUMC,UMBURANA DE CHEIRO,NE,-9.83,-41.04,FALSE
EOL.CV.BA.035266-7.01,2019-08-01,29.4,253,BAEDF8,Zeus II,NE,-9.96,-40.88,FALSE
EOL.CV.BA.037001-0.01,2021-04-01,21.15,256,BAEARZ,ARARINHA AZUL,NE,-14.41,-42.64,FALSE
EOL.CV.BA.037019-3.01,2021-04-01,18.8,257,BAECO2,CORRUPIAO 2,NE,-14.41,-42.64,FALSE
EOL.CV.BA.037083-5.01,2021-05-01,20.4,258,BAEB0A,SERRA DA BABILONIA A,NE,-11.07,-41.29,FALSE
EOL.CV.BA.037093-2.01,2021-12-01,23.5,259,BAETE3,TEIU 3,NE,-14.4,-42.64,FALSE
EOL.CV.BA.037102-5.01,2020-05-01,29.4,261,BAEJ20,Ventos de Sao Januario 20,NE,-10.44,-40.46,FALSE
EOL.CV.BA.037102-5.01,2020-06-01,-29.4,261,BAEJ20,Ventos de Sao Januario 20,NE,-10.44,-40.46,FALSE
EOL.CV.BA.037102-5.01,2020-06-01,50.4,261,BAEJ20,Ventos de Sao Januario 20,NE,-10.44,-40.46,FALSE
EOL.CV.BA.037103-3.01,2020-06-01,50.4,262,BAEJ21,Ventos de Sao Januario 21,NE,-10.43,-40.51,FALSE
EOL.CV.BA.037104-1.01,2020-07-01,21,263,BAEJ22,Ventos de Sao Januario 22,NE,-10.47,-40.52,FALSE
EOL.CV.BA.037104-1.01,2020-08-01,-21,263,BAEJ22,Ventos de Sao Januario 22,NE,-10.47,-40.52,FALSE
EOL.CV.BA.037104-1.01,2020-08-01,50.4,263,BAEJ22,Ventos de Sao Januario 22,NE,-10.47,-40.52,FALSE
EOL.CV.BA.037209-9.01,2020-12-01,24,264,BAECNA,CASA NOVA A,NE,-9.26,-41.01,FALSE
EOL.CV.BA.037209-9.01,2021-12-01,-24,264,BAECNA,CASA NOVA A,NE,-9.26,-41.01,FALSE
EOL.CV.BA.037209-9.01,2021-12-01,27,264,BAECNA,CASA NOVA A,NE,-9.26,-41.01,FALSE
EOL.CV.BA.040608-2.01,2021-05-01,30.6,277,BAEB0B,SERRA DA BABILONIA B,NE,-11.12,-41.32,FALSE
EOL.CV.BA.040609-0.01,2021-06-01,25.5,278,BAEB0C,SERRA DA BABILONIA C,NE,-3.31,-39.36,FALSE
EOL.CV.BA.040610-4.01,2021-07-01,30.6,279,BAEB0D,SERRA DA BABILONIA D,NE,-11.14,-41.33,FALSE
EOL.CV.BA.040611-2.01,2021-07-01,25.5,280,BAEB0E,SERRA DA BABILONIA E,NE,-11.14,-41.33,FALSE
EOL.CV.BA.040612-0.01,2021-08-01,20.4,281,BAEB0F,SERRA DA BABILONIA F,NE,-6.55,-35.01,FALSE
EOL.CV.CE.002801-0.01,2017-06-01,5,302,CETAIA,TAIBA,NE,-3.49,-38.93,FALSE
EOL.CV.CE.028174-3.01,2017-01-01,25.6,303,CEBBR,EOL BEBERIBE,NE,-4.19,-38.08,FALSE
EOL.CV.CE.028440-8.01,2017-01-01,28.8,305,CEUEPM,Praia do Morgado,NE,-2.82,-40.23,FALSE
EOL.CV.CE.028441-6.01,2017-01-01,42,306,CEUEVR,Volta do Rio,NE,-2.85,-39.97,FALSE
EOL.CV.CE.028630-3.01,2017-01-01,25.2,307,CEFRC,EOL RIO CHORO,NE,-4.13,-38.15,FALSE
EOL.CV.CE.028631-1.01,2017-01-01,104.4,308,CEUFM,Praia de Formosa,NE,-2.91,-41.04,FALSE
EOL.CV.CE.028649-4.01,2017-01-01,10.5,309,CEEOLI,CANOA QUEBRADA,NE,-4.53,-37.69,FALSE
EOL.CV.CE.028652-4.01,2017-01-01,3.23,310,CELGMO,LAGOA DO MATO,NE,-13.83,-42.64,FALSE
EOL.CV.CE.028699-0.01,2017-01-01,54.6,311,CEUCZ,Icaraizinho,NE,-3.02,-39.67,FALSE
EOL.CV.CE.028706-7.01,2017-01-01,25.2,312,CEPRU,EOL PARACURU,NE,-3.43,-38.96,FALSE
EOL.CV.CE.028724-5.01,2017-01-01,28.8,313,CEUPRJ,PRAIAS DE PARAJURU,NE,-4.36,-37.88,FALSE
EOL.CV.CE.028770-9.01,2017-01-01,31.5,314,CEUEEN,Enacel,NE,-4.51,-37.76,FALSE
EOL.CV.CE.028788-1.01,2017-01-01,57,315,CEUECQ,Canoa Quebrada,NE,-4.47,-37.76,FALSE
EOL.CV.CE.028857-8.01,2017-01-01,23.1,316,CEUEAG,Taíba Águia,NE,-3.55,-38.89,FALSE
EOL.CV.CE.028858-6.01,2017-01-01,16.5,317,CETAIB,TAIBA ALBATROZ,NE,-3.51,-38.91,FALSE
EOL.CV.CE.028887-0.01,2017-01-01,50,318,CEUEBV,Bons Ventos,NE,-4.45,-37.76,FALSE
EOL.CV.CE.030279-1.01,2017-01-01,30,320,CEUEBU,Buriti,NE,-2.89,-39.98,FALSE
EOL.CV.CE.030282-1.01,2017-01-01,27,322,CEUECO,Coqueiros,NE,-2.89,-39.97,FALSE
EOL.CV.CE.030289-9.01,2017-01-01,16.8,323,CEICAR,ICARAI,NE,-3.02,-39.62,FALSE
EOL.CV.CE.030294-5.01,2017-01-01,30,325,CEUECJ,Cajucoco,NE,-2.92,-39.95,FALSE
EOL.CV.CE.030295-3.01,2017-01-01,18.9,326,CEUECL,Colônia,NE,-3.54,-38.88,FALSE
EOL.CV.CE.030299-6.01,2017-01-01,42,327,CEDUNA,DUNAS DE PARACURU,NE,-3.43,-38.98,FALSE
EOL.CV.CE.030309-7.01,2017-01-01,29.4,328,CEUEFC,Faísa V,NE,-3.37,-39.26,FALSE
EOL.CV.CE.030329-1.01,2017-01-01,25.2,329,CEUEFQ,Faísa IV,NE,-3.32,-39.27,FALSE
EOL.CV.CE.030331-3.01,2017-01-01,27.3,330,CEUEFD,Faísa II,NE,-3.32,-39.24,FALSE
EOL.CV.CE.030332-1.01,2017-01-01,25.2,331,CEUEFT,Faísa III,NE,-3.35,-39.27,FALSE
EOL.CV.CE.030336-4.01,2017-01-01,27.3,332,CEUEEM,Embuaca,NE,-3.21,-39.33,FALSE
EOL.CV.CE.030352-6.01,2017-01-01,29.4,333,CEUEFU,Faísa I,NE,-3.32,-39.27,FALSE
EOL.CV.CE.030356-9.01,2017-01-01,37.8,334,CEUEID,Icaraí II,NE,-3.07,-39.6,FALSE
EOL.CV.CE.030369-0.01,2017-01-01,25.5,335,CEQUIX,QUIXABA,NE,-4.56,-37.68,FALSE
EOL.CV.CE.030372-0.01,2017-01-01,27.3,336,CEUEIU,Icaraí I,NE,-3.08,-39.59,FALSE
EOL.CV.CE.030373-9.01,2017-01-01,14.7,337,CEUEAD,Taíba Andorinha,NE,-3.53,-38.9,FALSE
EOL.CV.CE.030582-0.01,2017-01-01,25.35,338,CEEVMC,Ventos do Morro do Chapéu,NE,-3.85,-41.16,FALSE
EOL.CV.CE.030582-0.01,2020-05-01,-25.35,338,CEEVMC,Ventos do Morro do Chapéu,NE,-3.85,-41.16,FALSE
EOL.CV.CE.030582-0.01,2020-05-01,27.51,338,CEEVMC,Ventos do Morro do Chapéu,NE,-3.85,-41.16,FALSE
EOL.CV.CE.030584-7.01,2017-01-01,27.04,339,CEEVTN,Ventos de Tianguá Norte,NE,-3.84,-41.18,FALSE
EOL.CV.CE.030584-7.01,2020-05-01,-27.04,339,CEEVTN,Ventos de Tianguá Norte,NE,-3.84,-41.18,FALSE
EOL.CV.CE.030584-7.01,2020-05-01,29.12,339,CEEVTN,Ventos de Tianguá Norte,NE,-3.84,-41.18,FALSE
EOL.CV.CE.030585-5.01,2017-01-01,25.35,340,CEEVIT,Ventos de Tianguá,NE,-3.87,-41.19,FALSE
EOL.CV.CE.030585-5.01,2020-05-01,-25.35,340,CEEVIT,Ventos de Tianguá,NE,-3.87,-41.19,FALSE
EOL.CV.CE.030585-5.01,2020-05-01,27.75,340,CEEVIT,Ventos de Tianguá,NE,-3.87,-41.19,FALSE
EOL.CV.CE.030595-2.01,2017-01-01,25.35,341,CEEVFO,Vento Formoso,NE,-3.86,-41.13,FALSE
EOL.CV.CE.030595-2.01,2020-05-01,-25.35,341,CEEVFO,Vento Formoso,NE,-3.86,-41.13,FALSE
EOL.CV.CE.030595-2.01,2020-05-01,27.51,341,CEEVFO,Vento Formoso,NE,-3.86,-41.13,FALSE
EOL.CV.CE.030596-0.01,2017-01-01,27.04,342,CEEVPA,Ventos do Parazinho,NE,-3.88,-41.16,FALSE
EOL.CV.CE.030596-0.01,2020-05-01,-27.04,342,CEEVPA,Ventos do Parazinho,NE,-3.88,-41.16,FALSE
EOL.CV.CE.030596-0.01,2020-05-01,29.12,342,CEEVPA,Ventos do Parazinho,NE,-3.88,-41.16,FALSE
EOL.CV.CE.030656-8.01,2017-01-01,30.004,343,CEUEMU,Mundaú,NE,-3.19,-39.37,FALSE
EOL.CV.CE.030662-2.01,2017-01-01,25.388,344,CEUETR,Trairí,NE,-3.22,-39.29,FALSE
EOL.CV.CE.030663-0.01,2017-01-01,30.004,345,CEUEGU,Guajirú,NE,-3.26,-39.22,FALSE
EOL.CV.CE.030670-3.01,2017-01-01,30.004,346,CEUEFL,Fleixeiras I,NE,-3.2,-39.36,FALSE
EOL.CV.CE.030691-6.01,2017-01-01,29.7,347,CEUEIG,Ilha Grande,NE,-3.07,-39.7,FALSE
EOL.CV.CE.030695-9.01,2017-01-01,21.6,348,CEUERB,Ribeirão,NE,-3.1,-39.68,FALSE
EOL.CV.CE.030697-5.01,2017-01-01,24.3,349,CEUEBC,Boca do Córrego,NE,-3.1,-39.67,FALSE
EOL.CV.CE.030841-2.01,2017-01-01,23.1,350,CEEMAU,Malhadinha I,NE,-3.95,-41.12,FALSE
EOL.CV.CE.030907-9.01,2020-05-01,24,351,CEJAI,Jandaia I,NE,-4.41,-37.88,FALSE
EOL.CV.CE.030911-7.01,2017-01-01,24,352,CEUESJ,São Jorge,NE,-3.25,-39.25,FALSE
EOL.CV.CE.030912-5.01,2017-01-01,26,353,CEUESC,São Cristóvão,NE,-3.26,-39.25,FALSE
EOL.CV.CE.030916-8.01,2017-01-01,14,354,CEUEAP,Santo Antônio de Pádua,NE,-3.27,-39.22,FALSE
EOL.CV.CE.030918-4.01,2018-12-01,12.6,355,CEEUBA,Ubatuba,NE,-4.66,-37.61,FALSE
EOL.CV.CE.030920-6.01,2018-12-01,23.1,356,CEEGOB,Goiabeira,NE,-4.59,-37.71,FALSE
EOL.CV.CE.030921-4.01,2020-06-01,21,357,CESJN,São Januário,NE,-4.49,-37.8,FALSE
EOL.CV.CE.030924-9.01,2018-12-01,18.9,358,CEESCT,Santa Catarina,NE,-4.59,-37.68,FALSE
EOL.CV.CE.030925-7.01,2018-12-01,16.8,359,CEEVHZ,Ventos de Horizonte,NE,-4.62,-37.69,FALSE
EOL.CV.CE.030926-5.01,2018-12-01,27.3,360,CEEPTM,Pitombeira,NE,-4.6,-37.65,FALSE
EOL.CV.CE.030927-3.01,2020-05-01,21,361,CESCL,São Clemente,NE,-4.41,-37.84,FALSE
EOL.CV.CE.030929-0.01,2020-05-01,27,362,CEJAN,JANDAIA,NE,-4.41,-37.82,FALSE
EOL.CV.CE.030930-3.01,2020-06-01,30,363,CENSF,Nossa Senhora de Fátima,NE,-4.43,-37.87,FALSE
EOL.CV.CE.031482-0.01,2017-01-01,21,364,CEEIT5,Itarema V,NE,-2.97,-39.88,FALSE
EOL.CV.CE.031483-8.01,2017-01-01,27,365,CEEIT2,Itarema II,NE,-2.92,-39.86,FALSE
EOL.CV.CE.031484-6.01,2017-01-01,15,366,CEEIT3,Itarema III,NE,-2.95,-39.84,FALSE
EOL.CV.CE.031485-4.01,2017-01-01,27,367,CEEIT1,Itarema I,NE,-2.92,-39.84,FALSE
EOL.CV.CE.031579-6.01,2018-05-01,21,368,CEEBC5,Bons Ventos Cacimbas 5,NE,-3.92,-41.03,FALSE
EOL.CV.CE.031611-3.01,2018-06-01,8.4,369,CEEBC7,Bons Ventos Cacimbas 7,NE,-3.86,-41.04,FALSE
EOL.CV.CE.031611-3.01,2018-07-01,-8.4,369,CEEBC7,Bons Ventos Cacimbas 7,NE,-3.86,-41.04,FALSE
EOL.CV.CE.031611-3.01,2018-07-01,16.8,369,CEEBC7,Bons Ventos Cacimbas 7,NE,-3.86,-41.04,FALSE
EOL.CV.CE.031621-0.01,2018-05-01,10.5,370,CEEBC4,Bons Ventos Cacimbas 4,NE,-3.93,-41.03,FALSE
EOL.CV.CE.031627-0.01,2018-05-01,14.7,371,CEEBC3,Bons Ventos Cacimbas 3,NE,-3.86,-41.02,FALSE
EOL.CV.CE.031644-0.01,2018-06-01,21,372,CEEBC2,Bons Ventos Cacimbas 2,NE,-3.89,-41.04,FALSE
EOL.CV.CE.031644-0.01,2018-07-01,-21,372,CEEBC2,Bons Ventos Cacimbas 2,NE,-3.89,-41.04,FALSE
EOL.CV.CE.031644-0.01,2018-07-01,23.1,372,CEEBC2,Bons Ventos Cacimbas 2,NE,-3.89,-41.04,FALSE
EOL.CV.CE.031698-9.01,2017-06-01,23.1,373,CEECH2,Pedra Cheirosa II,NE,-3.01,-39.73,FALSE
EOL.CV.CE.031736-5.01,2017-06-01,25.2,374,CEECH1,Pedra Cheirosa,NE,-2.99,-39.74,FALSE
EOL.CV.CE.031813-2.01,2017-01-01,21,375,CEEIT4,Itarema IV,NE,-2.97,-39.88,FALSE
EOL.CV.CE.031814-0.01,2017-01-01,30,376,CEEIT9,Itarema IX,NE,-2.93,-39.88,FALSE
EOL.CV.CE.031815-9.01,2017-01-01,24,377,CEEIT6,Itarema VI,NE,-2.93,-39.88,FALSE
EOL.CV.CE.031816-7.01,2017-01-01,21,378,CEEIT7,Itarema VII,NE,-2.93,-39.88,FALSE
EOL.CV.CE.031817-5.01,2017-01-01,21,379,CEEIT8,Itarema VIII,NE,-2.93,-39.88,FALSE
EOL.CV.CE.031866-3.01,2017-12-01,23.1,380,CEESI4,Santo Inácio IV,NE,-4.74,-37.3,FALSE
EOL.CV.CE.032010-2.01,2017-03-01,29.7,381,CEEEST,Estrela,NE,-3.25,-39.29,FALSE
EOL.CV.CE.032011-0.01,2017-01-01,18.9,382,CEECAA,Cacimbas 1,NE,-3.25,-39.28,FALSE
EOL.CV.CE.032012-9.01,2017-04-01,29.7,383,CEEOVE,Ouro Verde,NE,-3.28,-39.31,FALSE
EOL.CV.CE.032013-7.01,2017-01-01,18.9,384,CEESMA,Santa Mônica I,NE,-3.26,-39.28,FALSE
EOL.CV.CE.032375-6.01,2021-10-01,21,385,CEESM1,SERRA DO MATO I,NE,-3.27,-39.39,FALSE
EOL.CV.CE.032376-4.01,2021-10-01,21,386,CEESM2,SERRA DO MATO II,NE,-3.27,-39.35,FALSE
EOL.CV.CE.032377-2.01,2021-10-01,21,387,CEESM3,SERRA DO MATO III,NE,-3.26,-39.34,FALSE
EOL.CV.CE.032378-0.01,2021-12-01,21,388,CEESM4,SERRA DO MATO IV,NE,-3.22,-39.39,FALSE
EOL.CV.CE.032379-9.01,2021-11-01,16.8,389,CEESM6,SERRA DO MATO VI,NE,-3.24,-39.4,FALSE
EOL.CV.CE.032453-1.01,2021-11-01,21,390,CEESM5,SERRA DO MATO V,NE,-3.23,-39.4,FALSE
EOL.CV.CE.033756-0.01,2018-05-01,28,391,CEECVA,Cataventos Acaraú I,NE,-2.84,-40.06,FALSE
EOL.CV.CE.035197-0.01,2017-12-01,23.1,392,CEEGRR,Garrote,NE,-4.73,-37.32,FALSE
EOL.CV.CE.035217-9.01,2017-12-01,29.4,393,CEESI3,Santo Inácio III,NE,-4.76,-37.29,FALSE
EOL.CV.CE.035219-5.01,2017-12-01,23.1,394,CEESRM,São Raimundo,NE,-4.77,-37.29,FALSE
EOL.CV.CE.040878-6.01,2021-01-01,8.4,396,CEESR1,Serrote I,NE,-4.53,-37.69,FALSE
EOL.CV.CE.040878-6.01,2021-04-01,-8.4,396,CEESR1,Serrote I,NE,-4.53,-37.69,FALSE
EOL.CV.CE.040878-6.01,2021-04-01,25.2,396,CEESR1,Serrote I,NE,-4.53,-37.69,FALSE
EOL.CV.CE.040879-4.01,2021-01-01,12.6,397,CEESR2,SERROTE II,NE,-3.28,-39.33,FALSE
EOL.CV.CE.040879-4.01,2021-04-01,-12.6,397,CEESR2,SERROTE II,NE,-3.28,-39.33,FALSE
EOL.CV.CE.040879-4.01,2021-04-01,25.2,397,CEESR2,SERROTE II,NE,-3.28,-39.33,FALSE
EOL.CV.CE.040880-8.01,2021-01-01,8.4,398,CEESR3,SERROTE III,NE,-3.3,-39.35,FALSE
EOL.CV.CE.040880-8.01,2021-04-01,-8.4,398,CEESR3,SERROTE III,NE,-3.3,-39.35,FALSE
EOL.CV.CE.040880-8.01,2021-04-01,16.8,398,CEESR3,SERROTE III,NE,-3.3,-39.35,FALSE
EOL.CV.CE.040880-8.01,2021-05-01,-16.8,398,CEESR3,SERROTE III,NE,-3.3,-39.35,FALSE
EOL.CV.CE.040880-8.01,2021-05-01,21,398,CEESR3,SERROTE III,NE,-3.3,-39.35,FALSE
EOL.CV.CE.040881-6.01,2021-01-01,4.2,399,CEESR4,SERROTE IV,NE,-3.3,-39.39,FALSE
EOL.CV.CE.040881-6.01,2021-04-01,-4.2,399,CEESR4,SERROTE IV,NE,-3.3,-39.39,FALSE
EOL.CV.CE.040881-6.01,2021-04-01,12.6,399,CEESR4,SERROTE IV,NE,-3.3,-39.39,FALSE
EOL.CV.CE.040881-6.01,2021-05-01,-12.6,399,CEESR4,SERROTE IV,NE,-3.3,-39.39,FALSE
EOL.CV.CE.040881-6.01,2021-05-01,16.8,399,CEESR4,SERROTE IV,NE,-3.3,-39.39,FALSE
EOL.CV.CE.040882-4.01,2021-01-01,21,400,CEESR5,SERROTE V,NE,-3.31,-39.36,FALSE
EOL.CV.CE.040882-4.01,2021-05-01,-21,400,CEESR5,SERROTE V,NE,-3.31,-39.36,FALSE
EOL.CV.CE.040882-4.01,2021-05-01,29.4,400,CEESR5,SERROTE V,NE,-3.31,-39.36,FALSE
EOL.CV.CE.040883-2.01,2021-02-01,21,401,CEESR6,SERROTE VI,NE,-3.22,-39.37,FALSE
EOL.CV.CE.040883-2.01,2021-03-01,-21,401,CEESR6,SERROTE VI,NE,-3.22,-39.37,FALSE
EOL.CV.CE.040883-2.01,2021-03-01,29.4,401,CEESR6,SERROTE VI,NE,-3.22,-39.37,FALSE
EOL.CV.CE.040884-0.01,2021-04-01,16.8,402,CEESR7,SERROTE VII,NE,-3.31,-39.32,FALSE
EOL.CV.CE.040884-0.01,2021-05-01,-16.8,402,CEESR7,SERROTE VII,NE,-3.31,-39.32,FALSE
EOL.CV.CE.040884-0.01,2021-05-01,29.4,402,CEESR7,SERROTE VII,NE,-3.31,-39.32,FALSE
EOL.CV.CE.040885-9.01,2021-03-01,16.8,403,CEESR8,SERROTE VIII,NE,-3.33,-39.32,FALSE
EOL.CV.CE.040885-9.01,2021-04-01,-16.8,403,CEESR8,SERROTE VIII,NE,-3.33,-39.32,FALSE
EOL.CV.CE.040885-9.01,2021-04-01,29.4,403,CEESR8,SERROTE VIII,NE,-3.33,-39.32,FALSE
EOL.CV.MA.033673-4.01,2017-07-01,16.1,404,MAEDT6,Delta 3 VI,N,-2.63,-42.65,FALSE
EOL.CV.MA.033673-4.01,2017-08-01,-16.1,404,MAEDT6,Delta 3 VI,N,-2.63,-42.65,FALSE
EOL.CV.MA.033673-4.01,2017-08-01,27.6,404,MAEDT6,Delta 3 VI,N,-2.63,-42.65,FALSE
EOL.CV.MA.033675-0.01,2017-07-01,16.1,405,MAEDT5,Delta 3 V,N,-2.63,-42.64,FALSE
EOL.CV.MA.033675-0.01,2017-08-01,-16.1,405,MAEDT5,Delta 3 V,N,-2.63,-42.64,FALSE
EOL.CV.MA.033675-0.01,2017-08-01,27.6,405,MAEDT5,Delta 3 V,N,-2.63,-42.64,FALSE
EOL.CV.MA.033680-7.01,2017-07-01,25.3,406,MAEDT7,Delta 3 VII,N,-2.62,-42.66,FALSE
EOL.CV.MA.033680-7.01,2017-08-01,-25.3,406,MAEDT7,Delta 3 VII,N,-2.62,-42.66,FALSE
EOL.CV.MA.033680-7.01,2017-08-01,27.6,406,MAEDT7,Delta 3 VII,N,-2.62,-42.66,FALSE
EOL.CV.MA.033682-3.01,2017-09-01,27.6,407,MAEDT1,Delta 3 I,N,-2.67,-42.62,FALSE
EOL.CV.MA.033683-1.01,2017-07-01,27.6,408,MAEDT2,Delta 3 II,N,-2.62,-42.66,FALSE
EOL.CV.MA.033684-0.01,2017-09-01,27.6,409,MAEDT3,Delta 3 III,N,-2.65,-42.63,FALSE
EOL.CV.MA.033685-8.01,2017-07-01,27.6,410,MAEDT4,Delta 3 IV,N,-2.66,-42.61,FALSE
EOL.CV.MA.033686-6.01,2017-11-01,27.6,411,MAEDT8,Delta 3 VIII,N,-2.67,-42.64,FALSE
EOL.CV.MA.037967-0.01,2019-01-01,24.3,412,MAEDS2,Delta 6 II,N,-2.66,-42.61,FALSE
EOL.CV.MA.037970-0.01,2019-01-01,29.7,413,MAEDS1,Delta 6 I,N,-2.69,-42.57,FALSE
EOL.CV.MA.037972-7.01,2018-12-01,10.8,414,MAEDS3,Delta 5 II,N,-2.67,-42.6,FALSE
EOL.CV.MA.037972-7.01,2019-01-01,-10.8,414,MAEDS3,Delta 5 II,N,-2.67,-42.6,FALSE
EOL.CV.MA.037972-7.01,2019-01-01,27,414,MAEDS3,Delta 5 II,N,-2.67,-42.6,FALSE
EOL.CV.MA.037976-0.01,2018-12-01,27,415,MAEDT9,Delta 5 I,N,-2.7,-42.55,FALSE
EOL.CV.MA.040572-8.01,2019-10-01,27,416,MAED7I,Delta 7 I,N,-2.68,-42.6,FALSE
EOL.CV.MA.040573-6.01,2019-10-01,35.1,417,MAED72,Delta 7 II,N,-2.69,-42.58,FALSE
EOL.CV.MA.040574-4.01,2019-11-01,35.1,418,MAED8I,Delta 8 I,N,-2.7,-42.57,FALSE
EOL.CV.PB.029041-6.01,2017-01-01,10.2,419,PBMILL,MILLENNIUM,NE,-6.49,-34.97,FALSE
EOL.CV.PB.029075-0.01,2017-01-01,4.25,420,PBVITO,VITORIA,NE,-6.55,-35.01,FALSE
EOL.CV.PB.029083-1.01,2017-01-01,4.5,421,PBPRES,PRESIDENTE,NE,-6.57,-34.97,FALSE
EOL.CV.PB.029084-0.01,2017-01-01,4.5,422,PBCAMU,CAMURIM,NE,-6.55,-34.97,FALSE
EOL.CV.PB.029085-8.01,2017-01-01,4.5,423,PBALBA,ALBATROZ,NE,-6.54,-34.96,FALSE
EOL.CV.PB.029086-6.01,2017-01-01,4.5,424,PBCOES,COELHOS I,NE,-6.57,-34.97,FALSE
EOL.CV.PB.029087-4.01,2017-01-01,4.5,425,PBCOEL,COELHOS III,NE,-6.57,-34.96,FALSE
EOL.CV.PB.029088-2.01,2017-01-01,4.5,426,PBATLA,ATLANTICA,NE,-6.54,-34.97,FALSE
EOL.CV.PB.029089-0.01,2017-01-01,4.5,427,PBCARA,CARAVELA,NE,-6.55,-34.96,FALSE
EOL.CV.PB.029090-4.01,2017-01-01,4.5,428,PBCOEH,COELHOS II,NE,-6.57,-34.96,FALSE
EOL.CV.PB.029091-2.01,2017-01-01,4.5,429,PBCOEO,COELHOS IV,NE,-6.58,-34.97,FALSE
EOL.CV.PB.029092-0.01,2017-01-01,4.5,430,PBMATA,MATARACA,NE,-6.58,-34.97,FALSE
EOL.CV.PB.033663-7.01,2017-09-01,31.5,432,PBCANO,CANOAS,NE,-6.88,-36.76,FALSE
EOL.CV.PB.033664-5.01,2017-10-01,31.5,433,PBLAGA,LAGOA 1,NE,-6.87,-36.81,FALSE
EOL.CV.PB.033665-3.01,2017-09-01,31.5,434,PBLAGO,LAGOA 2,NE,-6.84,-36.79,FALSE
EOL.CV.PB.034639-0.01,2021-08-01,34.65,435,PBCH1,CHAFARIZ 1,NE,-6.97,-36.87,FALSE
EOL.CV.PB.034640-3.01,2021-09-01,34.65,436,PBCH2,CHAFARIZ 2,NE,-6.99,-36.89,FALSE
EOL.CV.PB.034642-0.01,2021-09-01,13.86,437,PBCH3,CHAFARIZ 3,NE,-7,-36.89,FALSE
EOL.CV.PB.034642-0.01,2021-11-01,-13.86,437,PBCH3,CHAFARIZ 3,NE,-7,-36.89,FALSE
EOL.CV.PB.034642-0.01,2021-11-01,17.325,437,PBCH3,CHAFARIZ 3,NE,-7,-36.89,FALSE
EOL.CV.PB.034642-0.01,2021-12-01,-17.325,437,PBCH3,CHAFARIZ 3,NE,-7,-36.89,FALSE
EOL.CV.PB.034642-0.01,2021-12-01,27.72,437,PBCH3,CHAFARIZ 3,NE,-7,-36.89,FALSE
EOL.CV.PB.034644-6.01,2021-10-01,17.325,438,PBCH4,CHAFARIZ 4,NE,-7.03,-36.93,FALSE
EOL.CV.PB.034644-6.01,2021-11-01,-17.325,438,PBCH4,CHAFARIZ 4,NE,-7.03,-36.93,FALSE
EOL.CV.PB.034644-6.01,2021-11-01,27.72,438,PBCH4,CHAFARIZ 4,NE,-7.03,-36.93,FALSE
EOL.CV.PB.034644-6.01,2021-12-01,-27.72,438,PBCH4,CHAFARIZ 4,NE,-7.03,-36.93,FALSE
EOL.CV.PB.034644-6.01,2021-12-01,34.65,438,PBCH4,CHAFARIZ 4,NE,-7.03,-36.93,FALSE
EOL.CV.PB.034646-2.01,2021-09-01,27.72,439,PBCH5,CHAFARIZ 5,NE,-7,-36.91,FALSE
EOL.CV.PB.034646-2.01,2021-12-01,-27.72,439,PBCH5,CHAFARIZ 5,NE,-7,-36.91,FALSE
EOL.CV.PB.034646-2.01,2021-12-01,34.65,439,PBCH5,CHAFARIZ 5,NE,-7,-36.91,FALSE
EOL.CV.PB.035181-4.01,2021-12-01,34.65,440,PBCN2,CANOAS 2,NE,-6.88,-36.79,FALSE
EOL.CV.PB.035184-9.01,2021-08-01,31.185,441,PBCH6,CHAFARIZ 6,NE,-6.97,-36.85,FALSE
EOL.CV.PB.035240-3.01,2021-11-01,24.255,445,PBVA1,VENTOS DE ARAPUA 1,NE,-7.04,-36.95,FALSE
EOL.CV.PB.035241-1.01,2021-11-01,34.65,446,PBVA2,VENTOS DE ARAPUA 2,NE,-7.02,-36.96,FALSE
EOL.CV.PB.035242-0.01,2021-11-01,13.86,447,PBVA3,VENTOS DE ARAPUA 3,NE,-7.05,-36.96,FALSE
EOL.CV.PB.037952-2.01,2021-12-01,10.395,448,PBCN3,CANOAS 3,NE,-6.87,-36.75,FALSE
EOL.CV.PB.037953-0.01,2021-12-01,27.72,449,PBCN4,CANOAS 4,NE,-6.84,-36.73,FALSE
EOL.CV.PB.037958-1.01,2021-07-01,34.65,450,PBCH7,CHAFARIZ 7,NE,-6.92,-36.86,FALSE
EOL.CV.PB.038030-0.01,2021-12-01,20.79,452,PBLG4,LAGOA 4,NE,-6.88,-36.84,FALSE
EOL.CV.PE.028481-5.01,2017-01-01,4.25,456,PEPIRA,PIRAUA,NE,-7.49,-35.49,FALSE
EOL.CV.PE.029011-4.01,2017-01-01,4.25,457,PEXAVA,XAVANTE,NE,-8.17,-35.38,FALSE
EOL.CV.PE.029015-7.01,2017-01-01,4.25,458,PEMAND,MANDACARU,NE,-8.27,-35.59,FALSE
EOL.CV.PE.029015-7.01,2017-05-01,-4.25,458,PEMAND,MANDACARU,NE,-8.27,-35.59,FALSE
EOL.CV.PE.029015-7.01,2017-05-01,4.95,458,PEMAND,MANDACARU,NE,-8.27,-35.59,FALSE
EOL.CV.PE.029019-0.01,2017-01-01,4.25,459,PESNTM,SANTA MARIA,NE,-8.29,-35.59,FALSE
EOL.CV.PE.029020-3.01,2017-01-01,4.25,460,PEGRVT,GRAVATA FRUITRADE,NE,-8.26,-35.59,FALSE
EOL.CV.PE.030789-0.01,2017-01-01,18.8,461,PEUETA,Tacaicó,NE,-9.02,-38.06,FALSE
EOL.CV.PE.030805-6.01,2017-01-01,30.55,462,PEUEPF,Pau Ferro,NE,-9.06,-38.12,FALSE
EOL.CV.PE.030806-4.01,2017-01-01,30.55,463,PEUEPG,Pedra do Gerônimo,NE,-9.07,-38.14,FALSE
EOL.CV.PE.031346-7.01,2017-01-01,28.9,465,PEEBR5,Ventos de Santa Brígida V,NE,-8.85,-36.73,FALSE
EOL.CV.PE.031353-0.01,2017-01-01,28.9,466,PEEBR6,Ventos de Santa Brígida VI,NE,-8.87,-36.75,FALSE
EOL.CV.PE.031354-8.01,2017-01-01,28.9,467,PEEBR3,Ventos de Santa Brígida III,NE,-8.85,-36.77,FALSE
EOL.CV.PE.031363-7.01,2017-01-01,27.2,468,PEEBR2,Ventos de Santa Brígida II,NE,-8.8,-36.73,FALSE
EOL.CV.PE.031365-3.01,2017-01-01,13.6,469,PEEBR1,Ventos de Santa Brígida I,NE,-8.81,-36.75,FALSE
EOL.CV.PE.031370-0.01,2017-01-01,27.2,470,PEEBR4,Ventos de Santa Brígida IV,NE,-8.83,-36.76,FALSE
EOL.CV.PE.031422-6.01,2017-01-01,27.2,471,PEEBR7,Ventos de Santa Brígida VII,NE,-8.8,-36.76,FALSE
EOL.CV.PE.031537-0.01,2017-01-01,23.92,472,PEESV1,Serra das Vacas I,NE,-8.93,-36.74,FALSE
EOL.CV.PE.031540-0.01,2017-01-01,22.295,473,PEESV2,Serra das Vacas II,NE,-8.9,-36.73,FALSE
EOL.CV.PE.031560-5.01,2017-01-01,22.235,474,PEESV3,Serra das Vacas III,NE,-8.9,-36.76,FALSE
EOL.CV.PE.031574-5.01,2017-01-01,22.295,475,PEESV4,Serra das Vacas IV,NE,-8.91,-36.73,FALSE
EOL.CV.PE.031761-6.01,2017-06-01,25.3,488,PIEES1,Ventos de Santo Estevão I,NE,-7.74,-40.67,FALSE
EOL.CV.PE.031762-4.01,2017-05-01,20.7,489,PIEES2,Ventos de Santo Estevão II,NE,-7.75,-40.63,FALSE
EOL.CV.PE.031762-4.01,2017-06-01,-20.7,489,PIEES2,Ventos de Santo Estevão II,NE,-7.75,-40.63,FALSE
EOL.CV.PE.031762-4.01,2017-06-01,25.3,489,PIEES2,Ventos de Santo Estevão II,NE,-7.75,-40.63,FALSE
EOL.CV.PE.031763-2.01,2017-01-01,29.9,490,PIEES3,Ventos de Santo Estevão III,NE,-7.73,-40.64,FALSE
EOL.CV.PE.031764-0.01,2017-01-01,23,491,PIEES5,Ventos de Santo Estevão V,NE,-7.76,-40.67,FALSE
EOL.CV.PE.031764-0.01,2017-02-01,-23,491,PIEES5,Ventos de Santo Estevão V,NE,-7.76,-40.67,FALSE
EOL.CV.PE.031764-0.01,2017-02-01,27.6,491,PIEES5,Ventos de Santo Estevão V,NE,-7.76,-40.67,FALSE
EOL.CV.PE.031818-3.01,2017-01-01,29.155,476,PEECL1,Ventos de Sao Clemente I,NE,-8.73,-36.7,FALSE
EOL.CV.PE.031818-3.01,2020-05-01,-29.155,476,PEECL1,Ventos de Sao Clemente I,NE,-8.73,-36.7,FALSE
EOL.CV.PE.031818-3.01,2020-05-01,31.365,476,PEECL1,Ventos de Sao Clemente I,NE,-8.73,-36.7,FALSE
EOL.CV.PE.031819-1.01,2017-01-01,29.155,477,PEECL2,Ventos de Sao Clemente II,NE,-8.71,-36.73,FALSE
EOL.CV.PE.031819-1.01,2020-05-01,-29.155,477,PEECL2,Ventos de Sao Clemente II,NE,-8.71,-36.73,FALSE
EOL.CV.PE.031819-1.01,2020-05-01,31.365,477,PEECL2,Ventos de Sao Clemente II,NE,-8.71,-36.73,FALSE
EOL.CV.PE.031820-5.01,2017-01-01,29.155,478,PEECL3,Ventos de Sao Clemente III,NE,-8.71,-36.72,FALSE
EOL.CV.PE.031820-5.01,2020-05-01,-29.155,478,PEECL3,Ventos de Sao Clemente III,NE,-8.71,-36.72,FALSE
EOL.CV.PE.031820-5.01,2020-05-01,31.365,478,PEECL3,Ventos de Sao Clemente III,NE,-8.71,-36.72,FALSE
EOL.CV.PE.031821-3.01,2017-01-01,29.155,479,PEECL4,Ventos de Sao Clemente IV,NE,-8.7,-36.76,FALSE
EOL.CV.PE.031821-3.01,2020-05-01,-29.155,479,PEECL4,Ventos de Sao Clemente IV,NE,-8.7,-36.76,FALSE
EOL.CV.PE.031821-3.01,2020-05-01,31.365,479,PEECL4,Ventos de Sao Clemente IV,NE,-8.7,-36.76,FALSE
EOL.CV.PE.031822-1.01,2017-01-01,29.155,480,PEECL5,Ventos de Sao Clemente V,NE,-8.78,-36.76,FALSE
EOL.CV.PE.031822-1.01,2020-05-01,-29.155,480,PEECL5,Ventos de Sao Clemente V,NE,-8.78,-36.76,FALSE
EOL.CV.PE.031822-1.01,2020-05-01,31.365,480,PEECL5,Ventos de Sao Clemente V,NE,-8.78,-36.76,FALSE
EOL.CV.PE.031823-0.01,2017-01-01,25.725,481,PEECL6,Ventos de Sao Clemente VI,NE,-8.76,-36.71,FALSE
EOL.CV.PE.031823-0.01,2020-05-01,-25.725,481,PEECL6,Ventos de Sao Clemente VI,NE,-8.76,-36.71,FALSE
EOL.CV.PE.031823-0.01,2020-05-01,27.675,481,PEECL6,Ventos de Sao Clemente VI,NE,-8.76,-36.71,FALSE
EOL.CV.PE.031823-0.01,2020-11-01,-27.675,481,PEECL6,Ventos de Sao Clemente VI,NE,-8.76,-36.71,FALSE
EOL.CV.PE.031823-0.01,2020-11-01,25.83,481,PEECL6,Ventos de Sao Clemente VI,NE,-8.76,-36.71,FALSE
EOL.CV.PE.031824-8.01,2017-01-01,24.01,482,PEECL7,Ventos de Sao Clemente VII,NE,-8.75,-36.73,FALSE
EOL.CV.PE.031824-8.01,2020-05-01,-24.01,482,PEECL7,Ventos de Sao Clemente VII,NE,-8.75,-36.73,FALSE
EOL.CV.PE.031824-8.01,2020-05-01,25.83,482,PEECL7,Ventos de Sao Clemente VII,NE,-8.75,-36.73,FALSE
EOL.CV.PE.031825-6.01,2017-01-01,20.58,483,PEECL8,Ventos de Sao Clemente VIII,NE,-8.7,-36.78,FALSE
EOL.CV.PE.031825-6.01,2020-05-01,-20.58,483,PEECL8,Ventos de Sao Clemente VIII,NE,-8.7,-36.78,FALSE
EOL.CV.PE.031825-6.01,2020-05-01,22.14,483,PEECL8,Ventos de Sao Clemente VIII,NE,-8.7,-36.78,FALSE
EOL.CV.PE.032360-8.01,2017-12-01,25.3,484,PEESV5,Serra das Vacas V,NE,-8.91,-36.76,FALSE
EOL.CV.PE.032361-6.01,2017-12-01,25.3,485,PEESV6,Serra das Vacas VII,NE,-8.92,-36.78,FALSE
EOL.CV.PE.032365-9.01,2017-10-01,29.9,492,PIEES4,Ventos de Santo Estevão IV,NE,-7.79,-40.63,FALSE
EOL.CV.PE.044553-3.01,2021-12-01,49.5,486,PEEPF2,PAU FERRO II,NE,-9.03,-38.09,FALSE
EOL.CV.PE.044554-1.01,2021-12-01,49.5,487,PEETA2,TACAICO II,NE,-9.01,-38.07,FALSE
EOL.CV.PI.028731-8.01,2017-01-01,18,495,PIPSAL,PEDRA DO SAL,NE,-2.82,-41.7,FALSE
EOL.CV.PI.030639-8.01,2017-01-01,30.8,496,PIPORD,PORTO DO DELTA,NE,-2.84,-41.69,FALSE
EOL.CV.PI.030827-7.01,2017-01-01,20,497,PIPORT,PORTO DAS BARCAS,NE,-2.82,-41.74,FALSE
EOL.CV.PI.030830-7.01,2017-01-01,20,498,PIPORO,PORTO SALGADO,NE,-2.83,-41.72,FALSE
EOL.CV.PI.030838-2.01,2017-01-01,30,499,PIDELT,DELTA DO PARNAIBA,NE,-2.83,-41.7,FALSE
EOL.CV.PI.031270-3.01,2017-06-01,13.5,500,PIESED,Ventos de Santa Edwiges,NE,-7.31,-40.56,FALSE
EOL.CV.PI.031270-3.01,2017-09-01,-13.5,500,PIESED,Ventos de Santa Edwiges,NE,-7.31,-40.56,FALSE
EOL.CV.PI.031270-3.01,2017-09-01,29.7,500,PIESED,Ventos de Santa Edwiges,NE,-7.31,-40.56,FALSE
EOL.CV.PI.031271-1.01,2017-08-01,10.8,501,PIESAD,Ventos de Santo Adriano,NE,-7.34,-40.56,FALSE
EOL.CV.PI.031272-0.01,2017-07-01,5.4,502,PIESAL,Ventos de Santo Albano,NE,-7.36,-40.58,FALSE
EOL.CV.PI.031272-0.01,2017-08-01,-5.4,502,PIESAL,Ventos de Santo Albano,NE,-7.36,-40.58,FALSE
EOL.CV.PI.031272-0.01,2017-08-01,29.7,502,PIESAL,Ventos de Santo Albano,NE,-7.36,-40.58,FALSE
EOL.CV.PI.031273-8.01,2017-07-01,13.5,503,PIESFA,Ventos de Santa Fátima,NE,-7.34,-40.57,FALSE
EOL.CV.PI.031273-8.01,2017-08-01,-13.5,503,PIESFA,Ventos de Santa Fátima,NE,-7.34,-40.57,FALSE
EOL.CV.PI.031273-8.01,2017-08-01,29.7,503,PIESFA,Ventos de Santa Fátima,NE,-7.34,-40.57,FALSE
EOL.CV.PI.031274-6.01,2017-05-01,29.7,504,PIESBA,Ventos de Santa Barbara,NE,-7.3,-40.54,FALSE
EOL.CV.PI.031275-4.01,2017-01-01,29.7,505,PIESAN,Ventos de Santa Angelina,NE,-7.3,-40.53,FALSE
EOL.CV.PI.031276-2.01,2017-07-01,16.2,506,PIESRE,Ventos de Santa Regina,NE,-7.33,-40.59,FALSE
EOL.CV.PI.031276-2.01,2017-08-01,-16.2,506,PIESRE,Ventos de Santa Regina,NE,-7.33,-40.59,FALSE
EOL.CV.PI.031276-2.01,2017-08-01,29.7,506,PIESRE,Ventos de Santa Regina,NE,-7.33,-40.59,FALSE
EOL.CV.PI.031361-0.01,2017-01-01,30,507,PIEJ02,Ventos de Santa Joana II,NE,-7.57,-40.7,FALSE
EOL.CV.PI.031362-9.01,2017-01-01,30,508,PIEO02,Ventos de Santo Onofre II,NE,-7.59,-40.73,FALSE
EOL.CV.PI.031364-5.01,2017-01-01,30,509,PIEO01,Ventos de Santo Onofre I,NE,-7.55,-40.73,FALSE
EOL.CV.PI.031366-1.01,2017-01-01,30,510,PIEJ08,Ventos de Santa Joana VIII,NE,-7.6,-40.73,FALSE
EOL.CV.PI.031367-0.01,2017-01-01,30,511,PIEJ06,Ventos de Santa Joana VI,NE,-7.53,-40.74,FALSE
EOL.CV.PI.031368-8.01,2017-01-01,30,512,PIEJ15,Ventos de Santa Joana XIV,NE,-7.51,-40.73,FALSE
EOL.CV.PI.031388-2.01,2017-01-01,29.6,513,PIEJ11,Ventos de Santa Joana XI,NE,-7.48,-40.8,FALSE
EOL.CV.PI.031392-0.01,2017-01-01,28.9,514,PIEJ16,Ventos de Santa Joana XVI,NE,-7.46,-40.72,FALSE
EOL.CV.PI.031393-9.01,2017-01-01,29.6,515,PIEJ10,Ventos de Santa Joana X,NE,-7.44,-40.71,FALSE
EOL.CV.PI.031394-7.01,2017-01-01,29.6,516,PIEJ13,Ventos de Santa Joana XIII,NE,-7.41,-40.71,FALSE
EOL.CV.PI.031414-5.01,2017-01-01,28.9,517,PIEJ12,Ventos de Santa Joana XII,NE,-7.49,-40.75,FALSE
EOL.CV.PI.031416-1.01,2017-01-01,28.9,518,PIEJ14,Ventos de Santa Joana XV,NE,-7.48,-40.77,FALSE
EOL.CV.PI.031417-0.01,2017-01-01,29.6,519,PIEJ9,Ventos de Santa Joana IX,NE,-7.45,-40.74,FALSE
EOL.CV.PI.031520-6.01,2017-01-01,27.2,520,PIEJ04,Ventos de Santa Joana IV,NE,-7.45,-40.69,FALSE
EOL.CV.PI.031538-9.01,2017-01-01,28.9,521,PIEJ05,Ventos de Santa Joana V,NE,-7.37,-40.67,FALSE
EOL.CV.PI.031580-0.01,2017-01-01,29.6,522,PIEJ03,Ventos de Santa Joana III,NE,-7.44,-40.75,FALSE
EOL.CV.PI.031581-8.01,2017-01-01,28.9,523,PIEJ01,Ventos de Santa Joana I,NE,-7.42,-40.67,FALSE
EOL.CV.PI.031597-4.01,2017-01-01,28.9,524,PIEJ07,Ventos de Santa Joana VII,NE,-7.41,-40.67,FALSE
EOL.CV.PI.031603-2.01,2017-01-01,28.9,525,PIEAU4,Ventos de Santo Augusto IV,NE,-7.37,-40.71,FALSE
EOL.CV.PI.031661-0.01,2017-01-01,29.6,526,PIEAU5,Ventos de Santo Augusto V,NE,-7.41,-40.7,FALSE
EOL.CV.PI.031662-8.01,2017-01-01,29.6,527,PIEAU3,Ventos de Santo Augusto III,NE,-7.37,-40.71,FALSE
EOL.CV.PI.031666-0.01,2017-01-01,22,528,PITEST,TESTA BRANCA I,NE,-2.81,-41.78,FALSE
EOL.CV.PI.031746-2.02,2017-02-01,18.4,529,PIEAU1,Ventos de Santo Augusto I,NE,-7.74,-40.68,FALSE
EOL.CV.PI.031747-0.02,2017-01-01,27.6,530,PIEAU2,Ventos de Santo Augusto II,NE,-7.77,-40.68,FALSE
EOL.CV.PI.031749-7.01,2017-03-01,18.4,531,PIEAU7,Ventos de Santo Augusto VII,NE,-7.73,-40.68,FALSE
EOL.CV.PI.031766-7.01,2017-03-01,29.9,532,PIEAU6,Ventos de Santo Augusto VI,NE,-7.71,-40.68,FALSE
EOL.CV.PI.031767-5.01,2017-01-01,18.4,533,PIEAU8,Ventos de Santo Augusto VIII,NE,-7.77,-40.68,FALSE
EOL.CV.PI.031886-8.02,2017-01-01,30,534,PIEO03,Ventos de Santo Onofre III,NE,-7.56,-40.73,FALSE
EOL.CV.PI.032366-7.01,2017-06-01,27.6,535,PIEO04,Ventos de Santo Onofre IV,NE,-7.6,-40.68,FALSE
EOL.CV.PI.032367-5.01,2017-08-01,29.9,536,PIEVI1,Ventos de São Virgílio 1,NE,-7.74,-40.72,FALSE
EOL.CV.PI.032368-3.01,2017-09-01,19.8,537,PIEVI3,Ventos de São Virgílio 3,NE,-7.8,-40.71,FALSE
EOL.CV.PI.032863-4.01,2021-12-01,32.2,538,PIEQN1,AURA QUEIMADA NOVA 01,NE,-8.68,-41.58,FALSE
EOL.CV.PI.033005-1.01,2020-11-01,31.5,539,PIVSA1,VENTOS DE SANTA ANGELA 01,NE,-8.51,-41.55,FALSE
EOL.CV.PI.033006-0.01,2020-11-01,31.5,540,PISA02,VENTOS DE SANTA ANGELA 02,NE,-8.54,-41.57,FALSE
EOL.CV.PI.033007-8.01,2020-11-01,31.5,541,PISA03,VENTOS DE SANTA ANGELA 03,NE,-8.57,-41.57,FALSE
EOL.CV.PI.033008-6.01,2020-11-01,31.5,542,PISA04,VENTOS DE SANTA ANGELA 04,NE,-8.6,-41.59,FALSE
EOL.CV.PI.033009-4.01,2020-12-01,31.5,543,PISA05,VENTOS DE SANTA ANGELA 05,NE,-8.46,-41.44,FALSE
EOL.CV.PI.033010-8.01,2020-12-01,31.5,544,PISA06,VENTOS DE SANTA ANGELA 06,NE,-8.48,-41.45,FALSE
EOL.CV.PI.033011-6.01,2020-12-01,25.2,545,PISA07,VENTOS DE SANTA ANGELA 07,NE,-8.53,-41.48,FALSE
EOL.CV.PI.033012-4.01,2020-12-01,31.5,546,PISA08,VENTOS DE SANTA ANGELA 08,NE,-8.56,-41.49,FALSE
EOL.CV.PI.033013-2.01,2020-12-01,44.1,547,PISA09,VENTOS DE SANTA ANGELA 09,NE,-8.59,-41.47,FALSE
EOL.CV.PI.033014-0.01,2020-12-01,40.95,548,PISA10,VENTOS DE SANTA ANGELA 10,NE,-8.63,-41.49,FALSE
EOL.CV.PI.033015-9.01,2020-12-01,44.1,549,PISA11,VENTOS DE SANTA ANGELA 11,NE,-8.66,-41.5,FALSE
EOL.CV.PI.033016-7.01,2021-03-01,30,550,PISA12,VENTOS DE SANTA ANGELA 12,NE,-8.76,-41.43,FALSE
EOL.CV.PI.033017-5.01,2021-03-01,28.35,551,PISA13,VENTOS DE SANTA ANGELA 13,NE,-8.76,-41.4,FALSE
EOL.CV.PI.033018-3.01,2020-12-01,42.6,552,PISA14,VENTOS DE SANTA ANGELA 14,NE,-8.7,-41.51,FALSE
EOL.CV.PI.033019-1.01,2021-03-01,43.5,553,PISA15,VENTOS DE SANTA ANGELA 15,NE,-8.72,-41.47,FALSE
EOL.CV.PI.033020-5.01,2021-05-01,31.5,554,PISA16,VENTOS DE SANTA ANGELA 16,NE,-8.73,-41.55,FALSE
EOL.CV.PI.033021-3.01,2021-04-01,47.25,555,PISA17,VENTOS DE SANTA ANGELA 17,NE,-8.71,-41.42,FALSE
EOL.CV.PI.033022-1.01,2021-03-01,31.5,556,PISA18,VENTOS DE SANTA ANGELA 18,NE,-8.73,-41.39,FALSE
EOL.CV.PI.033023-0.01,2021-04-01,30,557,PISA19,VENTOS DE SANTA ANGELA 19,NE,-8.74,-41.47,FALSE
EOL.CV.PI.033024-8.01,2021-02-01,30,558,PISA20,VENTOS DE SANTA ANGELA 20,NE,-8.78,-41.45,FALSE
EOL.CV.PI.033025-6.01,2021-01-01,27,559,PISA21,VENTOS DE SANTA ANGELA 21,NE,-8.8,-41.46,FALSE
EOL.CV.PI.033136-8.01,2017-11-01,29.4,560,PIEV10,Ventos de São Vicente 10,NE,-8.02,-40.62,FALSE
EOL.CV.PI.033138-4.01,2017-08-01,29.4,561,PIEV14,Ventos de São Vicente 14,NE,-7.99,-40.58,FALSE
EOL.CV.PI.033139-2.01,2017-09-01,29.4,562,PIEV13,Ventos de São Vicente 13,NE,-8,-40.61,FALSE
EOL.CV.PI.033140-6.01,2017-08-01,14.7,563,PIEV12,Ventos de São Vicente 12,NE,-8.02,-40.62,FALSE
EOL.CV.PI.033140-6.01,2017-09-01,-14.7,563,PIEV12,Ventos de São Vicente 12,NE,-8.02,-40.62,FALSE
EOL.CV.PI.033140-6.01,2017-09-01,25.2,563,PIEV12,Ventos de São Vicente 12,NE,-8.02,-40.62,FALSE
EOL.CV.PI.033140-6.01,2017-10-01,-25.2,563,PIEV12,Ventos de São Vicente 12,NE,-8.02,-40.62,FALSE
EOL.CV.PI.033140-6.01,2017-10-01,29.4,563,PIEV12,Ventos de São Vicente 12,NE,-8.02,-40.62,FALSE
EOL.CV.PI.033141-4.01,2017-11-01,29.4,564,PIEV11,Ventos de São Vicente 11,NE,-8.02,-40.62,FALSE
EOL.CV.PI.033143-0.01,2017-12-01,29.4,565,PIEV09,Ventos de São Vicente 09,NE,-8.02,-40.66,FALSE
EOL.CV.PI.033144-9.01,2017-10-01,29.4,566,PIEV08,Ventos de São Vicente 08,NE,-8.01,-40.63,FALSE
EOL.CV.PI.033479-0.01,2017-01-01,22,567,PITESA,TESTA BRANCA III,NE,-2.79,-41.79,FALSE
EOL.CV.PI.033618-1.01,2018-11-01,27,568,PIELB7,Aura Lagoa do Barro 07,NE,-8.68,-41.63,FALSE
EOL.CV.PI.033619-0.01,2018-12-01,27,569,PIELB3,Aura Lagoa do Barro 03,NE,-8.61,-41.55,FALSE
EOL.CV.PI.033620-3.01,2018-12-01,27,570,PIELB4,Aura Lagoa do Barro 04,NE,-8.59,-41.54,FALSE
EOL.CV.PI.033621-1.01,2018-10-01,27,571,PIELB1,Aura Lagoa do Barro 01,NE,-8.7,-41.64,FALSE
EOL.CV.PI.033622-0.01,2018-12-01,27,572,PIELB2,Aura Lagoa do Barro 02,NE,-8.65,-41.57,FALSE
EOL.CV.PI.033623-8.01,2018-11-01,24,573,PIELB5,Aura Lagoa do Barro 05,NE,-8.59,-41.54,FALSE
EOL.CV.PI.033624-6.01,2018-12-01,27,574,PIELB6,Aura Lagoa do Barro 06,NE,-8.63,-41.56,FALSE
EOL.CV.PI.033625-4.01,2018-12-01,9,575,PIEQN3,Aura Queimada Nova 03,NE,-8.67,-41.63,FALSE
EOL.CV.PI.033667-0.01,2017-02-01,29.9,576,PIEVI2,Ventos de São Virgílio 2,NE,-7.79,-40.73,FALSE
EOL.CV.PI.040567-1.01,2021-12-01,46,591,PIEQN2,AURA QUEIMADA NOVA 02,NE,-8.62,-41.59,FALSE
EOL.CV.PR.027908-0.01,2017-01-01,2.5,613,PREOLI,EOLIO   ELETRICA DE PALMAS,S,-26.57,-51.7,FALSE
EOL.CV.RJ.028730-0.01,2017-01-01,28.05,614,RJUEGG,GARGAU,SE,-21.56,-41.07,FALSE
EOL.CV.RN.028424-6.01,2017-01-01,49.3,616,RNUERF,RN 15   RIO DO FOGO,NE,-5.3,-35.38,FALSE
EOL.CV.RN.028443-2.01,2017-01-01,100.65,617,RNUAD,Alegria II,NE,-5.12,-36.38,FALSE
EOL.CV.RN.028444-0.01,2017-01-01,51,618,RNUAU,Alegria I,NE,-5.09,-36.36,FALSE
EOL.CV.RN.030121-3.01,2017-01-01,14.4,620,RNARAT,ARATUA I,NE,-5.09,-36.33,FALSE
EOL.CV.RN.030281-3.01,2017-01-01,26,621,RNUEM3,MANGUE SECO 3,NE,-5.19,-36.36,FALSE
EOL.CV.RN.030284-8.01,2017-01-01,26,622,RNUEM2,MANGUE SECO 2,NE,-5.17,-36.32,FALSE
EOL.CV.RN.030285-6.01,2017-01-01,26,623,RNUEM1,MANGUE SECO 1,NE,-5.17,-36.3,FALSE
EOL.CV.RN.030290-2.01,2017-01-01,26,624,RNUEM5,MANGUE SECO 5,NE,-5.17,-36.41,FALSE
EOL.CV.RN.030292-9.01,2017-01-01,30,625,RNUEC1,SANTA CLARA I,NE,-5.24,-35.9,FALSE
EOL.CV.RN.030293-7.01,2017-01-01,30,626,RNUEC3,SANTA CLARA III,NE,-5.27,-35.9,FALSE
EOL.CV.RN.030300-3.01,2017-01-01,28.8,627,RNCEM6,MORRO DOS VENTOS VI,NE,-5.34,-35.88,FALSE
EOL.CV.RN.030301-1.01,2017-01-01,28.8,628,RNCEM1,MORRO DOS VENTOS I,NE,-5.36,-35.82,FALSE
EOL.CV.RN.030302-0.01,2017-01-01,30,629,RNCEM9,MORRO DOS VENTOS IX,NE,-5.31,-35.91,FALSE
EOL.CV.RN.030304-6.01,2017-01-01,30,630,RNUEC6,Santa Clara VI,NE,-5.24,-35.93,FALSE
EOL.CV.RN.030307-0.01,2017-01-01,30,631,RNUEC4,SANTA CLARA IV,NE,-5.24,-35.91,FALSE
EOL.CV.RN.030308-9.01,2017-01-01,30,632,RNUEC2,SANTA CLARA II,NE,-5.27,-35.91,FALSE
EOL.CV.RN.030310-0.01,2017-01-01,28.8,633,RNCEM3,MORRO DOS VENTOS III,NE,-5.37,-35.87,FALSE
EOL.CV.RN.030311-9.01,2017-01-01,28.8,634,RNCEM4,MORRO DOS VENTOS IV,NE,-5.38,-35.88,FALSE
EOL.CV.RN.030333-0.01,2017-01-01,19.8,635,RNPARU,CABECO PRETO,NE,-5.41,-35.95,FALSE
EOL.CV.RN.030339-9.01,2017-01-01,68.47,636,RNUES3,Miassaba 3,NE,-5.13,-36.45,FALSE
EOL.CV.RN.030340-2.01,2017-01-01,27.3,637,RNUEAB,AREIA BRANCA,NE,-4.97,-36.9,FALSE
EOL.CV.RN.030351-8.01,2017-01-01,8,638,RNUER6,EURUS VI,NE,-5.23,-35.93,FALSE
EOL.CV.RN.030370-4.01,2017-01-01,14.4,639,RNMIAS,MIASSABA II,NE,-5.08,-36.4,FALSE
EOL.CV.RN.030378-0.01,2017-01-01,30,640,RNUEC5,SANTA CLARA V,NE,-5.26,-35.92,FALSE
EOL.CV.RN.030389-5.01,2017-01-01,23.1,641,RNUEMT,Mar e Terra,NE,-4.96,-36.91,FALSE
EOL.CV.RN.030416-6.01,2017-01-01,58.45,642,RNUERU,REI DOS VENTOS 1,NE,-5.1,-36.2,FALSE
EOL.CV.RN.030417-4.01,2017-01-01,60.12,643,RNUERT,REI DOS VENTOS 3,NE,-5.12,-36.16,FALSE
EOL.CV.RN.030417-4.01,2021-04-01,-60.12,643,RNUERT,REI DOS VENTOS 3,NE,-5.12,-36.16,FALSE
EOL.CV.RN.030417-4.01,2021-04-01,56.78,643,RNUERT,REI DOS VENTOS 3,NE,-5.12,-36.16,FALSE
EOL.CV.RN.030454-9.01,2017-01-01,20,644,RNMEL0,MEL 02,NE,-4.94,-36.96,FALSE
EOL.CV.RN.030497-2.01,2017-01-01,30,645,RNUERN,RENASCENÇA V,NE,-5.27,-35.86,FALSE
EOL.CV.RN.030498-0.01,2017-01-01,32,646,RNEAB4,Asa Branca IV,NE,-5.33,-35.99,FALSE
EOL.CV.RN.030499-9.01,2017-01-01,30,647,RNUEER,EURUS II,NE,-5.39,-35.83,FALSE
EOL.CV.RN.030500-6.01,2017-01-01,30,648,RNECV2,CAMPO DOS VENTOS II,NE,-5.32,-35.93,FALSE
EOL.CV.RN.030501-4.01,2017-01-01,19.8,649,RNPARQ,CABECO PRETO IV,NE,-5.44,-35.95,FALSE
EOL.CV.RN.030502-2.01,2017-01-01,20,650,RNUEFA,FAROL,NE,-5.1,-36.02,FALSE
EOL.CV.RN.030503-0.01,2017-01-01,30,651,RNCEE1,EURUS I,NE,-5.37,-35.86,FALSE
EOL.CV.RN.030504-9.01,2017-01-01,30,652,RNCEE3,EURUS III,NE,-5.4,-35.87,FALSE
EOL.CV.RN.030505-7.01,2017-01-01,27,653,RNEAB1,Asa Branca I,NE,-5.23,-35.83,FALSE
EOL.CV.RN.030507-3.01,2017-01-01,32,654,RNEAB5,Asa Branca V,NE,-5.38,-36.01,FALSE
EOL.CV.RN.030508-1.01,2017-01-01,32,655,RNEAB8,Asa Branca VIII,NE,-5.28,-35.98,FALSE
EOL.CV.RN.030509-0.01,2017-01-01,27,656,RNEEU4,Eurus IV,NE,-5.26,-35.81,FALSE
EOL.CV.RN.030511-1.01,2017-01-01,30,657,RNUEG1,Calango 1,NE,-6.03,-36.54,FALSE
EOL.CV.RN.030512-0.01,2017-01-01,14,658,RNUEBV,DREEN BOA VISTA,NE,-5.11,-35.93,FALSE
EOL.CV.RN.030513-8.01,2017-01-01,32,659,RNEAB7,Asa Branca VII,NE,-5.25,-35.94,FALSE
EOL.CV.RN.030514-6.01,2017-01-01,30,660,RNEVSM,VENTOS DE SÃO MIGUEL,NE,-5.28,-35.88,FALSE
EOL.CV.RN.030515-4.01,2017-01-01,30,661,RNEPR1,RENASCENÇA I,NE,-5.3,-35.87,FALSE
EOL.CV.RN.030516-2.01,2017-01-01,30,662,RNEPR2,RENASCENÇA II,NE,-5.31,-35.89,FALSE
EOL.CV.RN.030519-7.01,2017-01-01,30,663,RNUEG2,Calango 2,NE,-6.02,-36.48,FALSE
EOL.CV.RN.030520-0.01,2017-01-01,32,664,RNEAB6,Asa Branca VI,NE,-5.36,-36,FALSE
EOL.CV.RN.030527-8.01,2017-01-01,30,665,RNEPR3,RENASCENÇA III,NE,-5.3,-35.9,FALSE
EOL.CV.RN.030536-7.01,2017-01-01,30,666,RNUESB,DREEN SÃO BENTO DO NORTE,NE,-5.05,-35.98,FALSE
EOL.CV.RN.030537-5.01,2017-01-01,30,667,RNUEG4,Calango 4,NE,-6.02,-36.47,FALSE
EOL.CV.RN.030545-6.01,2017-01-01,30,668,RNUEG3,Calango 3,NE,-6.05,-36.55,FALSE
EOL.CV.RN.030547-2.01,2017-01-01,27,669,RNEAB2,Asa Branca II,NE,-5.23,-35.88,FALSE
EOL.CV.RN.030548-0.01,2017-01-01,27,670,RNEAB3,Asa Branca III,NE,-5.26,-35.84,FALSE
EOL.CV.RN.030549-9.01,2017-01-01,30,671,RNUEOD,DREEN OLHO D'ÁGUA,NE,-5.05,-35.97,FALSE
EOL.CV.RN.030551-0.01,2017-01-01,30,672,RNEPR4,RENASCENÇA IV,NE,-5.3,-35.92,FALSE
EOL.CV.RN.030552-9.01,2017-01-01,30,673,RNUEG5,Calango 5,NE,-6.03,-36.49,FALSE
EOL.CV.RN.030562-6.01,2017-01-01,22.4,675,RNUEV1,União dos Ventos 1,NE,-5.08,-35.84,FALSE
EOL.CV.RN.030563-4.01,2017-01-01,22.4,676,RNUEV2,União dos Ventos 2,NE,-5.08,-35.83,FALSE
EOL.CV.RN.030564-2.01,2017-01-01,22.4,677,RNUEV3,União dos Ventos 3,NE,-5.08,-35.81,FALSE
EOL.CV.RN.030565-0.01,2017-01-01,11.2,678,RNUEV4,União dos Ventos 4,NE,-5.09,-35.8,FALSE
EOL.CV.RN.030566-9.01,2017-01-01,24,679,RNUEV5,União dos Ventos 5,NE,-5.09,-35.78,FALSE
EOL.CV.RN.030567-7.01,2017-01-01,12.8,680,RNUEV6,União dos Ventos 6,NE,-5.09,-35.77,FALSE
EOL.CV.RN.030568-5.01,2017-01-01,14.4,681,RNUEV7,União dos Ventos 7,NE,-5.1,-35.75,FALSE
EOL.CV.RN.030569-3.01,2017-01-01,14.4,682,RNUEV8,União dos Ventos 8,NE,-5.07,-35.89,FALSE
EOL.CV.RN.030570-7.01,2017-01-01,11.2,683,RNUEV9,União dos Ventos 9,NE,-5.09,-35.89,FALSE
EOL.CV.RN.030571-5.01,2017-01-01,14.4,684,RNUEVX,União dos Ventos 10,NE,-5.11,-35.89,FALSE
EOL.CV.RN.030609-6.01,2017-01-01,30,685,RNESS2,Serra de Santana II,NE,-6.1,-36.58,FALSE
EOL.CV.RN.030615-0.01,2017-01-01,30,686,RNESS3,Serra de Santana III,NE,-6.02,-36.51,FALSE
EOL.CV.RN.030622-3.01,2017-01-01,28,687,RNARIZ,ARIZONA 1,NE,-5.3,-35.38,FALSE
EOL.CV.RN.030625-8.01,2017-01-01,20,688,RNESS1,Serra de Santana I,NE,-6.06,-36.58,FALSE
EOL.CV.RN.030660-6.01,2017-01-01,16.1,689,RNEJUR,JUREMAS,NE,-5.39,-35.85,FALSE
EOL.CV.RN.030661-4.01,2017-01-01,20.7,690,RNEMAC,MACACOS,NE,-5.41,-35.85,FALSE
EOL.CV.RN.030671-1.01,2017-01-01,20.7,691,RNEPEP,PEDRA PRETA,NE,-5.43,-35.85,FALSE
EOL.CV.RN.030672-0.01,2017-01-01,20.7,692,RNECBR,COSTA BRANCA,NE,-5.42,-35.85,FALSE
EOL.CV.RN.030699-1.01,2018-12-01,21,693,RNEGUA,Dreen Guajiru,NE,-5.09,-35.91,FALSE
EOL.CV.RN.030700-9.01,2018-12-01,23.1,694,RNEJAN,GE Jangada,NE,-5.06,-36.01,FALSE
EOL.CV.RN.030700-9.01,2019-04-01,-23.1,694,RNEJAN,GE Jangada,NE,-5.06,-36.01,FALSE
EOL.CV.RN.030700-9.01,2019-04-01,27.3,694,RNEJAN,GE Jangada,NE,-5.06,-36.01,FALSE
EOL.CV.RN.030701-7.01,2018-12-01,23.1,695,RNECUT,Dreen Cutia,NE,-5.1,-35.9,FALSE
EOL.CV.RN.030702-5.01,2018-12-01,14.7,696,RNEMHE,Ge Maria Helena,NE,-5.07,-36.01,FALSE
EOL.CV.RN.030702-5.01,2019-07-01,-14.7,696,RNEMHE,Ge Maria Helena,NE,-5.07,-36.01,FALSE
EOL.CV.RN.030702-5.01,2019-07-01,18.9,696,RNEMHE,Ge Maria Helena,NE,-5.07,-36.01,FALSE
EOL.CV.RN.030702-5.01,2019-08-01,-18.9,696,RNEMHE,Ge Maria Helena,NE,-5.07,-36.01,FALSE
EOL.CV.RN.030702-5.01,2019-08-01,21,696,RNEMHE,Ge Maria Helena,NE,-5.07,-36.01,FALSE
EOL.CV.RN.030702-5.01,2019-09-01,-21,696,RNEMHE,Ge Maria Helena,NE,-5.07,-36.01,FALSE
EOL.CV.RN.030702-5.01,2019-09-01,27.3,696,RNEMHE,Ge Maria Helena,NE,-5.07,-36.01,FALSE
EOL.CV.RN.030787-4.01,2017-01-01,30.55,697,RNUEMP,Modelo I,NE,-5.43,-35.89,FALSE
EOL.CV.RN.030788-2.01,2017-01-01,25.85,698,RNUEMD,Modelo II,NE,-5.41,-35.9,FALSE
EOL.CV.RN.030804-8.01,2017-06-01,27,699,RNESJO,São João,NE,-5.13,-35.65,FALSE
EOL.CV.RN.030828-5.01,2017-01-01,16.2,700,RNESUR,VENTOS DE SANTO URIEL,NE,-5.49,-35.9,FALSE
EOL.CV.RN.030831-5.01,2017-06-01,27,701,RNECNB,Carnaúbas,NE,-5.15,-35.66,FALSE
EOL.CV.RN.030832-3.01,2017-01-01,30,702,RNECAU,CARCARÁ I,NE,-4.94,-36.99,FALSE
EOL.CV.RN.030834-0.01,2017-01-01,29.7,703,RNESHE,SANTA HELENA,NE,-5.47,-35.92,FALSE
EOL.CV.RN.030843-9.01,2017-06-01,27,704,RNERED,Reduto,NE,-5.13,-35.69,FALSE
EOL.CV.RN.030849-8.01,2017-06-01,27,705,RNESCR,Santo Cristo,NE,-5.14,-35.62,FALSE
EOL.CV.RN.030856-0.01,2017-01-01,20,706,RNEPEL,Pelado,NE,-6,-36.44,FALSE
EOL.CV.RN.030860-9.01,2017-01-01,28,707,RNELAN,Lanchinha,NE,-6.14,-36.72,FALSE
EOL.CV.RN.030864-1.01,2017-01-01,29.7,708,RNESMA,SM (Santa Maria),NE,-5.44,-35.92,FALSE
EOL.CV.RN.030870-6.01,2017-01-01,29.7,709,RNUER3,Riachão I,NE,-5.52,-35.43,FALSE
EOL.CV.RN.030871-4.01,2017-01-01,27,710,RNUER2,Riachão II,NE,-5.57,-35.45,FALSE
EOL.CV.RN.030872-2.01,2017-01-01,29.7,711,RNUER1,Riachão VI,NE,-5.54,-35.45,FALSE
EOL.CV.RN.030873-0.01,2017-01-01,29.7,712,RNUER7,Riachão VII,NE,-5.58,-35.46,FALSE
EOL.CV.RN.030874-9.01,2017-01-01,29.7,713,RNUER4,Riachão IV,NE,-5.52,-35.47,FALSE
EOL.CV.RN.030876-5.01,2017-01-01,26,714,RNECP5,Cabeço Preto V,NE,-5.48,-36,FALSE
EOL.CV.RN.030889-7.01,2017-01-01,29.16,715,RNCEM2,MORRO DOS VENTOS II,NE,-5.36,-35.84,FALSE
EOL.CV.RN.030895-1.02,2017-01-01,27,716,RNECA1,Caiçara I,NE,-5,-36.91,FALSE
EOL.CV.RN.030897-8.01,2017-01-01,30,717,RNECAD,CARCARÁ II,NE,-4.95,-37,FALSE
EOL.CV.RN.030898-6.01,2017-01-01,30,718,RNETER,TERRAL,NE,-4.96,-37.04,FALSE
EOL.CV.RN.030900-1.01,2017-01-01,18,719,RNECP6,Cabeço Preto VI,NE,-5.45,-35.95,FALSE
EOL.CV.RN.030902-8.02,2017-01-01,24,720,RNEJU1,Junco I,NE,-5.03,-36.92,FALSE
EOL.CV.RN.030914-1.02,2017-01-01,24,721,RNEJU2,Junco II,NE,-5.03,-36.93,FALSE
EOL.CV.RN.030915-0.02,2017-01-01,18,722,RNECA2,Caiçara II,NE,-4.99,-36.93,FALSE
EOL.CV.RN.030931-1.01,2017-01-01,30,723,RNEBF4,Baixa do Feijão IV,NE,-5.34,-36.04,FALSE
EOL.CV.RN.030932-0.01,2017-01-01,30,724,RNEBF1,Baixa do Feijão I,NE,-5.32,-36.06,FALSE
EOL.CV.RN.030933-8.01,2017-01-01,30,725,RNEBF2,Baixa do Feijão II,NE,-5.37,-36.03,FALSE
EOL.CV.RN.030934-6.01,2017-01-01,30,726,RNEBF3,Baixa do Feijão III,NE,-5.3,-36.04,FALSE
EOL.CV.RN.031015-8.01,2017-01-01,26,727,RNECP3,Cabeço Preto III,NE,-5.4,-35.98,FALSE
EOL.CV.RN.031025-5.01,2017-01-01,18,728,RNEMC1,Macambira I,NE,-6.05,-36.56,FALSE
EOL.CV.RN.031026-3.01,2017-01-01,18,729,RNEMC2,Macambira II,NE,-6.08,-36.53,FALSE
EOL.CV.RN.031069-7.01,2017-01-01,25.2,730,RNECV5,Campo dos Ventos V,NE,-5.29,-35.95,FALSE
EOL.CV.RN.031071-9.01,2017-01-01,25.2,731,RNECV3,Campo dos Ventos III,NE,-5.34,-35.97,FALSE
EOL.CV.RN.031072-7.01,2017-01-01,25.2,732,RNECV1,Campo dos Ventos I,NE,-5.35,-35.94,FALSE
EOL.CV.RN.031372-6.01,2017-01-01,29.4,733,RNEDIM,Ventos de Santo Dimas,NE,-5.23,-35.79,FALSE
EOL.CV.RN.031373-4.01,2017-01-01,29.4,734,RNEBEN,Ventos de São Benedito,NE,-5.23,-35.79,FALSE
EOL.CV.RN.031412-9.01,2017-01-01,14.7,735,RNEMTO,Ventos de São Martinho,NE,-5.28,-35.78,FALSE
EOL.CV.RN.031425-0.01,2017-01-01,27.3,736,RNEURS,Santa Úrsula,NE,-5.29,-35.79,FALSE
EOL.CV.RN.031427-7.01,2017-01-01,29.4,737,RNEMON,Santa Mônica,NE,-5.28,-35.8,FALSE
EOL.CV.RN.031642-3.01,2019-12-01,31.5,738,RNUE15,União dos Ventos 15,NE,-5.28,-35.76,FALSE
EOL.CV.RN.031643-1.01,2018-01-01,18.9,739,RNUE14,União dos Ventos 14,NE,-5.1,-35.85,FALSE
EOL.CV.RN.031643-1.01,2018-02-01,-18.9,739,RNUE14,União dos Ventos 14,NE,-5.1,-35.85,FALSE
EOL.CV.RN.031643-1.01,2018-02-01,21,739,RNUE14,União dos Ventos 14,NE,-5.1,-35.85,FALSE
EOL.CV.RN.031645-8.01,2018-02-01,25.2,740,RNUE12,União dos Ventos 12,NE,-5.09,-35.87,FALSE
EOL.CV.RN.031651-2.01,2018-05-01,26,741,RNECVE,Cabeço Vermelho,NE,-5.51,-36.02,FALSE
EOL.CV.RN.031651-2.01,2019-09-01,-26,741,RNECVE,Cabeço Vermelho,NE,-5.51,-36.02,FALSE
EOL.CV.RN.031651-2.01,2019-09-01,28.6,741,RNECVE,Cabeço Vermelho,NE,-5.51,-36.02,FALSE
EOL.CV.RN.031652-0.01,2019-12-01,28.875,742,RNUE16,União dos Ventos 16,NE,-5.27,-35.77,FALSE
EOL.CV.RN.031665-2.01,2018-05-01,17.6,743,RNECVD,Cabeço Vermelho II,NE,-5.49,-35.99,FALSE
EOL.CV.RN.031665-2.01,2019-09-01,-17.6,743,RNECVD,Cabeço Vermelho II,NE,-5.49,-35.99,FALSE
EOL.CV.RN.031665-2.01,2019-09-01,16.8,743,RNECVD,Cabeço Vermelho II,NE,-5.49,-35.99,FALSE
EOL.CV.RN.031697-0.01,2018-01-01,10.5,744,RNUE13,União dos Ventos 13,NE,-5.09,-35.86,FALSE
EOL.CV.RN.031697-0.01,2018-02-01,-10.5,744,RNUE13,União dos Ventos 13,NE,-5.09,-35.86,FALSE
EOL.CV.RN.031697-0.01,2018-02-01,18.9,744,RNUE13,União dos Ventos 13,NE,-5.09,-35.86,FALSE
EOL.CV.RN.031750-0.01,2017-01-01,24,745,RNEVA5,Vila Amazonas V,NE,-5,-36.95,FALSE
EOL.CV.RN.031757-8.01,2017-01-01,24,746,RNEVP2,Vila Pará II,NE,-5.04,-36.91,FALSE
EOL.CV.RN.031759-4.01,2017-01-01,27,747,RNEVP1,Vila Pará I,NE,-5.04,-36.91,FALSE
EOL.CV.RN.031765-9.01,2017-01-01,24,748,RNEVP3,Vila Pará III,NE,-5.06,-36.91,FALSE
EOL.CV.RN.031801-9.01,2017-12-01,32.9,749,RNEARO,Aroeira,NE,-5.34,-36.11,FALSE
EOL.CV.RN.031802-7.01,2017-12-01,32.9,750,RNEJER,Jerico,NE,-5.37,-36.09,FALSE
EOL.CV.RN.031810-8.01,2017-01-01,30,751,RNESA1,Santana I,NE,-6.03,-36.44,FALSE
EOL.CV.RN.031811-6.01,2017-01-01,24,752,RNESA2,Santana II,NE,-6.07,-36.45,FALSE
EOL.CV.RN.031812-4.01,2017-01-01,30,753,RNUEG6,Calango 6,NE,-6.01,-36.45,FALSE
EOL.CV.RN.031826-4.01,2018-03-01,32.9,754,RNEUBZ,Umbuzeiros,NE,-5.41,-36.08,FALSE
EOL.CV.RN.031887-6.01,2018-03-01,28.2,755,RNEAV1,Aventura I,NE,-5.37,-35.8,FALSE
EOL.CV.RN.032207-5.01,2021-08-01,42,756,RNECM1,UEE CMR_CUMARU 01,NE,-5.15,-35.76,FALSE
EOL.CV.RN.032208-3.01,2021-08-01,21,757,RNECM2,CUMARU II,NE,-5.18,-35.78,FALSE
EOL.CV.RN.032208-3.01,2021-10-01,-21,757,RNECM2,CUMARU II,NE,-5.18,-35.78,FALSE
EOL.CV.RN.032208-3.01,2021-10-01,37.8,757,RNECM2,CUMARU II,NE,-5.18,-35.78,FALSE
EOL.CV.RN.032208-3.01,2021-11-01,-37.8,757,RNECM2,CUMARU II,NE,-5.18,-35.78,FALSE
EOL.CV.RN.032208-3.01,2021-11-01,42,757,RNECM2,CUMARU II,NE,-5.18,-35.78,FALSE
EOL.CV.RN.032209-1.01,2021-10-01,42,758,RNECM3,CUMARU III,NE,-5.13,-35.8,FALSE
EOL.CV.RN.032215-6.01,2017-01-01,25.2,759,RNEDOM,São Domingos,NE,-5.21,-35.82,FALSE
EOL.CV.RN.032352-7.01,2017-12-01,20,760,RNEPRA,Pedra Rajada,NE,-5.91,-36.31,FALSE
EOL.CV.RN.032353-5.01,2017-12-01,20,761,RNEPRD,Pedra Rajada II,NE,-5.89,-36.29,FALSE
EOL.CV.RN.032354-3.01,2018-12-01,27.3,762,RNEENE,Esperança do Nordeste,NE,-5.08,-35.96,FALSE
EOL.CV.RN.032355-1.01,2019-01-01,27.3,763,RNEPVN,Paraíso dos Ventos do Nordeste,NE,-5.08,-35.94,FALSE
EOL.CV.RN.032356-0.01,2018-12-01,21,764,RNEPOT,Potiguar,NE,-5.06,-35.9,FALSE
EOL.CV.RN.032356-0.01,2019-04-01,-21,764,RNEPOT,Potiguar,NE,-5.06,-35.9,FALSE
EOL.CV.RN.032356-0.01,2019-04-01,27.3,764,RNEPOT,Potiguar,NE,-5.06,-35.9,FALSE
EOL.CV.RN.032495-7.01,2021-08-01,10.65,765,RNETS1,TERRA SANTA I,NE,-5.25,-36.05,FALSE
EOL.CV.RN.032495-7.01,2021-09-01,-10.65,765,RNETS1,TERRA SANTA I,NE,-5.25,-36.05,FALSE
EOL.CV.RN.032495-7.01,2021-09-01,17.75,765,RNETS1,TERRA SANTA I,NE,-5.25,-36.05,FALSE
EOL.CV.RN.032495-7.01,2021-10-01,-17.75,765,RNETS1,TERRA SANTA I,NE,-5.25,-36.05,FALSE
EOL.CV.RN.032495-7.01,2021-10-01,31.95,765,RNETS1,TERRA SANTA I,NE,-5.25,-36.05,FALSE
EOL.CV.RN.032495-7.01,2021-11-01,-31.95,765,RNETS1,TERRA SANTA I,NE,-5.25,-36.05,FALSE
EOL.CV.RN.032495-7.01,2021-11-01,60.35,765,RNETS1,TERRA SANTA I,NE,-5.25,-36.05,FALSE
EOL.CV.RN.032501-5.01,2021-06-01,31.95,766,RNETS2,TERRA SANTA II,NE,-5.22,-36.1,FALSE
EOL.CV.RN.033002-7.01,2021-07-01,21,771,RNEAV2,AVENTURA II,NE,-5.32,-35.73,FALSE
EOL.CV.RN.033026-4.01,2021-07-01,25.2,772,RNEAV3,AVENTURA III,NE,-5.32,-35.75,FALSE
EOL.CV.RN.033640-8.01,2019-01-01,23.1,776,RNESB1,São Bento do Norte I,NE,-5.13,-35.93,FALSE
EOL.CV.RN.033642-4.01,2019-01-01,23.1,777,RNESB2,São Bento do Norte II,NE,-5.15,-35.94,FALSE
EOL.CV.RN.033643-2.01,2019-04-01,23.1,778,RNESB3,São Bento do Norte III,NE,-5.07,-36.03,FALSE
EOL.CV.RN.033644-0.01,2019-02-01,21,779,RNESM1,São Miguel I,NE,-5.15,-35.99,FALSE
EOL.CV.RN.033645-9.01,2019-02-01,21,780,RNESM2,São Miguel II,NE,-5.16,-36,FALSE
EOL.CV.RN.033647-5.01,2019-02-01,21,781,RNESM3,São Miguel III,NE,-5.16,-36,FALSE
EOL.CV.RN.033666-1.01,2019-01-01,30.8,782,RNEBE1,Boa Esperança I,NE,-5.53,-35.97,FALSE
EOL.CV.RN.033752-8.01,2017-06-01,27.3,786,RNEVAI,Vila Acre I,NE,-5.06,-37.03,FALSE
EOL.CV.RN.033753-6.01,2019-12-01,31.185,787,RNEVA2,Vila Acre II,NE,-5.04,-37.02,FALSE
EOL.CV.RN.035211-0.01,2021-12-01,29.4,810,RNESR2,SANTA ROSA E MUNDO NOVO II,NE,-5.88,-36.19,FALSE
EOL.CV.RN.036973-0.01,2020-08-01,37.8,817,RNEPI2,Vila Piaui II,NE,-5.1,-37.08,FALSE
EOL.CV.RN.036974-8.01,2020-02-01,10.395,818,RNECE1,Ventos de Vila Ceará I,NE,-5.13,-37.04,FALSE
EOL.CV.RN.036974-8.01,2020-03-01,-10.395,818,RNECE1,Ventos de Vila Ceará I,NE,-5.13,-37.04,FALSE
EOL.CV.RN.036974-8.01,2020-03-01,31.185,818,RNECE1,Ventos de Vila Ceará I,NE,-5.13,-37.04,FALSE
EOL.CV.RN.036975-6.01,2020-07-01,37.8,819,RNEPI1,Vila Piaui I,NE,-5.1,-37.1,FALSE
EOL.CV.RN.036976-4.01,2020-02-01,31.185,820,RNECE2,Ventos de Vila Ceará II,NE,-5.11,-37.04,FALSE
EOL.CV.RN.036979-9.01,2020-07-01,42,822,RNEPI3,Vila Piaui III,NE,-5.1,-37.06,FALSE
EOL.CV.RN.036980-2.01,2020-12-01,31.95,823,RNECEA,VILA CEARA I,NE,-5.1,-37.01,FALSE
EOL.CV.RN.036981-0.01,2020-05-01,34.65,824,RNEPB1,Ventos de Vila Paraiba I,NE,-5.13,-36.98,FALSE
EOL.CV.RN.036984-5.01,2021-06-01,58.905,825,RNEMT1,VENTOS DE VILA MATO GROSSO I  ANTIGA VILA ALAGOAS,NE,-5.17,-37.1,FALSE
EOL.CV.RN.036985-3.01,2020-04-01,34.65,826,RNEPB2,Ventos de Vila Paraíba II,NE,-5.11,-36.98,FALSE
EOL.CV.RN.037020-7.01,2021-10-01,42,827,RNECM4,CUMARU IV,NE,-5.16,-35.78,FALSE
EOL.CV.RN.037021-5.01,2021-10-01,25.2,828,RNECM5,CUMARU V,NE,-5.14,-35.79,FALSE
EOL.CV.RN.037021-5.01,2021-11-01,-25.2,828,RNECM5,CUMARU V,NE,-5.14,-35.79,FALSE
EOL.CV.RN.037021-5.01,2021-11-01,37.8,828,RNECM5,CUMARU V,NE,-5.14,-35.79,FALSE
EOL.CV.RN.037073-8.01,2020-10-01,76.23,829,RNESF1,SAO FERNANDO 1,NE,-5.17,-36.01,FALSE
EOL.CV.RN.037075-4.01,2020-12-01,72.765,830,RNESF2,SAO FERNANDO 2,NE,-5.18,-36.02,FALSE
EOL.CV.RN.037076-2.01,2020-12-01,24.255,831,RNESF3,SAO FERNANDO 3,NE,-5.15,-36.04,FALSE
EOL.CV.RN.037077-0.01,2021-03-01,83.16,832,RNESF4,SAO FERNANDO 4,NE,-5.12,-36.01,FALSE
EOL.CV.RN.037664-7.01,2021-12-01,25.2,840,RNESR5,SANTA ROSA E MUNDO NOVO V,NE,-5.9,-36.2,FALSE
EOL.CV.RN.037949-2.01,2021-07-01,29.4,841,RNEAV4,AVENTURA IV,NE,-5.34,-35.77,FALSE
EOL.CV.RN.037950-6.01,2021-07-01,29.4,842,RNEAV5,AVENTURA V,NE,-5.34,-35.79,FALSE
EOL.CV.RN.037959-0.01,2021-06-01,28.4,843,RNECDU,COSTA DAS DUNAS,NE,-5.23,-35.48,FALSE
EOL.CV.RN.037999-9.01,2021-09-01,24.85,844,RNEFTO,FAROL DE TOUROS,NE,-5.25,-35.5,FALSE
EOL.CV.RN.038002-4.01,2021-07-01,10.65,845,RNEFIB,FIGUEIRA BRANCA,NE,-5.24,-35.46,FALSE
EOL.CV.RN.038006-7.01,2021-08-01,17.75,846,RNEGAM,GAMELEIRA,NE,-5.24,-35.45,FALSE
EOL.CV.RN.038140-3.01,2020-04-01,37.8,848,RNERN2,Vila Rio Grande do Norte II,NE,-5.14,-37.04,FALSE
EOL.CV.RN.038141-1.01,2020-03-01,25.2,849,RNERN1,Vila Rio Grande do Norte I,NE,-5.16,-37.02,FALSE
EOL.CV.RN.038142-0.01,2020-05-01,37.8,850,RNEVS1,Vila Sergipe I,NE,-5.15,-37.06,FALSE
EOL.CV.RN.038143-8.01,2020-05-01,37.8,851,RNEVS2,Vila Sergipe II,NE,-5.16,-37.06,FALSE
EOL.CV.RN.038144-6.01,2020-06-01,16.8,852,RNEVS3,Vila Sergipe III,NE,-5.18,-37.08,FALSE
EOL.CV.RN.038310-4.01,2021-10-01,25.2,853,RNEM01,VENTOS DE SANTA MARTINA 01,NE,-5.73,-35.9,FALSE
EOL.CV.RN.038310-4.01,2021-11-01,-25.2,853,RNEM01,VENTOS DE SANTA MARTINA 01,NE,-5.73,-35.9,FALSE
EOL.CV.RN.038310-4.01,2021-11-01,63,853,RNEM01,VENTOS DE SANTA MARTINA 01,NE,-5.73,-35.9,FALSE
EOL.CV.RN.038318-0.01,2021-06-01,33.6,854,RNEM09,VENTOS DE SANTA MARTINA 09,NE,-5.82,-35.92,FALSE
EOL.CV.RN.038318-0.01,2021-07-01,-33.6,854,RNEM09,VENTOS DE SANTA MARTINA 09,NE,-5.82,-35.92,FALSE
EOL.CV.RN.038318-0.01,2021-07-01,46.2,854,RNEM09,VENTOS DE SANTA MARTINA 09,NE,-5.82,-35.92,FALSE
EOL.CV.RN.038318-0.01,2021-08-01,-46.2,854,RNEM09,VENTOS DE SANTA MARTINA 09,NE,-5.82,-35.92,FALSE
EOL.CV.RN.038318-0.01,2021-08-01,58.8,854,RNEM09,VENTOS DE SANTA MARTINA 09,NE,-5.82,-35.92,FALSE
EOL.CV.RN.038318-0.01,2021-09-01,-58.8,854,RNEM09,VENTOS DE SANTA MARTINA 09,NE,-5.82,-35.92,FALSE
EOL.CV.RN.038318-0.01,2021-09-01,63,854,RNEM09,VENTOS DE SANTA MARTINA 09,NE,-5.82,-35.92,FALSE
EOL.CV.RN.038319-8.01,2021-07-01,29.4,855,RNEM10,VENTOS DE SANTA MARTINA 10,NE,-5.85,-35.94,FALSE
EOL.CV.RN.038319-8.01,2021-08-01,-29.4,855,RNEM10,VENTOS DE SANTA MARTINA 10,NE,-5.85,-35.94,FALSE
EOL.CV.RN.038319-8.01,2021-08-01,63,855,RNEM10,VENTOS DE SANTA MARTINA 10,NE,-5.85,-35.94,FALSE
EOL.CV.RN.038320-1.01,2021-08-01,25.2,856,RNEM11,VENTOS DE SANTA MARTINA 11,NE,-5.78,-35.91,FALSE
EOL.CV.RN.038320-1.01,2021-09-01,-25.2,856,RNEM11,VENTOS DE SANTA MARTINA 11,NE,-5.78,-35.91,FALSE
EOL.CV.RN.038320-1.01,2021-09-01,50.4,856,RNEM11,VENTOS DE SANTA MARTINA 11,NE,-5.78,-35.91,FALSE
EOL.CV.RN.038320-1.01,2021-10-01,-50.4,856,RNEM11,VENTOS DE SANTA MARTINA 11,NE,-5.78,-35.91,FALSE
EOL.CV.RN.038320-1.01,2021-10-01,54.6,856,RNEM11,VENTOS DE SANTA MARTINA 11,NE,-5.78,-35.91,FALSE
EOL.CV.RN.038320-1.01,2021-11-01,-54.6,856,RNEM11,VENTOS DE SANTA MARTINA 11,NE,-5.78,-35.91,FALSE
EOL.CV.RN.038320-1.01,2021-11-01,58.8,856,RNEM11,VENTOS DE SANTA MARTINA 11,NE,-5.78,-35.91,FALSE
EOL.CV.RN.038320-1.01,2021-12-01,-58.8,856,RNEM11,VENTOS DE SANTA MARTINA 11,NE,-5.78,-35.91,FALSE
EOL.CV.RN.038320-1.01,2021-12-01,63,856,RNEM11,VENTOS DE SANTA MARTINA 11,NE,-5.78,-35.91,FALSE
EOL.CV.RN.038321-0.01,2021-09-01,50.4,857,RNEM12,VENTOS DE SANTA MARTINA 12,NE,-5.76,-35.89,FALSE
EOL.CV.RN.038321-0.01,2021-10-01,-50.4,857,RNEM12,VENTOS DE SANTA MARTINA 12,NE,-5.76,-35.89,FALSE
EOL.CV.RN.038321-0.01,2021-10-01,63,857,RNEM12,VENTOS DE SANTA MARTINA 12,NE,-5.76,-35.89,FALSE
EOL.CV.RN.038322-8.01,2021-08-01,33.6,858,RNEM13,VENTOS DE SANTA MARTINA 13,NE,-5.71,-35.89,FALSE
EOL.CV.RN.038322-8.01,2021-09-01,-33.6,858,RNEM13,VENTOS DE SANTA MARTINA 13,NE,-5.71,-35.89,FALSE
EOL.CV.RN.038322-8.01,2021-09-01,46.2,858,RNEM13,VENTOS DE SANTA MARTINA 13,NE,-5.71,-35.89,FALSE
EOL.CV.RN.038322-8.01,2021-10-01,-46.2,858,RNEM13,VENTOS DE SANTA MARTINA 13,NE,-5.71,-35.89,FALSE
EOL.CV.RN.038322-8.01,2021-10-01,67.2,858,RNEM13,VENTOS DE SANTA MARTINA 13,NE,-5.71,-35.89,FALSE
EOL.CV.RN.038323-6.01,2021-11-01,46.2,859,RNEM14,VENTOS DE SANTA MARTINA 14,NE,-5.71,-35.88,FALSE
EOL.CV.RN.038323-6.01,2021-12-01,-46.2,859,RNEM14,VENTOS DE SANTA MARTINA 14,NE,-5.71,-35.88,FALSE
EOL.CV.RN.038323-6.01,2021-12-01,63,859,RNEM14,VENTOS DE SANTA MARTINA 14,NE,-5.71,-35.88,FALSE
EOL.CV.RN.038325-2.01,2021-02-01,31.95,860,RNEMA1,VILA MARANHAO I,NE,-5.07,-36.99,FALSE
EOL.CV.RN.038326-0.01,2021-03-01,31.95,861,RNEMA2,VILA MARANHAO II,NE,-5.05,-36.99,FALSE
EOL.CV.RN.038327-9.01,2020-09-01,7.1,862,RNEMA3,Vila Maranhao III,NE,-5.12,-37,FALSE
EOL.CV.RN.038327-9.01,2020-10-01,-7.1,862,RNEMA3,Vila Maranhao III,NE,-5.12,-37,FALSE
EOL.CV.RN.038327-9.01,2020-10-01,31.95,862,RNEMA3,Vila Maranhao III,NE,-5.12,-37,FALSE
EOL.CV.RN.040594-9.01,2021-11-01,33.6,865,RNEEP1,VILA ESPIRITO SANTO I  ANTIGA POTIGUAR B21,NE,-5.18,-37.11,FALSE
EOL.CV.RN.040598-1.01,2021-12-01,37.8,869,RNEEP5,VILA ESPIRITO SANTO V  ANTIGA POTIGUAR B25,NE,-5.23,-37.13,FALSE
EOL.CV.RN.040600-7.01,2021-04-01,45.045,870,RNEP31,POTIGUAR B 31,NE,-5.26,-37.11,FALSE
EOL.CV.RN.040601-5.01,2021-04-01,24.255,871,RNEP32,POTIGUAR B 32,NE,-5.18,-36.98,FALSE
EOL.CV.RN.040601-5.01,2021-05-01,-24.255,871,RNEP32,POTIGUAR B 32,NE,-5.18,-36.98,FALSE
EOL.CV.RN.040601-5.01,2021-05-01,48.51,871,RNEP32,POTIGUAR B 32,NE,-5.18,-36.98,FALSE
EOL.CV.RN.040602-3.01,2021-06-01,58.905,872,RNEP33,POTIGUAR B 33,NE,-5.26,-37.15,FALSE
EOL.CV.RN.040625-2.01,2021-12-01,33.6,873,RNEJ23,VENTOS DE SAO JANUARIO 23,NE,-5.89,-35.96,FALSE
EOL.CV.RN.046742-1.01,2021-09-01,27.72,881,RNTEB1,TODA ENERGIA DO BRASIL,NE,-5.09,-37.1,FALSE
EOL.CV.RS.028712-1.01,2017-01-01,70,888,RSUECI,CIDREIRA,S,-30.08,-50.17,FALSE
EOL.CV.RS.028810-1.01,2017-01-01,50,889,RSEVSO,Osório,S,-29.96,-50.28,FALSE
EOL.CV.RS.028811-0.01,2017-01-01,50,890,RSEVSS,Sangradouro,S,-29.97,-50.28,FALSE
EOL.CV.RS.028855-1.01,2017-01-01,9.2,891,RSPARQ,PARQUE EOLICO DE PALMARES,S,-30.45,-50.39,FALSE
EOL.CV.RS.028864-0.01,2017-01-01,50,892,RSEVSI,Índios,S,-29.98,-50.28,FALSE
EOL.CV.RS.030286-4.01,2017-01-01,27.6,893,RSEOS2,Osório 2,S,-29.95,-50.25,FALSE
EOL.CV.RS.030330-5.01,2017-01-01,27.6,894,RSEVS3,Sangradouro 3,S,-29.96,-50.32,FALSE
EOL.CV.RS.030334-8.01,2017-01-01,16.1,895,RSFAZD,FAZENDA ROSARIO 3,S,-30.45,-50.42,FALSE
EOL.CV.RS.030343-7.01,2017-01-01,9.2,896,RSFAZE,FAZENDA ROSARIO,S,-30.44,-50.38,FALSE
EOL.CV.RS.030348-8.01,2017-01-01,30,897,RSECC1,Cerro Chato I,S,-30.84,-55.73,FALSE
EOL.CV.RS.030349-6.01,2017-01-01,30,898,RSECC2,Cerro Chato II,S,-30.85,-55.69,FALSE
EOL.CV.RS.030350-0.01,2017-01-01,30,899,RSECC3,Cerro Chato III,S,-30.8,-55.71,FALSE
EOL.CV.RS.030381-0.01,2017-01-01,29.9,900,RSEVS2,Sangradouro 2,S,-29.94,-50.31,FALSE
EOL.CV.RS.030449-2.01,2017-01-01,29.9,901,RSEOS3,Osório 3,S,-29.98,-50.26,FALSE
EOL.CV.RS.030457-3.01,2017-01-01,30,902,RSACA1,Atlântica I,S,-30.32,-50.32,FALSE
EOL.CV.RS.030460-3.01,2017-01-01,11.2,903,RSEP2B,EOL Pontal 2B,S,-30.28,-50.8,FALSE
EOL.CV.RS.030461-1.01,2017-01-01,30,904,RSACA4,Atlântica IV,S,-30.29,-50.34,FALSE
EOL.CV.RS.030462-0.01,2017-01-01,30,905,RSACA2,Atlântica II,S,-30.33,-50.32,FALSE
EOL.CV.RS.030468-9.01,2017-01-01,22,906,RSREB3,REB Cassino III,S,-32.22,-52.2,FALSE
EOL.CV.RS.030469-7.01,2017-01-01,22,907,RSREB1,REB Cassino I,S,-32.22,-52.2,FALSE
EOL.CV.RS.030477-8.01,2017-01-01,20,908,RSREB2,REB Cassino II,S,-32.21,-52.21,FALSE
EOL.CV.RS.030478-6.01,2017-01-01,23,909,RSFAZN,FAZENDA ROSARIO 2,S,-30.43,-50.4,FALSE
EOL.CV.RS.030480-8.01,2017-01-01,30,910,RSACA5,Atlântica V,S,-30.29,-50.31,FALSE
EOL.CV.RS.030734-3.01,2017-01-01,29.9,911,RSEIN2,Índios 2,S,-30,-50.33,FALSE
EOL.CV.RS.030740-8.01,2017-01-01,18,912,RSVC06,Verace VI,S,-33.54,-53.28,FALSE
EOL.CV.RS.030741-6.01,2017-01-01,30,913,RSVC04,Verace IV,S,-33.55,-53.23,FALSE
EOL.CV.RS.030742-4.01,2017-01-01,20,914,RSVC02,Verace II,S,-33.51,-53.28,FALSE
EOL.CV.RS.030745-9.01,2017-01-01,20,915,RSVC01,Verace I,S,-33.5,-53.27,FALSE
EOL.CV.RS.030746-7.01,2017-01-01,26,916,RSVC03,Verace III,S,-33.52,-53.28,FALSE
EOL.CV.RS.030747-5.01,2017-01-01,30,917,RSVC07,Verace VII,S,-33.57,-53.25,FALSE
EOL.CV.RS.030748-3.01,2017-01-01,30,918,RSVC09,Verace IX,S,-33.58,-53.3,FALSE
EOL.CV.RS.030749-1.01,2017-01-01,28,919,RSVC10,Verace X,S,-33.59,-53.27,FALSE
EOL.CV.RS.030750-5.01,2017-01-01,25.2,920,RSEIB1,EOL Ibirapuitã 1,S,-30.77,-55.66,FALSE
EOL.CV.RS.030754-8.01,2017-01-01,22,921,RSCH04,EOL Chuí IV,S,-33.67,-53.42,FALSE
EOL.CV.RS.030755-6.01,2017-01-01,26,922,RSVC08,Verace VIII,S,-33.55,-53.31,FALSE
EOL.CV.RS.030760-2.01,2017-01-01,30,924,RSCH05,EOL Chuí V,S,-33.67,-53.42,FALSE
EOL.CV.RS.030767-0.01,2017-01-01,24,926,RSCH01,EOL Chuí I,S,-33.66,-53.39,FALSE
EOL.CV.RS.030790-4.01,2017-01-01,22,929,RSCH02,EOL Chuí II,S,-33.66,-53.4,FALSE
EOL.CV.RS.030791-2.01,2017-01-01,24,930,RSMN02,Eólica Minuano II,S,-33.72,-53.42,FALSE
EOL.CV.RS.030819-6.01,2017-01-01,27,931,RSCSE3,Corredor Senandes III,S,-32.41,-52.36,FALSE
EOL.CV.RS.030829-3.01,2017-01-01,30,932,RSVC05,Verace V,S,-33.54,-53.3,FALSE
EOL.CV.RS.030833-1.01,2017-01-01,29.7,933,RSVAR1,Vento Aragano,S,-32.42,-52.37,FALSE
EOL.CV.RS.030840-4.01,2017-01-01,29.7,934,RSCSE4,Corredor Senandes IV,S,-32.37,-52.34,FALSE
EOL.CV.RS.030842-0.01,2017-01-01,21.6,935,RSCSE2,Corredor Senandes II,S,-32.39,-52.33,FALSE
EOL.CV.RS.030844-7.01,2017-01-01,22,936,RSMN01,Eólica Minuano I,S,-33.72,-53.4,FALSE
EOL.CV.RS.030894-3.01,2017-01-01,23,937,RSEIN3,Índios 3,S,-29.98,-50.33,FALSE
EOL.CV.RS.030901-0.01,2017-01-01,27,938,RSEP3B,Pontal 3B,S,-30.26,-50.77,FALSE
EOL.CV.RS.031302-5.01,2017-01-01,27.675,939,RSUEXG,XANGRI-LÁ,S,-29.78,-50.07,FALSE
EOL.CV.RS.031302-5.01,2020-04-01,-27.675,939,RSUEXG,XANGRI-LÁ,S,-29.78,-50.07,FALSE
EOL.CV.RS.031302-5.01,2020-04-01,27.9,939,RSUEXG,XANGRI-LÁ,S,-29.78,-50.07,FALSE
EOL.CV.RS.031302-5.01,2020-12-01,-27.9,939,RSUEXG,XANGRI-LÁ,S,-29.78,-50.07,FALSE
EOL.CV.RS.031302-5.01,2020-12-01,31.7,939,RSUEXG,XANGRI-LÁ,S,-29.78,-50.07,FALSE
EOL.CV.RS.031477-3.01,2017-01-01,8,940,RSEGAL,Galpões,S,-30.88,-55.68,FALSE
EOL.CV.RS.031487-0.01,2017-01-01,30,941,RSECSE,Coxilha Seca,S,-30.89,-55.74,FALSE
EOL.CV.RS.031509-5.01,2017-01-01,21.6,942,RSEP2A,Pontal 2A,S,-30.27,-50.78,FALSE
EOL.CV.RS.031510-9.01,2017-01-01,10,943,RSECIN,Capão do Inglês,S,-30.92,-55.71,FALSE
EOL.CV.RS.031517-6.01,2017-01-01,17.9,944,RSCH09,EOL Chuí 09,S,-33.69,-53.38,FALSE
EOL.CV.RS.031539-7.01,2017-01-01,12.53,945,RSVC35,Verace 35,S,-33.59,-53.36,FALSE
EOL.CV.RS.031541-9.01,2017-01-01,7.16,946,RSVC25,Verace 25,S,-33.64,-53.33,FALSE
EOL.CV.RS.031557-5.01,2017-01-01,17.9,947,RSVC29,Verace 29,S,-33.62,-53.36,FALSE
EOL.CV.RS.031558-3.01,2017-01-01,8.95,948,RSVC31,Verace 31,S,-33.61,-53.33,FALSE
EOL.CV.RS.031559-1.01,2017-01-01,14.32,949,RSVC26,Verace 26,S,-33.65,-53.3,FALSE
EOL.CV.RS.031561-3.01,2017-01-01,19.69,950,RSVC24,Verace 24,S,-33.64,-53.31,FALSE
EOL.CV.RS.031578-8.01,2017-01-01,12.53,951,RSVC28,Verace 28,S,-33.63,-53.35,FALSE
EOL.CV.RS.031600-8.01,2017-01-01,16.11,952,RSVC27,Verace 27,S,-33.65,-53.32,FALSE
EOL.CV.RS.031601-6.01,2017-01-01,14.32,953,RSVC34,Verace 34,S,-33.56,-53.35,FALSE
EOL.CV.RS.031602-4.01,2017-01-01,17.9,954,RSVC30,Verace 30,S,-33.61,-53.34,FALSE
EOL.CV.RS.031610-5.01,2017-01-01,21.48,955,RSVC36,Verace 36,S,-33.6,-53.37,FALSE
EOL.CV.RS.031646-6.01,2017-05-01,15,956,RSAG13,Aura Mangueira XIII,S,-33.12,-52.9,FALSE
EOL.CV.RS.031647-4.01,2017-03-01,18,957,RSAG15,Aura Mangueira XV,S,-33.16,-52.89,FALSE
EOL.CV.RS.031653-9.01,2017-06-01,15,958,RSAG12,Aura Mangueira XII,S,-33.1,-52.88,FALSE
EOL.CV.RS.031663-6.01,2017-02-01,15,959,RSAR04,Aura Mirim IV,S,-33.21,-52.93,FALSE
EOL.CV.RS.031696-2.01,2017-09-01,27,960,RSAG06,Aura Mangueira VI,S,-33.05,-52.86,FALSE
EOL.CV.RS.031699-7.01,2017-07-01,9,961,RSAR08,Aura Mirim VIII,S,-33.09,-52.9,FALSE
EOL.CV.RS.031700-4.01,2017-09-01,21,962,RSAG04,Aura Mangueira IV,S,-33.07,-52.86,FALSE
EOL.CV.RS.031701-2.01,2017-07-01,9,963,RSAR06,Aura Mirim VI,S,-33.1,-52.86,FALSE
EOL.CV.RS.031705-5.01,2017-07-01,15,964,RSAG17,Aura Mangueira XVII,S,-33.1,-52.84,FALSE
EOL.CV.RS.031719-5.01,2017-02-01,9,965,RSAG11,Aura Mangueira XI,S,-33.18,-52.92,FALSE
EOL.CV.RS.031805-1.01,2017-01-01,24,966,RSAG07,Aura Mangueira VII,S,-33.18,-52.93,FALSE
EOL.CV.RS.031806-0.01,2017-01-01,30,967,RSAR02,Aura Mirim II,S,-33.14,-52.91,FALSE
EOL.CV.SC.028793-8.01,2017-01-01,9,970,SCEOLI,AGUA DOCE,S,-26.58,-51.68,FALSE
EOL.CV.SC.029051-3.01,2017-01-01,30,971,SCUPPT,Púlpito,S,-28.47,-49.61,FALSE
EOL.CV.SC.029052-1.01,2017-01-01,30,972,SCEABA,Aquibatã,S,-26.59,-51.75,FALSE
EOL.CV.SC.029053-0.01,2017-01-01,3,973,SCUSTO,SANTO ANTONIO,S,-28.45,-49.59,FALSE
EOL.CV.SC.029054-8.01,2017-01-01,6,974,SCECCA,Cascata,S,-26.59,-51.74,FALSE
EOL.CV.SC.029055-6.01,2017-01-01,30,975,SCUROU,Rio do Ouro,S,-28.45,-49.61,FALSE
EOL.CV.SC.029056-4.01,2017-01-01,30,976,SCESTO,Salto,S,-26.59,-51.81,FALSE
EOL.CV.SC.029062-9.01,2017-01-01,30,977,SCUBJD,Bom Jardim,S,-28.44,-49.57,FALSE
EOL.CV.SC.029065-3.01,2017-01-01,10.5,978,SCECBO,Campo Belo,S,-26.61,-51.74,FALSE
EOL.CV.SC.029069-6.01,2017-01-01,22.5,979,SCEAMO,Amparo,S,-26.62,-51.57,FALSE
EOL.CV.SC.029070-0.01,2017-01-01,30,980,SCECAL,Cruz Alta,S,-26.6,-51.73,FALSE
EOL.CV.SC.032016-1.01,2017-01-01,2.099,981,SCTUBA,TUBARAO P&D,S,-28.48,-49.03,FALSE
EOL.CV.SE.030296-1.01,2017-01-01,34.5,982,SEBARR,BARRA DOS COQUEIROS,NE,-10.81,-36.92,FALSE
EOL.CV.NE.999999-9.01,2022-01-01,402.025068769006,983,XXXXX1,dummy_001,NE,-12.2023374625433,-41.5941335420757,TRUE
EOL.CV.NE.999999-9.02,2022-02-01,347.649993897001,984,XXXXX2,dummy_002,NE,-12.2023374625433,-41.5941335420757,TRUE
EOL.CV.NE.999999-9.03,2022-03-01,78.3600006099987,985,XXXXX3,dummy_003,NE,-12.2023374625433,-41.5941335420757,TRUE
EOL.CV.NE.999999-9.04,2022-04-01,61.2000007630013,986,XXXXX4,dummy_004,NE,-12.2023374625433,-41.5941335420757,TRUE
EOL.CV.NE.999999-9.05,2022-05-01,141.899993896997,987,XXXXX5,dummy_005,NE,-12.2023374625433,-41.5941335420757,TRUE
EOL.CV.NE.999999-9.06,2022-06-01,87.599998474001,988,XXXXX6,dummy_006,NE,-12.2023374625433,-41.5941335420757,TRUE
EOL.CV.NE.999999-9.07,2022-07-01,201.080001831,989,XXXXX7,dummy_007,NE,-12.2023374625433,-41.5941335420757,TRUE
EOL.CV.NE.999999-9.08,2022-08-01,218.149993896001,990,XXXXX8,dummy_008,NE,-12.2023374625433,-41.5941335420757,TRUE
EOL.CV.NE.999999-9.09,2022-09-01,3,991,XXXXX9,dummy_009,NE,-12.2023374625433,-41.5941335420757,TRUE
EOL.CV.NE.999999-9.10,2022-10-01,100.800003052002,992,XXXX1X,dummy_010,NE,-12.2023374625433,-41.5941335420757,TRUE
EOL.CV.NE.999999-9.11,2022-11-01,738.390014648998,993,XXXX11,dummy_011,NE,-12.2023374625433,-41.5941335420757,TRUE
EOL.CV.NE.999999-9.12,2022-12-01,360.859985351002,994,XXXX12,dummy_012,NE,-12.2023374625433,-41.5941335420757,TRUE
EOL.CV.NE.999999-9.13,2023-01-01,-72.5950551890055,995,XXXX13,dummy_013,NE,-12.2023374625433,-41.5941335420757,TRUE
EOL.CV.NE.999999-9.14,2023-02-01,1264.895,996,XXXX14,dummy_014,NE,-12.2023374625433,-41.5941335420757,TRUE
EOL.CV.NE.999999-9.15,2023-03-01,401.400000000001,997,XXXX15,dummy_015,NE,-12.2023374625433,-41.5941335420757,TRUE
EOL.CV.NE.999999-9.16,2023-04-01,268.5,998,XXXX16,dummy_016,NE,-12.2023374625433,-41.5941335420757,TRUE
EOL.CV.NE.999999-9.17,2023-05-01,99,999,XXXX17,dummy_017,NE,-12.2023374625433,-41.5941335420757,TRUE
EOL.CV.NE.999999-9.18,2023-06-01,402,1000,XXXX18,dummy_018,NE,-12.2023374625433,-41.5941335420757,TRUE
EOL.CV.NE.999999-9.19,2023-07-01,380.799999999999,1001,XXXX19,dummy_019,NE,-12.2023374625433,-41.5941335420757,TRUE
EOL.CV.NE.999999-9.20,2023-08-01,361.300000000003,1002,XXXX2X,dummy_020,NE,-12.2023374625433,-41.5941335420757,TRUE
EOL.CV.NE.999999-9.21,2023-09-01,1102.8,1003,XXXX21,dummy_021,NE,-12.2023374625433,-41.5941335420757,TRUE
EOL.CV.NE.999999-9.22,2023-10-01,469.500000000004,1004,XXXX22,dummy_022,NE,-12.2023374625433,-41.5941335420757,TRUE
EOL.CV.NE.999999-9.23,2023-11-01,292.399999999998,1005,XXXX23,dummy_023,NE,-12.2023374625433,-41.5941335420757,TRUE
EOL.CV.NE.999999-9.24,2023-12-01,355.000000000004,1006,XXXX24,dummy_024,NE,-12.2023374625433,-41.5941335420757,TRUE
EOL.CV.NE.999999-9.25,2024-01-01,539.299999999999,1007,XXXX25,dummy_025,NE,-12.2023374625433,-41.5941335420757,TRUE
EOL.CV.NE.999999-9.26,2024-02-01,125.200000000001,1008,XXXX26,dummy_026,NE,-12.2023374625433,-41.5941335420757,TRUE
EOL.CV.NE.999999-9.27,2024-03-01,235.099999999999,1009,XXXX27,dummy_027,NE,-12.2023374625433,-41.5941335420757,TRUE
EOL.CV.NE.999999-9.28,2024-04-01,44.7999999999993,1010,XXXX28,dummy_028,NE,-12.2023374625433,-41.5941335420757,TRUE
EOL.CV.NE.999999-9.29,2024-07-01,289.200000000001,1011,XXXX29,dummy_029,NE,-12.2023374625433,-41.5941335420757,TRUE
EOL.CV.NE.999999-9.30,2024-08-01,243.599999999999,1012,XXXX3X,dummy_030,NE,-12.2023374625433,-41.5941335420757,TRUE
EOL.CV.NE.999999-9.31,2024-09-01,74.4000000000015,1013,XXXX31,dummy_031,NE,-12.2023374625433,-41.5941335420757,TRUE
EOL.CV.NE.999999-9.32,2024-11-01,52,1014,XXXX32,dummy_032,NE,-12.2023374625433,-41.5941335420757,TRUE
EOL.CV.NE.999999-9.33,2025-01-01,58.7999999999993,1015,XXXX33,dummy_033,NE,-12.2023374625433,-41.5941335420757,TRUE
EOL.CV.NE.999999-9.34,2025-07-01,31.8000000000029,1016,XXXX34,dummy_034,NE,-12.2023374625433,-41.5941335420757,TRUE
EOL.CV.NE.999999-9.35,2026-01-01,208.399999999998,1017,XXXX35,dummy_035,NE,-12.2023374625433,-41.5941335420757,TRUE
EOL.CV.S.999999-9.01,2022-01-01,0.000992796999753409,1018,XXXXX1,dummy_001,S,-29.524848133517,-53.4817862195251,TRUE
EOL.CV.S.999999-9.02,2022-02-01,4.19999981000001,1019,XXXXX2,dummy_002,S,-29.524848133517,-53.4817862195251,TRUE
EOL.CV.S.999999-9.03,2023-01-01,4.79900739300024,1020,XXXXX3,dummy_003,S,-29.524848133517,-53.4817862195251,TRUE
