id,codigo,nome,ceg,subsistema,latitude,longitude,coordenadas_aproximadas
1,BAUEMC,Macaúbas,EOL.CV.BA.030283-0.01,NE,-12.35,-42.34,FALSE
2,BAPEDO,PEDRA DO REINO,EOL.CV.BA.030288-0.01,NE,-9.51,-40.88,FALSE
3,BAUENH,Novo Horizonte,EOL.CV.BA.030305-4.01,NE,-12.31,-42.35,FALSE
4,BAUESR,Seabra,EOL.CV.BA.030306-2.01,NE,-12.27,-42.37,FALSE
5,BAUESS,Serra do Salto,EOL.CV.BA.030314-3.01,NE,-14.16,-42.64,FALSE
6,BAUEIH,Ilhéus,EOL.CV.BA.030315-1.01,NE,-13.88,-42.66,FALSE
7,BAUECB,Candiba,EOL.CV.BA.030316-0.01,NE,-14.19,-42.65,FALSE
8,BAUELA,Licínio de Almeida,EOL.CV.BA.030317-8.01,NE,-14.18,-42.65,FALSE
9,BAUENC,Nossa Senhora da Conceição,EOL.CV.BA.030318-6.01,NE,-13.9,-42.68,FALSE
10,BAUEPV,Pajeú do Vento,EOL.CV.BA.030319-4.01,NE,-14.01,-42.63,FALSE
11,BAUEAV,Alvorada,EOL.CV.BA.030320-8.01,NE,-14.19,-42.59,FALSE
12,BAUEIP,Igaporã,EOL.CV.BA.030321-6.01,NE,-13.86,-42.66,FALSE
13,BAUEPT,Planaltina,EOL.CV.BA.030322-4.01,NE,-13.99,-42.64,FALSE
14,BAUEPS,Porto Seguro,EOL.CV.BA.030323-2.01,NE,-13.86,-42.67,FALSE
15,BAUEPD,Pindaí,EOL.CV.BA.030324-0.01,NE,-14.2,-42.66,FALSE
16,BAUEGB,Guanambi,EOL.CV.BA.030328-3.01,NE,-14.2,-42.62,FALSE
17,BAUERV,Rio Verde,EOL.CV.BA.030341-0.01,NE,-14.16,-42.6,FALSE
18,BAUEGP,Guirapá,EOL.CV.BA.030342-9.01,NE,-14.22,-42.64,FALSE
19,BAUET2,Caetité 2,EOL.CV.BA.030437-9.01,NE,-14.19,-42.5,FALSE
20,BAUEPB,Pedra Branca,EOL.CV.BA.030443-3.01,NE,-9.87,-41.1,FALSE
21,BAUET3,Caetité 3,EOL.CV.BA.030448-4.01,NE,-14.22,-42.51,FALSE
22,BAUESG,Sete Gameleiras,EOL.CV.BA.030455-7.01,NE,-9.86,-41.1,FALSE
23,BAUEPL,São Pedro do Lago,EOL.CV.BA.030456-5.01,NE,-9.89,-41.1,FALSE
24,BAUEVN,Ventos do Nordeste,EOL.CV.BA.030476-0.01,NE,-14.12,-42.61,FALSE
25,BAUEDP,Da Prata,EOL.CV.BA.030490-5.01,NE,-13.95,-42.64,FALSE
26,BAUEAR,Dos Araçás,EOL.CV.BA.030495-6.01,NE,-14.13,-42.56,FALSE
27,BAUEMR,Morrão,EOL.CV.BA.030506-5.01,NE,-14.09,-42.68,FALSE
28,BAUETQ,Tanque,EOL.CV.BA.030544-8.01,NE,-14.1,-42.61,FALSE
29,BAUESE,Seraíma,EOL.CV.BA.030546-4.01,NE,-14.15,-42.71,FALSE
30,BAPDR3,PEDRA DO REINO III,EOL.CV.BA.030608-8.01,NE,-9.49,-40.87,FALSE
31,BAUESJ,São Judas,EOL.CV.BA.030725-4.01,NE,-11.66,-41.36,FALSE
32,BAUEPR,Primavera,EOL.CV.BA.030726-2.01,NE,-11.73,-41.37,FALSE
33,BAUECR,Cristal,EOL.CV.BA.030727-0.01,NE,-11.8,-41.39,FALSE
34,BAETEI,Teiu,EOL.CV.BA.030731-9.01,NE,-14.34,-42.59,FALSE
35,BAEANG,Angical,EOL.CV.BA.030732-7.01,NE,-14.35,-42.61,FALSE
36,BAECOQ,Coqueirinho,EOL.CV.BA.030738-6.01,NE,-14.42,-42.63,FALSE
37,BAECAI,Caititu,EOL.CV.BA.030739-4.01,NE,-14.45,-42.64,FALSE
38,BAEINH,Inhambu,EOL.CV.BA.030751-3.01,NE,-14.39,-42.59,FALSE
39,BAECOR,Corrupião,EOL.CV.BA.030752-1.01,NE,-14.29,-42.59,FALSE
40,BAETAM,Tamanduá Mirim,EOL.CV.BA.030753-0.01,NE,-14.38,-42.61,FALSE
41,BAUEMA,Maron,EOL.CV.BA.030768-8.01,NE,-14.09,-42.62,FALSE
42,BAUEPI,Pilões,EOL.CV.BA.030776-9.01,NE,-14.03,-42.62,FALSE
43,BAUEDU,Dourados,EOL.CV.BA.030778-5.01,NE,-13.86,-42.73,FALSE
44,BAUEAT,Ametista,EOL.CV.BA.030779-3.01,NE,-14.13,-42.59,FALSE
45,BAUECE,Caetite,EOL.CV.BA.030792-0.01,NE,-14.47,-42.58,FALSE
46,BAUEPO,Pelourinho,EOL.CV.BA.030793-9.01,NE,-14.53,-42.59,FALSE
47,BAUEJO,Joana,EOL.CV.BA.030801-3.01,NE,-13.92,-42.62,FALSE
48,BAUESP,Serra do Espinhaço,EOL.CV.BA.030802-1.01,NE,-14.5,-42.58,FALSE
49,BAEPGO,Espigão,EOL.CV.BA.030803-0.01,NE,-14.48,-42.59,FALSE
50,BAUEMI,Emiliana,EOL.CV.BA.030807-2.01,NE,-13.91,-42.62,FALSE
51,BAUEBR,Borgo,EOL.CV.BA.030837-4.01,NE,-14.51,-42.59,FALSE
52,BAEVC1,Ventos de Campo Formoso I,EOL.CV.BA.030943-5.01,NE,-10.63,-40.69,FALSE
53,BAUEVA,Ventos da Andorinha,EOL.CV.BA.030944-3.01,NE,-10.58,-40.64,FALSE
54,BAUEVM,Ventos de Morrinhos,EOL.CV.BA.030945-1.01,NE,-10.57,-40.63,FALSE
55,BAUEVS,Ventos do Sertão,EOL.CV.BA.030946-0.01,NE,-10.56,-40.57,FALSE
56,BAUET1,Caetité 1,EOL.CV.BA.030976-1.01,NE,-14.16,-42.48,FALSE
57,BAEVC2,Ventos de Campo Formoso II,EOL.CV.BA.031010-7.01,NE,-10.52,-40.61,FALSE
58,BAESSA,SAO SALVADOR,EOL.CV.BA.031120-0.01,NE,-13.83,-42.64,FALSE
59,BAUEDR,Dois Riachos,EOL.CV.BA.031121-9.01,NE,-11.82,-41.46,FALSE
60,BAEBAU,Baraúnas I,EOL.CV.BA.031335-1.01,NE,-9.89,-41.12,FALSE
61,BAEMBU,Morro Branco I,EOL.CV.BA.031336-0.01,NE,-9.85,-41.06,FALSE
62,BAUEMN,Maniçoba,EOL.CV.BA.031337-8.01,NE,-11.89,-41.46,FALSE
63,BAUEDA,Damascena,EOL.CV.BA.031338-6.01,NE,-11.86,-41.47,FALSE
64,BAEA05,Assuruá V,EOL.CV.BA.031341-6.01,NE,-11.18,-42.71,FALSE
65,BAECTB,Caetité B,EOL.CV.BA.031342-4.01,NE,-14.11,-42.47,FALSE
66,BAEA02,Assuruá II,EOL.CV.BA.031343-2.01,NE,-11.16,-42.67,FALSE
67,BAECTA,Caetité A,EOL.CV.BA.031344-0.01,NE,-14.14,-42.48,FALSE
68,BAEMUS,MUSSAMBÊ,EOL.CV.BA.031352-1.01,NE,-9.86,-41.08,FALSE
69,BAUEEP,Esperança,EOL.CV.BA.031355-6.01,NE,-11.8,-41.39,FALSE
70,BAEA07,Assuruá VII,EOL.CV.BA.031356-4.01,NE,-11.07,-42.68,FALSE
71,BAEABL,ABIL,EOL.CV.BA.031402-1.01,NE,-14.27,-42.54,FALSE
72,BAETAB,TABUA,EOL.CV.BA.031403-0.01,NE,-14.31,-42.57,FALSE
73,BAENGI,ANGICO,EOL.CV.BA.031404-8.01,NE,-13.89,-42.7,FALSE
74,BAEJAB,JABUTICABA,EOL.CV.BA.031405-6.01,NE,-14.32,-42.57,FALSE
75,BAETBQ,TABOQUINHA,EOL.CV.BA.031406-4.01,NE,-13.9,-42.7,FALSE
76,BAEFDS,FOLHA DE SERRA,EOL.CV.BA.031407-2.01,NE,-14.55,-42.58,FALSE
77,BAEJCE,JACARANDA DO CERRADO,EOL.CV.BA.031408-0.01,NE,-14.55,-42.58,FALSE
78,BAECAC,ACACIA,EOL.CV.BA.031418-8.01,NE,-13.91,-42.69,FALSE
79,BAEVAQ,VAQUETA,EOL.CV.BA.031424-2.01,NE,-14.25,-42.55,FALSE
80,BAETE2,Teiú 2,EOL.CV.BA.031431-5.01,NE,-14.44,-42.69,FALSE
81,BAECT2,Caititu 2,EOL.CV.BA.031432-3.01,NE,-14.33,-42.61,FALSE
82,BAECAU,Acauã,EOL.CV.BA.031433-1.01,NE,-14.41,-42.66,FALSE
83,BAEARA,Arapapa,EOL.CV.BA.031434-0.01,NE,-14.43,-42.69,FALSE
84,BAEAN2,Angical 2,EOL.CV.BA.031435-8.01,NE,-14.42,-42.64,FALSE
85,BAECAR,Carcará,EOL.CV.BA.031447-1.01,NE,-14.28,-42.59,FALSE
86,BAECO3,Corrupião 3,EOL.CV.BA.031458-7.01,NE,-14.27,-42.58,FALSE
87,BAECT3,Caititu 3,EOL.CV.BA.031459-5.01,NE,-14.32,-42.61,FALSE
88,BAEPPG,Papagaio,EOL.CV.BA.031511-7.01,NE,-14.48,-42.64,FALSE
89,BAECQ2,Coqueirinho 2,EOL.CV.BA.031518-4.01,NE,-14.5,-42.65,FALSE
90,BAECND,Casa Nova II,EOL.CV.BA.031519-2.01,NE,-9.27,-41.05,FALSE
91,BAECTC,Caetité C,EOL.CV.BA.031523-0.01,NE,-14.11,-42.47,FALSE
92,BAECNT,Casa Nova III,EOL.CV.BA.031524-9.01,NE,-9.31,-41.12,FALSE
93,BAUEVG,Ventos de Guarás I,EOL.CV.BA.031563-0.01,NE,-10.61,-40.65,FALSE
94,BAETM2,Tamanduá Mirim 2,EOL.CV.BA.031606-7.01,NE,-14.46,-42.67,FALSE
95,BAEBCO,Banda de Couro,EOL.CV.BA.031607-5.01,NE,-9.85,-41.05,FALSE
96,BAEBAD,Baraúnas II,EOL.CV.BA.031667-9.01,NE,-9.87,-41.06,FALSE
97,BAEURE,Umburanas 5,EOL.CV.BA.031737-3.01,NE,-10.63,-41.5,FALSE
98,BAEURA,Umburanas 1,EOL.CV.BA.031738-1.01,NE,-10.68,-41.53,FALSE
99,BAEURB,Umburanas 2,EOL.CV.BA.031740-3.01,NE,-10.66,-41.51,FALSE
100,BAEURC,Umburanas 3,EOL.CV.BA.031741-1.01,NE,-10.66,-41.52,FALSE
101,BAEURJ,Umburanas 10,EOL.CV.BA.031742-0.01,NE,-10.71,-41.59,FALSE
102,BAEURI,Umburanas 9,EOL.CV.BA.031743-8.01,NE,-10.72,-41.6,FALSE
103,BAEURK,Umburanas 11,EOL.CV.BA.031744-6.01,NE,-10.71,-41.57,FALSE
104,BAEURM,Umburanas 13,EOL.CV.BA.031752-7.01,NE,-10.67,-41.57,FALSE
105,BAEURO,Umburanas 15,EOL.CV.BA.031754-3.01,NE,-10.62,-41.53,FALSE
106,BAEURP,Umburanas 16,EOL.CV.BA.031755-1.01,NE,-10.59,-41.51,FALSE
107,BAEURR,Umburanas 18,EOL.CV.BA.031756-0.01,NE,-10.6,-41.53,FALSE
108,BAEVB2,VENTOS DA BAHIA II,EOL.CV.BA.031758-6.01,NE,-12.01,-41.44,FALSE
109,BAEVB4,VENTOS DA BAHIA IV,EOL.CV.BA.031770-5.01,NE,-11.98,-41.44,FALSE
110,BAEVB8,VENTOS DA BAHIA VIII,EOL.CV.BA.031771-3.01,NE,-12.03,-41.45,FALSE
111,BAEURF,Umburanas 6,EOL.CV.BA.031796-9.01,NE,-10.66,-41.54,FALSE
112,BAEUR8,Umburanas 8,EOL.CV.BA.031832-9.01,NE,-10.6,-41.5,FALSE
113,BAECR1,Cristalandia I,EOL.CV.BA.032081-1.01,NE,-13.93,-41.56,FALSE
114,BAECR2,Cristalandia II,EOL.CV.BA.032082-0.01,NE,-13.97,-41.55,FALSE
115,BAECR3,Cristalandia  III,EOL.CV.BA.032083-8.01,NE,-14,-41.54,FALSE
116,BAEAMC,AMESCLA,EOL.CV.BA.032090-0.01,NE,-13.84,-42.7,FALSE
117,BAEGEL,ANGELIM,EOL.CV.BA.032091-9.01,NE,-14.04,-42.65,FALSE
118,BAEBAB,BARBATIMAO,EOL.CV.BA.032093-5.01,NE,-13.83,-42.7,FALSE
119,BAECED,CEDRO,EOL.CV.BA.032098-6-01,NE,-14.33,-42.57,FALSE
120,BAEFAC,FACHEIO,EOL.CV.BA.032101-0.01,NE,-13.99,-42.69,FALSE
121,BAEIBM,IMBURANA MACHO,EOL.CV.BA.032102-8.01,NE,-13.86,-42.69,FALSE
122,BAEJAT,JATAI,EOL.CV.BA.032104-4.01,NE,-13.83,-42.69,FALSE
123,BAEJUA,JUAZEIRO,EOL.CV.BA.032106-0.01,NE,-13.84,-42.69,FALSE
124,BAESBU,SABIU,EOL.CV.BA.032108-7.01,NE,-14.02,-42.66,FALSE
125,BAEUMB,UMBUZEIRO,EOL.CV.BA.032111-7.01,NE,-13.98,-42.67,FALSE
126,BAEVLZ,VELLOZIA,EOL.CV.BA.032113-3.01,NE,-14.54,-42.58,FALSE
127,BAEMNN,MANINEIRO,EOL.CV.BA.032245-8.01,NE,-14.02,-42.68,FALSE
128,BAEPDA,PAU D AGUA,EOL.CV.BA.032246-6-01,NE,-14.54,-42.58,FALSE
129,BAEA03,Assuruá III,EOL.CV.BA.032342-0.01,NE,-11.17,-42.68,FALSE
130,BAEA04,Assuruá IV,EOL.CV.BA.032343-8.01,NE,-11.05,-42.69,FALSE
131,BAECA3,Capoeiras III,EOL.CV.BA.032344-6.01,NE,-11.18,-42.74,FALSE
132,BAECP1,Curral de Pedras I,EOL.CV.BA.032345-4.01,NE,-11.13,-42.65,FALSE
133,BAECP2,Curral de Pedras II,EOL.CV.BA.032346-2.01,NE,-11.21,-42.7,FALSE
134,BAEDI2,Diamante II,EOL.CV.BA.032347-0.01,NE,-11.11,-42.67,FALSE
135,BAEDI3,Diamante III,EOL.CV.BA.032348-9.01,NE,-11.09,-42.68,FALSE
136,BAELA1,Laranjeiras I,EOL.CV.BA.032349-7.01,NE,-11.12,-42.68,FALSE
137,BAELA5,Laranjeiras V,EOL.CV.BA.032351-9.01,NE,-11.12,-42.67,FALSE
138,BAEDF1,Delfina I,EOL.CV.BA.032357-8.01,NE,-10.06,-40.98,FALSE
139,BAEDF2,Delfina II,EOL.CV.BA.032358-6.01,NE,-10.04,-40.96,FALSE
140,BAEDF5,Delfina V,EOL.CV.BA.032359-4.01,NE,-10.02,-40.93,FALSE
141,BAEMLG,MULUNGU,EOL.CV.BA.032362-4.01,NE,-14.01,-42.67,FALSE
142,BAEPSA,PAU SANTO,EOL.CV.BA.032363-2.01,NE,-14.1,-42.03,FALSE
143,BAEQUN,QUINA,EOL.CV.BA.032364-0.01,NE,-13.98,-42.68,FALSE
144,BAMBD,MORRO BRANCO II,EOL.CV.BA.032417-5.01,NE,-9.84,-41.04,FALSE
145,BAEB02,Serra da Babilônia II,EOL.CV.BA.032462-0.01,NE,-11.1,-41.31,FALSE
146,BAEB9,Serra da Babilônia IX,EOL.CV.BA.032465-5.01,NE,-11.09,-41.32,FALSE
147,BAEB06,Serra da Babilônia VI,EOL.CV.BA.032466-3.01,NE,-11.05,-41.33,FALSE
148,BAEB07,Serra da Babilônia VII,EOL.CV.BA.032467-1.01,NE,-11.06,-41.32,FALSE
149,BAEB08,Serra da Babilônia VIII,EOL.CV.BA.032468-0.01,NE,-11.08,-41.3,FALSE
150,BAEB10,Serra da Babilônia X,EOL.CV.BA.032469-8.01,NE,-11.07,-41.32,FALSE
151,BAEB11,Serra da Babilônia XI,EOL.CV.BA.032470-1.01,NE,-11.08,-41.32,FALSE
152,BAEB12,Serra Da Babilônia XII,EOL.CV.BA.032471-0.01,NE,-11.1,-41.32,FALSE
153,BAEIM2,INHAMBU 2,EOL.CV.BA.032487-6.01,NE,-14.45,-42.65,FALSE
154,BAEDF3,Delfina III,EOL.CV.BA.032521-0.01,NE,-10,-40.93,FALSE
155,BAEDF4,Delfina IV,EOL.CV.BA.032522-8.01,NE,-10.07,-40.98,FALSE
156,BAEDF6,Delfina VI,EOL.CV.BA.032523-6.01,NE,-10.03,-40.95,FALSE
157,BAEDF7,Delfina VII,EOL.CV.BA.032524-4.01,NE,-9.99,-40.91,FALSE
158,BAEB01,Ventos da Bahia I,EOL.CV.BA.032526-0.01,NE,-11.99,-41.53,FALSE
159,BAEB03,Ventos da Bahia III,EOL.CV.BA.032527-9.01,NE,-11.97,-41.52,FALSE
160,BAEB09,Ventos da Bahia IX,EOL.CV.BA.032531-7.01,NE,-11.99,-41.49,FALSE
161,BAEB13,VENTOS DA BAHIA XIII,EOL.CV.BA.032535-0.01,NE,-12.14,-41.49,FALSE
162,BAEB14,VENTOS DA BAHIA XIV,EOL.CV.BA.032536-8.01,NE,-12.05,-41.43,FALSE
163,BATU02,TUCANO II,EOL.CV.BA.032567-8.01,NE,-11.19,-38.78,FALSE
164,BATU03,TUCANO III,EOL.CV.BA.032568-6.01,NE,-11.32,-38.8,FALSE
165,BATU04,TUCANO IV,EOL.CV.BA.032569-4.01,NE,-11.42,-38.81,FALSE
166,BATU06,TUCANO VI,EOL.CV.BA.032578-3.01,NE,-11.22,-38.79,FALSE
167,BATU07,TUCANO VII,EOL.CV.BA.032579-1.01,NE,-11.25,-38.81,FALSE
168,BATU08,TUCANO VIII,EOL.CV.BA.032580-5.01,NE,-11.28,-38.79,FALSE
169,BATU10,TUCANO X,EOL.CV.BA.032584-8.01,NE,-11.29,-38.8,FALSE
170,BASJ04,VENTOS DE SAO JANUARIO 4,EOL.CV.BA.032641-0.01,NE,-10.38,-40.45,FALSE
171,BAJA15,VENTOS DE SAO JANUARIO 15,EOL.CV.BA.032642-9.01,NE,-11.08,-41.27,FALSE
172,BASJ05,VENTOS DE SAO JANUARIO 05,EOL.CV.BA.032644-5.01,NE,-10.28,-40.43,FALSE
173,BAEBVT,Boa Vista da Lagoinha,EOL.CV.BA.032759-0.01,NE,-11.76,-41.39,FALSE
174,BAESTA,Ventos do Santo Abraão,EOL.CV.BA.032884-7.01,NE,-11.62,-41.35,FALSE
175,BASJ01,Ventos de Sao Januario,EOL.CV.BA.033508-8.01,NE,-10.32,-40.43,FALSE
176,BASJ03,Ventos de Sao Januario 03,EOL.CV.BA.033521-5.01,NE,-10.31,-40.44,FALSE
177,BASJ06,VENTOS DE SAO JANUARIO 06,EOL.CV.BA.033523-1.01,NE,-10.41,-40.46,FALSE
178,BASJ10,VENTOS DE SAO JANUARIO 10,EOL.CV.BA.033529-0.01,NE,-5.15,-36.04,FALSE
179,BASJ11,VENTOS DE SAO JANUARIO 11,EOL.CV.BA.033530-4.01,NE,-10.44,-41.57,FALSE
180,BASJ13,VENTOS DE SAO JANUARIO 13,EOL.CV.BA.033532-0.01,NE,-10.34,-40.44,FALSE
181,BASJ14,VENTOS DE SAO JANUARIO 14,EOL.CV.BA.033533-9.01,NE,-10.36,-40.44,FALSE
182,BAJA16,VENTOS DE SAO JANUARIO 16,EOL.CV.BA.033547-9.01,NE,-11.1,-41.28,FALSE
183,BAJA17,VENTOS DE SAO JANUARIO 17,EOL.CV.BA.033548-7.01,NE,-11.13,-41.29,FALSE
184,BAJA18,VENTOS DE SAO JANUARIO 18,EOL.CV.BA.033549-5.01,NE,-11.13,-41.3,FALSE
185,BAELA3,Laranjeiras III,EOL.CV.BA.033626-2.01,NE,-11.03,-42.63,FALSE
186,BAELA9,Laranjeiras IX,EOL.CV.BA.033627-0.01,NE,-11.08,-42.62,FALSE
187,BAECLC,Campo Largo III,EOL.CV.BA.033628-9.01,NE,-10.5,-41.54,FALSE
188,BAECLD,Campo Largo IV,EOL.CV.BA.033629-7.01,NE,-10.49,-41.51,FALSE
189,BAECLE,Campo Largo V,EOL.CV.BA.033630-0.01,NE,-10.42,-41.43,FALSE
190,BAECLF,Campo Largo VI,EOL.CV.BA.033631-9.01,NE,-10.42,-41.4,FALSE
191,BAECLG,Campo Largo VII,EOL.CV.BA.033632-7.01,NE,-10.52,-41.49,FALSE
192,BAECLU,Campo Largo XXI,EOL.CV.BA.033633-5.01,NE,-10.45,-41.45,FALSE
193,BAEURQ,Umburanas 17,EOL.CV.BA.033634-3.01,NE,-10.71,-41.61,FALSE
194,BAEURS,Umburanas 19,EOL.CV.BA.033635-1.01,NE,-10.68,-41.61,FALSE
195,BAEURU,Umburanas 21,EOL.CV.BA.033636-0.01,NE,-10.66,-41.6,FALSE
196,BAEURW,Umburanas 23,EOL.CV.BA.033637-8.01,NE,-10.64,-41.61,FALSE
197,BAEURY,Umburanas 25,EOL.CV.BA.033639-4.01,NE,-10.65,-41.58,FALSE
198,BAESTD,Ventos da Santa Dulce,EOL.CV.BA.033648-3.01,NE,-11.6,-41.33,FALSE
199,BAESTE,Ventos da Santa Esperança,EOL.CV.BA.033649-1.01,NE,-11.6,-41.31,FALSE
200,BAESMR,Ventos do São Mário,EOL.CV.BA.033650-5.01,NE,-11.59,-41.23,FALSE
201,BAESPL,Ventos do São Paulo,EOL.CV.BA.033652-1.01,NE,-11.57,-41.3,FALSE
202,BAES15,VENTOS DE SANTA ESPERANCA 15,EOL.CV.BA.034507-5.01,NE,-11.55,-41.3,FALSE
203,BAES16,VENTOS DE SANTA ESPERANCA 16,EOL.CV.BA.034508-3.01,NE,-11.51,-41.27,FALSE
204,BAES17,VENTOS DE SANTA ESPERANCA 17,EOL.CV.BA.034509-1.01,NE,-11.5,-41.29,FALSE
205,BAES21,VENTOS DE SANTA ESPERANCA 21,EOL.CV.BA.034511-3.01,NE,-11.55,-41.28,FALSE
206,BAES22,VENTOS DE SANTA ESPERANCA 22,EOL.CV.BA.034512-1.01,NE,-11.52,-41.27,FALSE
207,BAES25,VENTOS DE SANTA ESPERANCA 25,EOL.CV.BA.034513-0.01,NE,-11.59,-41.33,FALSE
208,BAES26,VENTOS DE SANTA ESPERANCA 26,EOL.CV.BA.034514-8.01,NE,-11.53,-41.32,FALSE
209,BAECLA,Campo Largo I,EOL.CV.BA.034613-6.01,NE,-10.47,-41.49,FALSE
210,BAEC08,CAMPO LARGO VIII,EOL.CV.BA.034614-4.01,NE,-10.46,-41.39,FALSE
211,BAEC13,CAMPO LARGO XIII,EOL.CV.BA.034622-5.01,NE,-10.4,-41.49,FALSE
212,BAEC12,CAMPO LARGO XII,EOL.CV.BA.034623-3.01,NE,-10.4,-41.44,FALSE
213,BAEC11,CAMPO LARGO XI,EOL.CV.BA.034625-0.01,NE,-10.4,-41.44,FALSE
214,BAEC10,CAMPO LARGO X,EOL.CV.BA.034630-6.01,NE,-10.5,-41.48,FALSE
215,BAEC09,CAMPO LARGO IX,EOL.CV.BA.034631-4.01,NE,-10.46,-41.39,FALSE
216,BAECLB,Campo Largo II,EOL.CV.BA.034633-0.01,NE,-10.51,-41.45,FALSE
217,BAEC14,CAMPO LARGO XIV,EOL.CV.BA.034634-9.01,NE,-10.44,-41.5,FALSE
218,BAECLO,Campo Largo XV,EOL.CV.BA.034636-5.01,NE,-10.51,-41.45,FALSE
219,BAECLP,Campo Largo XVI,EOL.CV.BA.034637-3.01,NE,-10.44,-41.47,FALSE
220,BAEC17,CAMPO LARGO XVII,EOL.CV.BA.034638-1.01,NE,-10.46,-41.51,FALSE
221,BAECLR,Campo Largo XVIII,EOL.CV.BA.034643-8.01,NE,-10.44,-41.5,FALSE
222,BAEC19,CAMPO LARGO XIX,EOL.CV.BA.034645-4.01,NE,-10.44,-41.57,FALSE
223,BAEC20,CAMPO LARGO XX,EOL.CV.BA.034647-0.01,NE,-10.48,-41.57,FALSE
224,BAEC22,CAMPO LARGO XXII,EOL.CV.BA.034648-9.01,NE,-10.5,-41.61,FALSE
225,BASV03,VENTOS DE SAO VITOR 3,EOL.CV.BA.034655-1.01,NE,-10.93,-42.55,FALSE
226,BASV04,VENTOS DE SAO VITOR 4,EOL.CV.BA.034656-0.01,NE,-10.94,-42.56,FALSE
227,BASV10,VENTOS DE SAO VITOR 10,EOL.CV.BA.034657-8.01,NE,-10.95,-42.53,FALSE
228,BASV11,VENTOS DE SAO VITOR 11,EOL.CV.BA.034658-6.01,NE,-10.93,-42.54,FALSE
229,BASV12,VENTOS DE SAO VITOR 12,EOL.CV.BA.034659-4.01,NE,-10.99,-42.52,FALSE
230,BASV14,VENTOS DE SAO VITOR 14,EOL.CV.BA.034660-8.01,NE,-10.99,-42.5,FALSE
231,BAES08,VENTOS DE SANTA ESPERANCA 08,EOL.CV.BA.034661-6.01,NE,-11.58,-41.37,FALSE
232,BAES13,VENTOS DE SANTA ESPERANCA 13,EOL.CV.BA.034692-6.01,NE,-11.58,-41.35,FALSE
233,BAESEM,Ventos de Santa Emília,EOL.CV.BA.034717-5.01,NE,-11.01,-41.23,FALSE
234,BAESAC,Ventos de Santa Aparecida,EOL.CV.BA.034736-1.01,NE,-10.91,-41.22,FALSE
235,BAESBE,Ventos da Santa Beatriz,EOL.CV.BA.034738-8.01,NE,-10.94,-41.23,FALSE
236,BAESGA,Ventos do São Gabriel,EOL.CV.BA.034739-6.01,NE,-10.96,-41.23,FALSE
237,BAESAU,Ventos de Santa Aurora,EOL.CV.BA.034742-6.01,NE,-10.98,-41.22,FALSE
238,BAPEDD,PEDRA DO REINO IV,EOL.CV.BA.034777-9.01,NE,-9.5,-40.91,FALSE
239,BASV01,VENTOS DE SAO VITOR 1,EOL.CV.BA.034809-0.01,NE,-10.9,-42.54,FALSE
240,BASV02,VENTOS DE SAO VITOR 2,EOL.CV.BA.034811-2.01,NE,-10.91,-42.55,FALSE
241,BASV05,VENTOS DE SAO VITOR 5,EOL.CV.BA.034829-5.01,NE,-10.96,-42.56,FALSE
242,BASV06,VENTOS DE SAO VITOR 6,EOL.CV.BA.034830-9.01,NE,-10.97,-42.56,FALSE
243,BASV07,VENTOS DE SAO VITOR 7,EOL.CV.BA.034838-4.01,NE,-10.99,-42.56,FALSE
244,BASV08,VENTOS DE SAO VITOR 8,EOL.CV.BA.034848-1.01,NE,-10.99,-42.54,FALSE
245,BASV09,VENTOS DE SAO VITOR 9,EOL.CV.BA.034849-0.01,NE,-10.97,-42.54,FALSE
246,BASV13,VENTOS DE SAO VITOR 13,EOL.CV.BA.034850-3.01,NE,-10.98,-42.51,FALSE
247,BAEB18,Ventos da Bahia XVIII,EOL.CV.BA.034883-0.01,NE,-12.02,-41.5,FALSE
248,BAEB27,VENTOS DA BAHIA XXVII,EOL.CV.BA.034889-9.01,NE,-12.08,-41.46,FALSE
249,BAESEF,SERRA DO FOGO,EOL.CV.BA.035222-5.01,NE,-9.8,-41.02,FALSE
250,BAESEV,SERRA DO VENTO,EOL.CV.BA.035229-2.01,NE,-9.81,-41.03,FALSE
251,BAEUMC,UMBURANA DE CHEIRO,EOL.CV.BA.035233-0.01,NE,-9.83,-41.04,FALSE
252,BAEB23,VENTOS DA BAHIA XXIII,EOL.CV.BA.035234-9.01,NE,-12.07,-41.49,FALSE
253,BAEDF8,Zeus II,EOL.CV.BA.035266-7.01,NE,-9.96,-40.88,FALSE
254,BATU16,TUCANO XVI,EOL.CV.BA.036989-6.01,NE,-11.35,-38.8,FALSE
255,BAB20,UEE ARI BARAUNAS XX,EOL.CV.BA.036993-4.01,NE,-9.79,-41.01,FALSE
256,BAEARZ,ARARINHA AZUL,EOL.CV.BA.037001-0.01,NE,-14.41,-42.64,FALSE
257,BAECO2,CORRUPIAO 2,EOL.CV.BA.037019-3.01,NE,-14.41,-42.64,FALSE
258,BAEB0A,SERRA DA BABILONIA A,EOL.CV.BA.037083-5.01,NE,-11.07,-41.29,FALSE
259,BAETE3,TEIU 3,EOL.CV.BA.037093-2.01,NE,-14.4,-42.64,FALSE
260,BAJA19,VENTOS DE SAO JANUARIO 19,EOL.CV.BA.037101-7.01,NE,-12.2023374625433,-41.5941335420757,TRUE
261,BAEJ20,Ventos de Sao Januario 20,EOL.CV.BA.037102-5.01,NE,-10.44,-40.46,FALSE
262,BAEJ21,Ventos de Sao Januario 21,EOL.CV.BA.037103-3.01,NE,-10.43,-40.51,FALSE
263,BAEJ22,Ventos de Sao Januario 22,EOL.CV.BA.037104-1.01,NE,-10.47,-40.52,FALSE
264,BAECNA,CASA NOVA A,EOL.CV.BA.037209-9.01,NE,-9.26,-41.01,FALSE
265,BAB15,BARAUNAS XV,EOL.CV.BA.038031-8.01,NE,-9.75,-40.98,FALSE
266,BABAQ,BARAUNAS IV,EOL.CV.BA.038032-6.01,NE,-9.67,-41.11,FALSE
267,BAVE01,VENTOS DE SANTA EUGENIA 01,EOL.CV.BA.038077-6.01,NE,-11.39,-42.15,FALSE
268,BAVE02,VENTOS DE SANTA EUGENIA 02,EOL.CV.BA.038078-4.01,NE,-11.37,-42.18,FALSE
269,BAVE03,VENTOS DE SANTA EUGENIA 03,EOL.CV.BA.038079-2.01,NE,-11.41,-42.16,FALSE
270,BAVE05,VENTOS DE SANTA EUGENIA 05,EOL.CV.BA.038081-4.01,NE,-11.45,-42.17,FALSE
271,BAVE06,VENTOS DE SANTA EUGENIA 06,EOL.CV.BA.038082-2.01,NE,-11.49,-42.13,FALSE
272,BAVE07,VENTOS DE SANTA EUGENIA 07,EOL.CV.BA.038083-0.01,NE,-11.38,-42.18,FALSE
273,BAVE10,VENTOS DE SANTA EUGENIA 10,EOL.CV.BA.038086-5.01,NE,-11.5,-42.15,FALSE
274,BAVE11,VENTOS DE SANTA EUGENIA 11,EOL.CV.BA.038087-3.01,NE,-11.44,-42.16,FALSE
275,BAVE12,VENTOS DE SANTA EUGENIA 12,EOL.CV.BA.038088-1.01,NE,-11.43,-42.16,FALSE
276,BAVE13,UEE VSE EUGENIA 13,EOL.CV.BA.038089-0.01,NE,-12.2023374625433,-41.5941335420757,TRUE
277,BAEB0B,SERRA DA BABILONIA B,EOL.CV.BA.040608-2.01,NE,-11.12,-41.32,FALSE
278,BAEB0C,SERRA DA BABILONIA C,EOL.CV.BA.040609-0.01,NE,-3.31,-39.36,FALSE
279,BAEB0D,SERRA DA BABILONIA D,EOL.CV.BA.040610-4.01,NE,-11.14,-41.33,FALSE
280,BAEB0E,SERRA DA BABILONIA E,EOL.CV.BA.040611-2.01,NE,-11.14,-41.33,FALSE
281,BAEB0F,SERRA DA BABILONIA F,EOL.CV.BA.040612-0.01,NE,-6.55,-35.01,FALSE
282,BAOI21,OITIS 21,EOL.CV.BA.044360-3.01,NE,-9.05,-41.71,FALSE
283,BAOI22,OITIS 22,EOL.CV.BA.044361-1.01,NE,-9.07,-41.71,FALSE
284,BAAR01,AROEIRA 1,EOL.CV.BA.044940-7.01,NE,-12.2023374625433,-41.5941335420757,TRUE
285,BAAR02,AROEIRA 2,EOL.CV.BA.044947-4.01,NE,-12.2023374625433,-41.5941335420757,TRUE
286,BAAR03,AROEIRA 3,EOL.CV.BA.044948-2.01,NE,-12.2023374625433,-41.5941335420757,TRUE
287,BAAR04,AROEIRA 4,EOL.CV.BA.044949-0.01,NE,-12.2023374625433,-41.5941335420757,TRUE
288,BAAR05,UEE AR05,EOL.CV.BA.044950-4.01,NE,-12.2023374625433,-41.5941335420757,TRUE
289,BAAR06,AROEIRA 6,EOL.CV.BA.044951-2.01,NE,-12.2023374625433,-41.5941335420757,TRUE
290,BAAR07,AROEIRA 7,EOL.CV.BA.044952-0.01,NE,-12.2023374625433,-41.5941335420757,TRUE
291,BAAR08,UEE AR08,EOL.CV.BA.044953-9.01,NE,-12.2023374625433,-41.5941335420757,TRUE
292,BACAN1,CANUDOS I,EOL.CV.BA.046757-0.01,NE,-10.19,-38.78,FALSE
293,BACAN2,CANUDOS II,EOL.CV.BA.046758-8.01,NE,-10.15,-38.77,FALSE
294,BAEA41,ASSURUÁ 4 I,EOL.CV.BA.050463-7.01,NE,-11.02,-42.64,FALSE
295,BAEA42,ASSURUÁ 4 II,EOL.CV.BA.050464-5.01,NE,-11.03,-42.61,FALSE
296,BAEA43,ASSURUÁ 4 III,EOL.CV.BA.050465-3.01,NE,-11.06,-42.63,FALSE
297,BAEA44,ASSURUÁ 4 IV,EOL.CV.BA.050466-1.01,NE,-11.08,-42.62,FALSE
298,BAEA45,ASSURUÁ 4 V,EOL.CV.BA.050467-0.01,NE,-11.1,-42.62,FALSE
299,BAEA46,ASSURUÁ 4 VI,EOL.CV.BA.050468-8.01,NE,-11.06,-42.6,FALSE
300,BAEA51,ASSURUÁ 4 I,EOL.CV.BA.051784-4.01,NE,-11.02,-42.64,FALSE
301,CEEOPR,EOLICA DE PRAINHA,EOL.CV.CE.002142-3.01,NE,-3.87,-38.38,FALSE
302,CETAIA,TAIBA,EOL.CV.CE.002801-0.01,NE,-3.49,-38.93,FALSE
303,CEBBR,EOL BEBERIBE,EOL.CV.CE.028174-3.01,NE,-4.19,-38.08,FALSE
304,CEMUCU,MUCURIPE,EOL.CV.CE.028375-4.01,NE,-14.25,-42.55,FALSE
305,CEUEPM,Praia do Morgado,EOL.CV.CE.028440-8.01,NE,-2.82,-40.23,FALSE
306,CEUEVR,Volta do Rio,EOL.CV.CE.028441-6.01,NE,-2.85,-39.97,FALSE
307,CEFRC,EOL RIO CHORO,EOL.CV.CE.028630-3.01,NE,-4.13,-38.15,FALSE
308,CEUFM,Praia de Formosa,EOL.CV.CE.028631-1.01,NE,-2.91,-41.04,FALSE
309,CEEOLI,CANOA QUEBRADA,EOL.CV.CE.028649-4.01,NE,-4.53,-37.69,FALSE
310,CELGMO,LAGOA DO MATO,EOL.CV.CE.028652-4.01,NE,-13.83,-42.64,FALSE
311,CEUCZ,Icaraizinho,EOL.CV.CE.028699-0.01,NE,-3.02,-39.67,FALSE
312,CEPRU,EOL PARACURU,EOL.CV.CE.028706-7.01,NE,-3.43,-38.96,FALSE
313,CEUPRJ,PRAIAS DE PARAJURU,EOL.CV.CE.028724-5.01,NE,-4.36,-37.88,FALSE
314,CEUEEN,Enacel,EOL.CV.CE.028770-9.01,NE,-4.51,-37.76,FALSE
315,CEUECQ,Canoa Quebrada,EOL.CV.CE.028788-1.01,NE,-4.47,-37.76,FALSE
316,CEUEAG,Taíba Águia,EOL.CV.CE.028857-8.01,NE,-3.55,-38.89,FALSE
317,CETAIB,TAIBA ALBATROZ,EOL.CV.CE.028858-6.01,NE,-3.51,-38.91,FALSE
318,CEUEBV,Bons Ventos,EOL.CV.CE.028887-0.01,NE,-4.45,-37.76,FALSE
319,D30278,Araras,EOL.CV.CE.030278-3.01,NE,-2.87,-40,FALSE
320,CEUEBU,Buriti,EOL.CV.CE.030279-1.01,NE,-2.89,-39.98,FALSE
321,D30280,Garças,EOL.CV.CE.030280-5.01,NE,-2.87,-40.03,FALSE
322,CEUECO,Coqueiros,EOL.CV.CE.030282-1.01,NE,-2.89,-39.97,FALSE
323,CEICAR,ICARAI,EOL.CV.CE.030289-9.01,NE,-3.02,-39.62,FALSE
324,D30291,Lagoa Seca,EOL.CV.CE.030291-0.01,NE,-2.82,-40.27,FALSE
325,CEUECJ,Cajucoco,EOL.CV.CE.030294-5.01,NE,-2.92,-39.95,FALSE
326,CEUECL,Colônia,EOL.CV.CE.030295-3.01,NE,-3.54,-38.88,FALSE
327,CEDUNA,DUNAS DE PARACURU,EOL.CV.CE.030299-6.01,NE,-3.43,-38.98,FALSE
328,CEUEFC,Faísa V,EOL.CV.CE.030309-7.01,NE,-3.37,-39.26,FALSE
329,CEUEFQ,Faísa IV,EOL.CV.CE.030329-1.01,NE,-3.32,-39.27,FALSE
330,CEUEFD,Faísa II,EOL.CV.CE.030331-3.01,NE,-3.32,-39.24,FALSE
331,CEUEFT,Faísa III,EOL.CV.CE.030332-1.01,NE,-3.35,-39.27,FALSE
332,CEUEEM,Embuaca,EOL.CV.CE.030336-4.01,NE,-3.21,-39.33,FALSE
333,CEUEFU,Faísa I,EOL.CV.CE.030352-6.01,NE,-3.32,-39.27,FALSE
334,CEUEID,Icaraí II,EOL.CV.CE.030356-9.01,NE,-3.07,-39.6,FALSE
335,CEQUIX,QUIXABA,EOL.CV.CE.030369-0.01,NE,-4.56,-37.68,FALSE
336,CEUEIU,Icaraí I,EOL.CV.CE.030372-0.01,NE,-3.08,-39.59,FALSE
337,CEUEAD,Taíba Andorinha,EOL.CV.CE.030373-9.01,NE,-3.53,-38.9,FALSE
338,CEEVMC,Ventos do Morro do Chapéu,EOL.CV.CE.030582-0.01,NE,-3.85,-41.16,FALSE
339,CEEVTN,Ventos de Tianguá Norte,EOL.CV.CE.030584-7.01,NE,-3.84,-41.18,FALSE
340,CEEVIT,Ventos de Tianguá,EOL.CV.CE.030585-5.01,NE,-3.87,-41.19,FALSE
341,CEEVFO,Vento Formoso,EOL.CV.CE.030595-2.01,NE,-3.86,-41.13,FALSE
342,CEEVPA,Ventos do Parazinho,EOL.CV.CE.030596-0.01,NE,-3.88,-41.16,FALSE
343,CEUEMU,Mundaú,EOL.CV.CE.030656-8.01,NE,-3.19,-39.37,FALSE
344,CEUETR,Trairí,EOL.CV.CE.030662-2.01,NE,-3.22,-39.29,FALSE
345,CEUEGU,Guajirú,EOL.CV.CE.030663-0.01,NE,-3.26,-39.22,FALSE
346,CEUEFL,Fleixeiras I,EOL.CV.CE.030670-3.01,NE,-3.2,-39.36,FALSE
347,CEUEIG,Ilha Grande,EOL.CV.CE.030691-6.01,NE,-3.07,-39.7,FALSE
348,CEUERB,Ribeirão,EOL.CV.CE.030695-9.01,NE,-3.1,-39.68,FALSE
349,CEUEBC,Boca do Córrego,EOL.CV.CE.030697-5.01,NE,-3.1,-39.67,FALSE
350,CEEMAU,Malhadinha I,EOL.CV.CE.030841-2.01,NE,-3.95,-41.12,FALSE
351,CEJAI,Jandaia I,EOL.CV.CE.030907-9.01,NE,-4.41,-37.88,FALSE
352,CEUESJ,São Jorge,EOL.CV.CE.030911-7.01,NE,-3.25,-39.25,FALSE
353,CEUESC,São Cristóvão,EOL.CV.CE.030912-5.01,NE,-3.26,-39.25,FALSE
354,CEUEAP,Santo Antônio de Pádua,EOL.CV.CE.030916-8.01,NE,-3.27,-39.22,FALSE
355,CEEUBA,Ubatuba,EOL.CV.CE.030918-4.01,NE,-4.66,-37.61,FALSE
356,CEEGOB,Goiabeira,EOL.CV.CE.030920-6.01,NE,-4.59,-37.71,FALSE
357,CESJN,São Januário,EOL.CV.CE.030921-4.01,NE,-4.49,-37.8,FALSE
358,CEESCT,Santa Catarina,EOL.CV.CE.030924-9.01,NE,-4.59,-37.68,FALSE
359,CEEVHZ,Ventos de Horizonte,EOL.CV.CE.030925-7.01,NE,-4.62,-37.69,FALSE
360,CEEPTM,Pitombeira,EOL.CV.CE.030926-5.01,NE,-4.6,-37.65,FALSE
361,CESCL,São Clemente,EOL.CV.CE.030927-3.01,NE,-4.41,-37.84,FALSE
362,CEJAN,JANDAIA,EOL.CV.CE.030929-0.01,NE,-4.41,-37.82,FALSE
363,CENSF,Nossa Senhora de Fátima,EOL.CV.CE.030930-3.01,NE,-4.43,-37.87,FALSE
364,CEEIT5,Itarema V,EOL.CV.CE.031482-0.01,NE,-2.97,-39.88,FALSE
365,CEEIT2,Itarema II,EOL.CV.CE.031483-8.01,NE,-2.92,-39.86,FALSE
366,CEEIT3,Itarema III,EOL.CV.CE.031484-6.01,NE,-2.95,-39.84,FALSE
367,CEEIT1,Itarema I,EOL.CV.CE.031485-4.01,NE,-2.92,-39.84,FALSE
368,CEEBC5,Bons Ventos Cacimbas 5,EOL.CV.CE.031579-6.01,NE,-3.92,-41.03,FALSE
369,CEEBC7,Bons Ventos Cacimbas 7,EOL.CV.CE.031611-3.01,NE,-3.86,-41.04,FALSE
370,CEEBC4,Bons Ventos Cacimbas 4,EOL.CV.CE.031621-0.01,NE,-3.93,-41.03,FALSE
371,CEEBC3,Bons Ventos Cacimbas 3,EOL.CV.CE.031627-0.01,NE,-3.86,-41.02,FALSE
372,CEEBC2,Bons Ventos Cacimbas 2,EOL.CV.CE.031644-0.01,NE,-3.89,-41.04,FALSE
373,CEECH2,Pedra Cheirosa II,EOL.CV.CE.031698-9.01,NE,-3.01,-39.73,FALSE
374,CEECH1,Pedra Cheirosa,EOL.CV.CE.031736-5.01,NE,-2.99,-39.74,FALSE
375,CEEIT4,Itarema IV,EOL.CV.CE.031813-2.01,NE,-2.97,-39.88,FALSE
376,CEEIT9,Itarema IX,EOL.CV.CE.031814-0.01,NE,-2.93,-39.88,FALSE
377,CEEIT6,Itarema VI,EOL.CV.CE.031815-9.01,NE,-2.93,-39.88,FALSE
378,CEEIT7,Itarema VII,EOL.CV.CE.031816-7.01,NE,-2.93,-39.88,FALSE
379,CEEIT8,Itarema VIII,EOL.CV.CE.031817-5.01,NE,-2.93,-39.88,FALSE
380,CEESI4,Santo Inácio IV,EOL.CV.CE.031866-3.01,NE,-4.74,-37.3,FALSE
381,CEEEST,Estrela,EOL.CV.CE.032010-2.01,NE,-3.25,-39.29,FALSE
382,CEECAA,Cacimbas 1,EOL.CV.CE.032011-0.01,NE,-3.25,-39.28,FALSE
383,CEEOVE,Ouro Verde,EOL.CV.CE.032012-9.01,NE,-3.28,-39.31,FALSE
384,CEESMA,Santa Mônica I,EOL.CV.CE.032013-7.01,NE,-3.26,-39.28,FALSE
385,CEESM1,SERRA DO MATO I,EOL.CV.CE.032375-6.01,NE,-3.27,-39.39,FALSE
386,CEESM2,SERRA DO MATO II,EOL.CV.CE.032376-4.01,NE,-3.27,-39.35,FALSE
387,CEESM3,SERRA DO MATO III,EOL.CV.CE.032377-2.01,NE,-3.26,-39.34,FALSE
388,CEESM4,SERRA DO MATO IV,EOL.CV.CE.032378-0.01,NE,-3.22,-39.39,FALSE
389,CEESM6,SERRA DO MATO VI,EOL.CV.CE.032379-9.01,NE,-3.24,-39.4,FALSE
390,CEESM5,SERRA DO MATO V,EOL.CV.CE.032453-1.01,NE,-3.23,-39.4,FALSE
391,CEECVA,Cataventos Acaraú I,EOL.CV.CE.033756-0.01,NE,-2.84,-40.06,FALSE
392,CEEGRR,Garrote,EOL.CV.CE.035197-0.01,NE,-4.73,-37.32,FALSE
393,CEESI3,Santo Inácio III,EOL.CV.CE.035217-9.01,NE,-4.76,-37.29,FALSE
394,CEESRM,São Raimundo,EOL.CV.CE.035219-5.01,NE,-4.77,-37.29,FALSE
395,CEEGRV,GRAVIER,EOL.CV.CE.040794-1.01,NE,-4.75,-37.33,FALSE
396,CEESR1,Serrote I,EOL.CV.CE.040878-6.01,NE,-4.53,-37.69,FALSE
397,CEESR2,SERROTE II,EOL.CV.CE.040879-4.01,NE,-3.28,-39.33,FALSE
398,CEESR3,SERROTE III,EOL.CV.CE.040880-8.01,NE,-3.3,-39.35,FALSE
399,CEESR4,SERROTE IV,EOL.CV.CE.040881-6.01,NE,-3.3,-39.39,FALSE
400,CEESR5,SERROTE V,EOL.CV.CE.040882-4.01,NE,-3.31,-39.36,FALSE
401,CEESR6,SERROTE VI,EOL.CV.CE.040883-2.01,NE,-3.22,-39.37,FALSE
402,CEESR7,SERROTE VII,EOL.CV.CE.040884-0.01,NE,-3.31,-39.32,FALSE
403,CEESR8,SERROTE VIII,EOL.CV.CE.040885-9.01,NE,-3.33,-39.32,FALSE
404,MAEDT6,Delta 3 VI,EOL.CV.MA.033673-4.01,N,-2.63,-42.65,FALSE
405,MAEDT5,Delta 3 V,EOL.CV.MA.033675-0.01,N,-2.63,-42.64,FALSE
406,MAEDT7,Delta 3 VII,EOL.CV.MA.033680-7.01,N,-2.62,-42.66,FALSE
407,MAEDT1,Delta 3 I,EOL.CV.MA.033682-3.01,N,-2.67,-42.62,FALSE
408,MAEDT2,Delta 3 II,EOL.CV.MA.033683-1.01,N,-2.62,-42.66,FALSE
409,MAEDT3,Delta 3 III,EOL.CV.MA.033684-0.01,N,-2.65,-42.63,FALSE
410,MAEDT4,Delta 3 IV,EOL.CV.MA.033685-8.01,N,-2.66,-42.61,FALSE
411,MAEDT8,Delta 3 VIII,EOL.CV.MA.033686-6.01,N,-2.67,-42.64,FALSE
412,MAEDS2,Delta 6 II,EOL.CV.MA.037967-0.01,N,-2.66,-42.61,FALSE
413,MAEDS1,Delta 6 I,EOL.CV.MA.037970-0.01,N,-2.69,-42.57,FALSE
414,MAEDS3,Delta 5 II,EOL.CV.MA.037972-7.01,N,-2.67,-42.6,FALSE
415,MAEDT9,Delta 5 I,EOL.CV.MA.037976-0.01,N,-2.7,-42.55,FALSE
416,MAED7I,Delta 7 I,EOL.CV.MA.040572-8.01,N,-2.68,-42.6,FALSE
417,MAED72,Delta 7 II,EOL.CV.MA.040573-6.01,N,-2.69,-42.58,FALSE
418,MAED8I,Delta 8 I,EOL.CV.MA.040574-4.01,N,-2.7,-42.57,FALSE
419,PBMILL,MILLENNIUM,EOL.CV.PB.029041-6.01,NE,-6.49,-34.97,FALSE
420,PBVITO,VITORIA,EOL.CV.PB.029075-0.01,NE,-6.55,-35.01,FALSE
421,PBPRES,PRESIDENTE,EOL.CV.PB.029083-1.01,NE,-6.57,-34.97,FALSE
422,PBCAMU,CAMURIM,EOL.CV.PB.029084-0.01,NE,-6.55,-34.97,FALSE
423,PBALBA,ALBATROZ,EOL.CV.PB.029085-8.01,NE,-6.54,-34.96,FALSE
424,PBCOES,COELHOS I,EOL.CV.PB.029086-6.01,NE,-6.57,-34.97,FALSE
425,PBCOEL,COELHOS III,EOL.CV.PB.029087-4.01,NE,-6.57,-34.96,FALSE
426,PBATLA,ATLANTICA,EOL.CV.PB.029088-2.01,NE,-6.54,-34.97,FALSE
427,PBCARA,CARAVELA,EOL.CV.PB.029089-0.01,NE,-6.55,-34.96,FALSE
428,PBCOEH,COELHOS II,EOL.CV.PB.029090-4.01,NE,-6.57,-34.96,FALSE
429,PBCOEO,COELHOS IV,EOL.CV.PB.029091-2.01,NE,-6.58,-34.97,FALSE
430,PBMATA,MATARACA,EOL.CV.PB.029092-0.01,NE,-6.58,-34.97,FALSE
431,D29112,Alhandra,EOL.CV.PB.029112-9.01,NE,-7.27,-34.93,FALSE
432,PBCANO,CANOAS,EOL.CV.PB.033663-7.01,NE,-6.88,-36.76,FALSE
433,PBLAGA,LAGOA 1,EOL.CV.PB.033664-5.01,NE,-6.87,-36.81,FALSE
434,PBLAGO,LAGOA 2,EOL.CV.PB.033665-3.01,NE,-6.84,-36.79,FALSE
435,PBCH1,CHAFARIZ 1,EOL.CV.PB.034639-0.01,NE,-6.97,-36.87,FALSE
436,PBCH2,CHAFARIZ 2,EOL.CV.PB.034640-3.01,NE,-6.99,-36.89,FALSE
437,PBCH3,CHAFARIZ 3,EOL.CV.PB.034642-0.01,NE,-7,-36.89,FALSE
438,PBCH4,CHAFARIZ 4,EOL.CV.PB.034644-6.01,NE,-7.03,-36.93,FALSE
439,PBCH5,CHAFARIZ 5,EOL.CV.PB.034646-2.01,NE,-7,-36.91,FALSE
440,PBCN2,CANOAS 2,EOL.CV.PB.035181-4.01,NE,-6.88,-36.79,FALSE
441,PBCH6,CHAFARIZ 6,EOL.CV.PB.035184-9.01,NE,-6.97,-36.85,FALSE
442,PBSS02,SERRA DO SERIDO II,EOL.CV.PB.035225-0.01,NE,-7.11995997977373,-35.9815623996129,TRUE
443,PBSS03,SERRA DO SERIDO III,EOL.CV.PB.035226-8.01,NE,-7.11995997977373,-35.9815623996129,TRUE
444,PBSS04,SERRA DO SERIDO IV,EOL.CV.PB.035227-6.01,NE,-7.11995997977373,-35.9815623996129,TRUE
445,PBVA1,VENTOS DE ARAPUA 1,EOL.CV.PB.035240-3.01,NE,-7.04,-36.95,FALSE
446,PBVA2,VENTOS DE ARAPUA 2,EOL.CV.PB.035241-1.01,NE,-7.02,-36.96,FALSE
447,PBVA3,VENTOS DE ARAPUA 3,EOL.CV.PB.035242-0.01,NE,-7.05,-36.96,FALSE
448,PBCN3,CANOAS 3,EOL.CV.PB.037952-2.01,NE,-6.87,-36.75,FALSE
449,PBCN4,CANOAS 4,EOL.CV.PB.037953-0.01,NE,-6.84,-36.73,FALSE
450,PBCH7,CHAFARIZ 7,EOL.CV.PB.037958-1.01,NE,-6.92,-36.86,FALSE
451,PBLG3,LAGOA 3,EOL.CV.PB.038029-6-01,NE,-6.87,-36.82,FALSE
452,PBLG4,LAGOA 4,EOL.CV.PB.038030-0.01,NE,-6.88,-36.84,FALSE
453,PBSS06,SERRA DO SERIDO VI,EOL.CV.PB.038304-0.01,NE,-7.11995997977373,-35.9815623996129,TRUE
454,PBSS07,SERRA DO SERIDO VII,EOL.CV.PB.038305-8.01,NE,-7.11995997977373,-35.9815623996129,TRUE
455,PBSS09,SERRA DO SERIDO IX,EOL.CV.PB.040613-9.01,NE,-7.11995997977373,-35.9815623996129,TRUE
456,PEPIRA,PIRAUA,EOL.CV.PE.028481-5.01,NE,-7.49,-35.49,FALSE
457,PEXAVA,XAVANTE,EOL.CV.PE.029011-4.01,NE,-8.17,-35.38,FALSE
458,PEMAND,MANDACARU,EOL.CV.PE.029015-7.01,NE,-8.27,-35.59,FALSE
459,PESNTM,SANTA MARIA,EOL.CV.PE.029019-0.01,NE,-8.29,-35.59,FALSE
460,PEGRVT,GRAVATA FRUITRADE,EOL.CV.PE.029020-3.01,NE,-8.26,-35.59,FALSE
461,PEUETA,Tacaicó,EOL.CV.PE.030789-0.01,NE,-9.02,-38.06,FALSE
462,PEUEPF,Pau Ferro,EOL.CV.PE.030805-6.01,NE,-9.06,-38.12,FALSE
463,PEUEPG,Pedra do Gerônimo,EOL.CV.PE.030806-4.01,NE,-9.07,-38.14,FALSE
464,D31006,Caminho da Praia,EOL.CV.PE.031006-9.01,NE,-8.33,-35.01,FALSE
465,PEEBR5,Ventos de Santa Brígida V,EOL.CV.PE.031346-7.01,NE,-8.85,-36.73,FALSE
466,PEEBR6,Ventos de Santa Brígida VI,EOL.CV.PE.031353-0.01,NE,-8.87,-36.75,FALSE
467,PEEBR3,Ventos de Santa Brígida III,EOL.CV.PE.031354-8.01,NE,-8.85,-36.77,FALSE
468,PEEBR2,Ventos de Santa Brígida II,EOL.CV.PE.031363-7.01,NE,-8.8,-36.73,FALSE
469,PEEBR1,Ventos de Santa Brígida I,EOL.CV.PE.031365-3.01,NE,-8.81,-36.75,FALSE
470,PEEBR4,Ventos de Santa Brígida IV,EOL.CV.PE.031370-0.01,NE,-8.83,-36.76,FALSE
471,PEEBR7,Ventos de Santa Brígida VII,EOL.CV.PE.031422-6.01,NE,-8.8,-36.76,FALSE
472,PEESV1,Serra das Vacas I,EOL.CV.PE.031537-0.01,NE,-8.93,-36.74,FALSE
473,PEESV2,Serra das Vacas II,EOL.CV.PE.031540-0.01,NE,-8.9,-36.73,FALSE
474,PEESV3,Serra das Vacas III,EOL.CV.PE.031560-5.01,NE,-8.9,-36.76,FALSE
475,PEESV4,Serra das Vacas IV,EOL.CV.PE.031574-5.01,NE,-8.91,-36.73,FALSE
476,PEECL1,Ventos de Sao Clemente I,EOL.CV.PE.031818-3.01,NE,-8.73,-36.7,FALSE
477,PEECL2,Ventos de Sao Clemente II,EOL.CV.PE.031819-1.01,NE,-8.71,-36.73,FALSE
478,PEECL3,Ventos de Sao Clemente III,EOL.CV.PE.031820-5.01,NE,-8.71,-36.72,FALSE
479,PEECL4,Ventos de Sao Clemente IV,EOL.CV.PE.031821-3.01,NE,-8.7,-36.76,FALSE
480,PEECL5,Ventos de Sao Clemente V,EOL.CV.PE.031822-1.01,NE,-8.78,-36.76,FALSE
481,PEECL6,Ventos de Sao Clemente VI,EOL.CV.PE.031823-0.01,NE,-8.76,-36.71,FALSE
482,PEECL7,Ventos de Sao Clemente VII,EOL.CV.PE.031824-8.01,NE,-8.75,-36.73,FALSE
483,PEECL8,Ventos de Sao Clemente VIII,EOL.CV.PE.031825-6.01,NE,-8.7,-36.78,FALSE
484,PEESV5,Serra das Vacas V,EOL.CV.PE.032360-8.01,NE,-8.91,-36.76,FALSE
485,PEESV6,Serra das Vacas VII,EOL.CV.PE.032361-6.01,NE,-8.92,-36.78,FALSE
486,PEEPF2,PAU FERRO II,EOL.CV.PE.044553-3.01,NE,-9.03,-38.09,FALSE
487,PEETA2,TACAICO II,EOL.CV.PE.044554-1.01,NE,-9.01,-38.07,FALSE
488,PIEES1,Ventos de Santo Estevão I,EOL.CV.PE.031761-6.01,NE,-7.74,-40.67,FALSE
489,PIEES2,Ventos de Santo Estevão II,EOL.CV.PE.031762-4.01,NE,-7.75,-40.63,FALSE
490,PIEES3,Ventos de Santo Estevão III,EOL.CV.PE.031763-2.01,NE,-7.73,-40.64,FALSE
491,PIEES5,Ventos de Santo Estevão V,EOL.CV.PE.031764-0.01,NE,-7.76,-40.67,FALSE
492,PIEES4,Ventos de Santo Estevão IV,EOL.CV.PE.032365-9.01,NE,-7.79,-40.63,FALSE
493,PIANT,VENTOS DE SANTO ANTERO,EOL.CV.PE.035249-7.01,NE,-8,-40.51,FALSE
494,PIBER,VENTOS DE SAO BERNARDO,EOL.CV.PE.035250-0.01,NE,-7.99,-40.51,FALSE
495,PIPSAL,PEDRA DO SAL,EOL.CV.PI.028731-8.01,NE,-2.82,-41.7,FALSE
496,PIPORD,PORTO DO DELTA,EOL.CV.PI.030639-8.01,NE,-2.84,-41.69,FALSE
497,PIPORT,PORTO DAS BARCAS,EOL.CV.PI.030827-7.01,NE,-2.82,-41.74,FALSE
498,PIPORO,PORTO SALGADO,EOL.CV.PI.030830-7.01,NE,-2.83,-41.72,FALSE
499,PIDELT,DELTA DO PARNAIBA,EOL.CV.PI.030838-2.01,NE,-2.83,-41.7,FALSE
500,PIESED,Ventos de Santa Edwiges,EOL.CV.PI.031270-3.01,NE,-7.31,-40.56,FALSE
501,PIESAD,Ventos de Santo Adriano,EOL.CV.PI.031271-1.01,NE,-7.34,-40.56,FALSE
502,PIESAL,Ventos de Santo Albano,EOL.CV.PI.031272-0.01,NE,-7.36,-40.58,FALSE
503,PIESFA,Ventos de Santa Fátima,EOL.CV.PI.031273-8.01,NE,-7.34,-40.57,FALSE
504,PIESBA,Ventos de Santa Barbara,EOL.CV.PI.031274-6.01,NE,-7.3,-40.54,FALSE
505,PIESAN,Ventos de Santa Angelina,EOL.CV.PI.031275-4.01,NE,-7.3,-40.53,FALSE
506,PIESRE,Ventos de Santa Regina,EOL.CV.PI.031276-2.01,NE,-7.33,-40.59,FALSE
507,PIEJ02,Ventos de Santa Joana II,EOL.CV.PI.031361-0.01,NE,-7.57,-40.7,FALSE
508,PIEO02,Ventos de Santo Onofre II,EOL.CV.PI.031362-9.01,NE,-7.59,-40.73,FALSE
509,PIEO01,Ventos de Santo Onofre I,EOL.CV.PI.031364-5.01,NE,-7.55,-40.73,FALSE
510,PIEJ08,Ventos de Santa Joana VIII,EOL.CV.PI.031366-1.01,NE,-7.6,-40.73,FALSE
511,PIEJ06,Ventos de Santa Joana VI,EOL.CV.PI.031367-0.01,NE,-7.53,-40.74,FALSE
512,PIEJ15,Ventos de Santa Joana XIV,EOL.CV.PI.031368-8.01,NE,-7.51,-40.73,FALSE
513,PIEJ11,Ventos de Santa Joana XI,EOL.CV.PI.031388-2.01,NE,-7.48,-40.8,FALSE
514,PIEJ16,Ventos de Santa Joana XVI,EOL.CV.PI.031392-0.01,NE,-7.46,-40.72,FALSE
515,PIEJ10,Ventos de Santa Joana X,EOL.CV.PI.031393-9.01,NE,-7.44,-40.71,FALSE
516,PIEJ13,Ventos de Santa Joana XIII,EOL.CV.PI.031394-7.01,NE,-7.41,-40.71,FALSE
517,PIEJ12,Ventos de Santa Joana XII,EOL.CV.PI.031414-5.01,NE,-7.49,-40.75,FALSE
518,PIEJ14,Ventos de Santa Joana XV,EOL.CV.PI.031416-1.01,NE,-7.48,-40.77,FALSE
519,PIEJ9,Ventos de Santa Joana IX,EOL.CV.PI.031417-0.01,NE,-7.45,-40.74,FALSE
520,PIEJ04,Ventos de Santa Joana IV,EOL.CV.PI.031520-6.01,NE,-7.45,-40.69,FALSE
521,PIEJ05,Ventos de Santa Joana V,EOL.CV.PI.031538-9.01,NE,-7.37,-40.67,FALSE
522,PIEJ03,Ventos de Santa Joana III,EOL.CV.PI.031580-0.01,NE,-7.44,-40.75,FALSE
523,PIEJ01,Ventos de Santa Joana I,EOL.CV.PI.031581-8.01,NE,-7.42,-40.67,FALSE
524,PIEJ07,Ventos de Santa Joana VII,EOL.CV.PI.031597-4.01,NE,-7.41,-40.67,FALSE
525,PIEAU4,Ventos de Santo Augusto IV,EOL.CV.PI.031603-2.01,NE,-7.37,-40.71,FALSE
526,PIEAU5,Ventos de Santo Augusto V,EOL.CV.PI.031661-0.01,NE,-7.41,-40.7,FALSE
527,PIEAU3,Ventos de Santo Augusto III,EOL.CV.PI.031662-8.01,NE,-7.37,-40.71,FALSE
528,PITEST,TESTA BRANCA I,EOL.CV.PI.031666-0.01,NE,-2.81,-41.78,FALSE
529,PIEAU1,Ventos de Santo Augusto I,EOL.CV.PI.031746-2.02,NE,-7.74,-40.68,FALSE
530,PIEAU2,Ventos de Santo Augusto II,EOL.CV.PI.031747-0.02,NE,-7.77,-40.68,FALSE
531,PIEAU7,Ventos de Santo Augusto VII,EOL.CV.PI.031749-7.01,NE,-7.73,-40.68,FALSE
532,PIEAU6,Ventos de Santo Augusto VI,EOL.CV.PI.031766-7.01,NE,-7.71,-40.68,FALSE
533,PIEAU8,Ventos de Santo Augusto VIII,EOL.CV.PI.031767-5.01,NE,-7.77,-40.68,FALSE
534,PIEO03,Ventos de Santo Onofre III,EOL.CV.PI.031886-8.02,NE,-7.56,-40.73,FALSE
535,PIEO04,Ventos de Santo Onofre IV,EOL.CV.PI.032366-7.01,NE,-7.6,-40.68,FALSE
536,PIEVI1,Ventos de São Virgílio 1,EOL.CV.PI.032367-5.01,NE,-7.74,-40.72,FALSE
537,PIEVI3,Ventos de São Virgílio 3,EOL.CV.PI.032368-3.01,NE,-7.8,-40.71,FALSE
538,PIEQN1,AURA QUEIMADA NOVA 01,EOL.CV.PI.032863-4.01,NE,-8.68,-41.58,FALSE
539,PIVSA1,VENTOS DE SANTA ANGELA 01,EOL.CV.PI.033005-1.01,NE,-8.51,-41.55,FALSE
540,PISA02,VENTOS DE SANTA ANGELA 02,EOL.CV.PI.033006-0.01,NE,-8.54,-41.57,FALSE
541,PISA03,VENTOS DE SANTA ANGELA 03,EOL.CV.PI.033007-8.01,NE,-8.57,-41.57,FALSE
542,PISA04,VENTOS DE SANTA ANGELA 04,EOL.CV.PI.033008-6.01,NE,-8.6,-41.59,FALSE
543,PISA05,VENTOS DE SANTA ANGELA 05,EOL.CV.PI.033009-4.01,NE,-8.46,-41.44,FALSE
544,PISA06,VENTOS DE SANTA ANGELA 06,EOL.CV.PI.033010-8.01,NE,-8.48,-41.45,FALSE
545,PISA07,VENTOS DE SANTA ANGELA 07,EOL.CV.PI.033011-6.01,NE,-8.53,-41.48,FALSE
546,PISA08,VENTOS DE SANTA ANGELA 08,EOL.CV.PI.033012-4.01,NE,-8.56,-41.49,FALSE
547,PISA09,VENTOS DE SANTA ANGELA 09,EOL.CV.PI.033013-2.01,NE,-8.59,-41.47,FALSE
548,PISA10,VENTOS DE SANTA ANGELA 10,EOL.CV.PI.033014-0.01,NE,-8.63,-41.49,FALSE
549,PISA11,VENTOS DE SANTA ANGELA 11,EOL.CV.PI.033015-9.01,NE,-8.66,-41.5,FALSE
550,PISA12,VENTOS DE SANTA ANGELA 12,EOL.CV.PI.033016-7.01,NE,-8.76,-41.43,FALSE
551,PISA13,VENTOS DE SANTA ANGELA 13,EOL.CV.PI.033017-5.01,NE,-8.76,-41.4,FALSE
552,PISA14,VENTOS DE SANTA ANGELA 14,EOL.CV.PI.033018-3.01,NE,-8.7,-41.51,FALSE
553,PISA15,VENTOS DE SANTA ANGELA 15,EOL.CV.PI.033019-1.01,NE,-8.72,-41.47,FALSE
554,PISA16,VENTOS DE SANTA ANGELA 16,EOL.CV.PI.033020-5.01,NE,-8.73,-41.55,FALSE
555,PISA17,VENTOS DE SANTA ANGELA 17,EOL.CV.PI.033021-3.01,NE,-8.71,-41.42,FALSE
556,PISA18,VENTOS DE SANTA ANGELA 18,EOL.CV.PI.033022-1.01,NE,-8.73,-41.39,FALSE
557,PISA19,VENTOS DE SANTA ANGELA 19,EOL.CV.PI.033023-0.01,NE,-8.74,-41.47,FALSE
558,PISA20,VENTOS DE SANTA ANGELA 20,EOL.CV.PI.033024-8.01,NE,-8.78,-41.45,FALSE
559,PISA21,VENTOS DE SANTA ANGELA 21,EOL.CV.PI.033025-6.01,NE,-8.8,-41.46,FALSE
560,PIEV10,Ventos de São Vicente 10,EOL.CV.PI.033136-8.01,NE,-8.02,-40.62,FALSE
561,PIEV14,Ventos de São Vicente 14,EOL.CV.PI.033138-4.01,NE,-7.99,-40.58,FALSE
562,PIEV13,Ventos de São Vicente 13,EOL.CV.PI.033139-2.01,NE,-8,-40.61,FALSE
563,PIEV12,Ventos de São Vicente 12,EOL.CV.PI.033140-6.01,NE,-8.02,-40.62,FALSE
564,PIEV11,Ventos de São Vicente 11,EOL.CV.PI.033141-4.01,NE,-8.02,-40.62,FALSE
565,PIEV09,Ventos de São Vicente 09,EOL.CV.PI.033143-0.01,NE,-8.02,-40.66,FALSE
566,PIEV08,Ventos de São Vicente 08,EOL.CV.PI.033144-9.01,NE,-8.01,-40.63,FALSE
567,PITESA,TESTA BRANCA III,EOL.CV.PI.033479-0.01,NE,-2.79,-41.79,FALSE
568,PIELB7,Aura Lagoa do Barro 07,EOL.CV.PI.033618-1.01,NE,-8.68,-41.63,FALSE
569,PIELB3,Aura Lagoa do Barro 03,EOL.CV.PI.033619-0.01,NE,-8.61,-41.55,FALSE
570,PIELB4,Aura Lagoa do Barro 04,EOL.CV.PI.033620-3.01,NE,-8.59,-41.54,FALSE
571,PIELB1,Aura Lagoa do Barro 01,EOL.CV.PI.033621-1.01,NE,-8.7,-41.64,FALSE
572,PIELB2,Aura Lagoa do Barro 02,EOL.CV.PI.033622-0.01,NE,-8.65,-41.57,FALSE
573,PIELB5,Aura Lagoa do Barro 05,EOL.CV.PI.033623-8.01,NE,-8.59,-41.54,FALSE
574,PIELB6,Aura Lagoa do Barro 06,EOL.CV.PI.033624-6.01,NE,-8.63,-41.56,FALSE
575,PIEQN3,Aura Queimada Nova 03,EOL.CV.PI.033625-4.01,NE,-8.67,-41.63,FALSE
576,PIEVI2,Ventos de São Virgílio 2,EOL.CV.PI.033667-0.01,NE,-7.79,-40.73,FALSE
577,PIVSR1,VENTOS DE SAO ROQUE 01,EOL.CV.PI.038103-9.01,NE,-8.76,-41.65,FALSE
578,PIVSR2,VENTOS DE SAO ROQUE 02,EOL.CV.PI.038104-7.01,NE,-8.8,-41.65,FALSE
579,PISR03,VENTOS DE SAO ROQUE 03,EOL.CV.PI.038105-5.01,NE,-8.07292799069481,-42.786979911802,TRUE
580,PIVSR3,VENTOS DE SAO ROQUE 04,EOL.CV.PI.038106-3.01,NE,-8.82,-41.59,FALSE
581,PISR05,LAGOA DOS VENTOS V 5,EOL.CV.PI.038107-1.01,NE,-8.07292799069481,-42.786979911802,TRUE
582,PISR06,VENTOS DE SAO ROQUE 06,EOL.CV.PI.038108-0.01,NE,-8.07292799069481,-42.786979911802,TRUE
583,PISR07,VENTOS DE SAO ROQUE 07,EOL.CV.PI.038109-8.01,NE,-8.07292799069481,-42.786979911802,TRUE
584,PIVSR6,VENTOS DE SAO ROQUE 16,EOL.CV.PI.038110-1.01,NE,-8.89,-41.59,FALSE
585,PIVSR7,VENTOS DE SAO ROQUE 17,EOL.CV.PI.038111-0.01,NE,-8.89,-41.55,FALSE
586,PIVSR8,VENTOS DE SAO ROQUE 18,EOL.CV.PI.038112-8.01,NE,-8.91,-41.55,FALSE
587,PISR19,LAGOA DOS VENTOS V 19,EOL.CV.PI.038113-6.01,NE,-8.07292799069481,-42.786979911802,TRUE
588,PISR22,LAGOA DOS VENTOS V 22,EOL.CV.PI.038116-0.01,NE,-8.07292799069481,-42.786979911802,TRUE
589,PISR26,LAGOA DOS VENTOS V 26,EOL.CV.PI.038120-9.01,NE,-8.07292799069481,-42.786979911802,TRUE
590,PISR29,LAGOA DOS VENTOS V 29,EOL.CV.PI.038123-3.01,NE,-8.07292799069481,-42.786979911802,TRUE
591,PIEQN2,AURA QUEIMADA NOVA 02,EOL.CV.PI.040567-1.01,NE,-8.62,-41.59,FALSE
592,PIVSR4,VENTOS DE SAO ROQUE 08,EOL.CV.PI.040626-0.01,NE,-8.93,-41.6,FALSE
593,PIVSR5,VENTOS DE SAO ROQUE 11,EOL.CV.PI.040629-5.01,NE,-8.82,-41.62,FALSE
594,PISR13,LAGOA DOS VENTOS V 13,EOL.CV.PI.040631-7.01,NE,-8.07292799069481,-42.786979911802,TRUE
595,PIOI10,OITIS 10,EOL.CV.PI.044358-1.01,NE,-9.05,-41.77,FALSE
596,PIOI02,OITIS 2,EOL.CV.PI.044359-0.01,NE,-9.01,-41.73,FALSE
597,PIOI03,OITIS 3,EOL.CV.PI.044362-0.01,NE,-9.01,-41.75,FALSE
598,PIOI04,OITIS 4,EOL.CV.PI.044363-8.01,NE,-9.02,-41.75,FALSE
599,PIOI05,OITIS 5,EOL.CV.PI.044364-6.01,NE,-9.04,-41.75,FALSE
600,PIOI06,UEE OIT OITIS 06,EOL.CV.PI.044365-4.01,NE,-9.05,-41.74,FALSE
601,PIOI07,UEE OIT OITIS 07,EOL.CV.PI.044366-2.01,NE,-9.07,-41.73,FALSE
602,PIOI08,OITIS 08,EOL.CV.PI.044367-0.01,NE,-9.09,-41.76,FALSE
603,PIOI09,OITIS 9,EOL.CV.PI.044368-9.01,NE,-9.05,-41.77,FALSE
604,PIOI01,UEE OIT OITIS 01,EOL.CV.PI.044555-0.01,NE,-9,-41.72,FALSE
605,PIVI16,VENTOS DE SANTA ALEXANDRINA,EOL.CV.PI.048511-0.01,NE,-7.98,-40.58,FALSE
606,PIVI05,VENTOS DE SANTO ALDERICO,EOL.CV.PI.048512-8.01,NE,-8.04,-40.66,FALSE
607,PIVI15,VENTOS DE SANTO APOLINARIO,EOL.CV.PI.048513-6.01,NE,-7.97,-40.59,FALSE
608,PIVI01,VENTOS DE SAO CAIO,EOL.CV.PI.048514-4.01,NE,-7.99,-40.76,FALSE
609,PIVI04,VENTOS DE SAO CIRIACO,EOL.CV.PI.048515-2.01,NE,-8.04,-40.68,FALSE
610,PIVI02,VENTOS DE SAO CIRO,EOL.CV.PI.048516-0.01,NE,-8.03,-40.74,FALSE
611,PIVI18,VENTOS DE SAO JOAO PAULO II,EOL.CV.PI.048517-9.01,NE,-7.98,-40.56,FALSE
612,PIVI03,VENTOS DE SAO CRISPIM,EOL.CV.PI.048704-0.01,NE,-8.03,-40.67,FALSE
613,PREOLI,EOLIO   ELETRICA DE PALMAS,EOL.CV.PR.027908-0.01,S,-26.57,-51.7,FALSE
614,RJUEGG,GARGAU,EOL.CV.RJ.028730-0.01,SE,-21.56,-41.07,FALSE
615,BAELA2,Laranjeiras II,EOL.CV.BA.032350-0.01,NE,-11.13,-42.7,FALSE
616,RNUERF,RN 15   RIO DO FOGO,EOL.CV.RN.028424-6.01,NE,-5.3,-35.38,FALSE
617,RNUAD,Alegria II,EOL.CV.RN.028443-2.01,NE,-5.12,-36.38,FALSE
618,RNUAU,Alegria I,EOL.CV.RN.028444-0.01,NE,-5.09,-36.36,FALSE
619,D28787,Macau,EOL.CV.RN.028787-3.01,NE,-5.09,-36.56,FALSE
620,RNARAT,ARATUA I,EOL.CV.RN.030121-3.01,NE,-5.09,-36.33,FALSE
621,RNUEM3,MANGUE SECO 3,EOL.CV.RN.030281-3.01,NE,-5.19,-36.36,FALSE
622,RNUEM2,MANGUE SECO 2,EOL.CV.RN.030284-8.01,NE,-5.17,-36.32,FALSE
623,RNUEM1,MANGUE SECO 1,EOL.CV.RN.030285-6.01,NE,-5.17,-36.3,FALSE
624,RNUEM5,MANGUE SECO 5,EOL.CV.RN.030290-2.01,NE,-5.17,-36.41,FALSE
625,RNUEC1,SANTA CLARA I,EOL.CV.RN.030292-9.01,NE,-5.24,-35.9,FALSE
626,RNUEC3,SANTA CLARA III,EOL.CV.RN.030293-7.01,NE,-5.27,-35.9,FALSE
627,RNCEM6,MORRO DOS VENTOS VI,EOL.CV.RN.030300-3.01,NE,-5.34,-35.88,FALSE
628,RNCEM1,MORRO DOS VENTOS I,EOL.CV.RN.030301-1.01,NE,-5.36,-35.82,FALSE
629,RNCEM9,MORRO DOS VENTOS IX,EOL.CV.RN.030302-0.01,NE,-5.31,-35.91,FALSE
630,RNUEC6,Santa Clara VI,EOL.CV.RN.030304-6.01,NE,-5.24,-35.93,FALSE
631,RNUEC4,SANTA CLARA IV,EOL.CV.RN.030307-0.01,NE,-5.24,-35.91,FALSE
632,RNUEC2,SANTA CLARA II,EOL.CV.RN.030308-9.01,NE,-5.27,-35.91,FALSE
633,RNCEM3,MORRO DOS VENTOS III,EOL.CV.RN.030310-0.01,NE,-5.37,-35.87,FALSE
634,RNCEM4,MORRO DOS VENTOS IV,EOL.CV.RN.030311-9.01,NE,-5.38,-35.88,FALSE
635,RNPARU,CABECO PRETO,EOL.CV.RN.030333-0.01,NE,-5.41,-35.95,FALSE
636,RNUES3,Miassaba 3,EOL.CV.RN.030339-9.01,NE,-5.13,-36.45,FALSE
637,RNUEAB,AREIA BRANCA,EOL.CV.RN.030340-2.01,NE,-4.97,-36.9,FALSE
638,RNUER6,EURUS VI,EOL.CV.RN.030351-8.01,NE,-5.23,-35.93,FALSE
639,RNMIAS,MIASSABA II,EOL.CV.RN.030370-4.01,NE,-5.08,-36.4,FALSE
640,RNUEC5,SANTA CLARA V,EOL.CV.RN.030378-0.01,NE,-5.26,-35.92,FALSE
641,RNUEMT,Mar e Terra,EOL.CV.RN.030389-5.01,NE,-4.96,-36.91,FALSE
642,RNUERU,REI DOS VENTOS 1,EOL.CV.RN.030416-6.01,NE,-5.1,-36.2,FALSE
643,RNUERT,REI DOS VENTOS 3,EOL.CV.RN.030417-4.01,NE,-5.12,-36.16,FALSE
644,RNMEL0,MEL 02,EOL.CV.RN.030454-9.01,NE,-4.94,-36.96,FALSE
645,RNUERN,RENASCENÇA V,EOL.CV.RN.030497-2.01,NE,-5.27,-35.86,FALSE
646,RNEAB4,Asa Branca IV,EOL.CV.RN.030498-0.01,NE,-5.33,-35.99,FALSE
647,RNUEER,EURUS II,EOL.CV.RN.030499-9.01,NE,-5.39,-35.83,FALSE
648,RNECV2,CAMPO DOS VENTOS II,EOL.CV.RN.030500-6.01,NE,-5.32,-35.93,FALSE
649,RNPARQ,CABECO PRETO IV,EOL.CV.RN.030501-4.01,NE,-5.44,-35.95,FALSE
650,RNUEFA,FAROL,EOL.CV.RN.030502-2.01,NE,-5.1,-36.02,FALSE
651,RNCEE1,EURUS I,EOL.CV.RN.030503-0.01,NE,-5.37,-35.86,FALSE
652,RNCEE3,EURUS III,EOL.CV.RN.030504-9.01,NE,-5.4,-35.87,FALSE
653,RNEAB1,Asa Branca I,EOL.CV.RN.030505-7.01,NE,-5.23,-35.83,FALSE
654,RNEAB5,Asa Branca V,EOL.CV.RN.030507-3.01,NE,-5.38,-36.01,FALSE
655,RNEAB8,Asa Branca VIII,EOL.CV.RN.030508-1.01,NE,-5.28,-35.98,FALSE
656,RNEEU4,Eurus IV,EOL.CV.RN.030509-0.01,NE,-5.26,-35.81,FALSE
657,RNUEG1,Calango 1,EOL.CV.RN.030511-1.01,NE,-6.03,-36.54,FALSE
658,RNUEBV,DREEN BOA VISTA,EOL.CV.RN.030512-0.01,NE,-5.11,-35.93,FALSE
659,RNEAB7,Asa Branca VII,EOL.CV.RN.030513-8.01,NE,-5.25,-35.94,FALSE
660,RNEVSM,VENTOS DE SÃO MIGUEL,EOL.CV.RN.030514-6.01,NE,-5.28,-35.88,FALSE
661,RNEPR1,RENASCENÇA I,EOL.CV.RN.030515-4.01,NE,-5.3,-35.87,FALSE
662,RNEPR2,RENASCENÇA II,EOL.CV.RN.030516-2.01,NE,-5.31,-35.89,FALSE
663,RNUEG2,Calango 2,EOL.CV.RN.030519-7.01,NE,-6.02,-36.48,FALSE
664,RNEAB6,Asa Branca VI,EOL.CV.RN.030520-0.01,NE,-5.36,-36,FALSE
665,RNEPR3,RENASCENÇA III,EOL.CV.RN.030527-8.01,NE,-5.3,-35.9,FALSE
666,RNUESB,DREEN SÃO BENTO DO NORTE,EOL.CV.RN.030536-7.01,NE,-5.05,-35.98,FALSE
667,RNUEG4,Calango 4,EOL.CV.RN.030537-5.01,NE,-6.02,-36.47,FALSE
668,RNUEG3,Calango 3,EOL.CV.RN.030545-6.01,NE,-6.05,-36.55,FALSE
669,RNEAB2,Asa Branca II,EOL.CV.RN.030547-2.01,NE,-5.23,-35.88,FALSE
670,RNEAB3,Asa Branca III,EOL.CV.RN.030548-0.01,NE,-5.26,-35.84,FALSE
671,RNUEOD,DREEN OLHO D'ÁGUA,EOL.CV.RN.030549-9.01,NE,-5.05,-35.97,FALSE
672,RNEPR4,RENASCENÇA IV,EOL.CV.RN.030551-0.01,NE,-5.3,-35.92,FALSE
673,RNUEG5,Calango 5,EOL.CV.RN.030552-9.01,NE,-6.03,-36.49,FALSE
674,D30553,Ventos do Brejo,EOL.CV.RN.030553-7.01,NE,-6.21,-35.36,FALSE
675,RNUEV1,União dos Ventos 1,EOL.CV.RN.030562-6.01,NE,-5.08,-35.84,FALSE
676,RNUEV2,União dos Ventos 2,EOL.CV.RN.030563-4.01,NE,-5.08,-35.83,FALSE
677,RNUEV3,União dos Ventos 3,EOL.CV.RN.030564-2.01,NE,-5.08,-35.81,FALSE
678,RNUEV4,União dos Ventos 4,EOL.CV.RN.030565-0.01,NE,-5.09,-35.8,FALSE
679,RNUEV5,União dos Ventos 5,EOL.CV.RN.030566-9.01,NE,-5.09,-35.78,FALSE
680,RNUEV6,União dos Ventos 6,EOL.CV.RN.030567-7.01,NE,-5.09,-35.77,FALSE
681,RNUEV7,União dos Ventos 7,EOL.CV.RN.030568-5.01,NE,-5.1,-35.75,FALSE
682,RNUEV8,União dos Ventos 8,EOL.CV.RN.030569-3.01,NE,-5.07,-35.89,FALSE
683,RNUEV9,União dos Ventos 9,EOL.CV.RN.030570-7.01,NE,-5.09,-35.89,FALSE
684,RNUEVX,União dos Ventos 10,EOL.CV.RN.030571-5.01,NE,-5.11,-35.89,FALSE
685,RNESS2,Serra de Santana II,EOL.CV.RN.030609-6.01,NE,-6.1,-36.58,FALSE
686,RNESS3,Serra de Santana III,EOL.CV.RN.030615-0.01,NE,-6.02,-36.51,FALSE
687,RNARIZ,ARIZONA 1,EOL.CV.RN.030622-3.01,NE,-5.3,-35.38,FALSE
688,RNESS1,Serra de Santana I,EOL.CV.RN.030625-8.01,NE,-6.06,-36.58,FALSE
689,RNEJUR,JUREMAS,EOL.CV.RN.030660-6.01,NE,-5.39,-35.85,FALSE
690,RNEMAC,MACACOS,EOL.CV.RN.030661-4.01,NE,-5.41,-35.85,FALSE
691,RNEPEP,PEDRA PRETA,EOL.CV.RN.030671-1.01,NE,-5.43,-35.85,FALSE
692,RNECBR,COSTA BRANCA,EOL.CV.RN.030672-0.01,NE,-5.42,-35.85,FALSE
693,RNEGUA,Dreen Guajiru,EOL.CV.RN.030699-1.01,NE,-5.09,-35.91,FALSE
694,RNEJAN,GE Jangada,EOL.CV.RN.030700-9.01,NE,-5.06,-36.01,FALSE
695,RNECUT,Dreen Cutia,EOL.CV.RN.030701-7.01,NE,-5.1,-35.9,FALSE
696,RNEMHE,Ge Maria Helena,EOL.CV.RN.030702-5.01,NE,-5.07,-36.01,FALSE
697,RNUEMP,Modelo I,EOL.CV.RN.030787-4.01,NE,-5.43,-35.89,FALSE
698,RNUEMD,Modelo II,EOL.CV.RN.030788-2.01,NE,-5.41,-35.9,FALSE
699,RNESJO,São João,EOL.CV.RN.030804-8.01,NE,-5.13,-35.65,FALSE
700,RNESUR,VENTOS DE SANTO URIEL,EOL.CV.RN.030828-5.01,NE,-5.49,-35.9,FALSE
701,RNECNB,Carnaúbas,EOL.CV.RN.030831-5.01,NE,-5.15,-35.66,FALSE
702,RNECAU,CARCARÁ I,EOL.CV.RN.030832-3.01,NE,-4.94,-36.99,FALSE
703,RNESHE,SANTA HELENA,EOL.CV.RN.030834-0.01,NE,-5.47,-35.92,FALSE
704,RNERED,Reduto,EOL.CV.RN.030843-9.01,NE,-5.13,-35.69,FALSE
705,RNESCR,Santo Cristo,EOL.CV.RN.030849-8.01,NE,-5.14,-35.62,FALSE
706,RNEPEL,Pelado,EOL.CV.RN.030856-0.01,NE,-6,-36.44,FALSE
707,RNELAN,Lanchinha,EOL.CV.RN.030860-9.01,NE,-6.14,-36.72,FALSE
708,RNESMA,SM (Santa Maria),EOL.CV.RN.030864-1.01,NE,-5.44,-35.92,FALSE
709,RNUER3,Riachão I,EOL.CV.RN.030870-6.01,NE,-5.52,-35.43,FALSE
710,RNUER2,Riachão II,EOL.CV.RN.030871-4.01,NE,-5.57,-35.45,FALSE
711,RNUER1,Riachão VI,EOL.CV.RN.030872-2.01,NE,-5.54,-35.45,FALSE
712,RNUER7,Riachão VII,EOL.CV.RN.030873-0.01,NE,-5.58,-35.46,FALSE
713,RNUER4,Riachão IV,EOL.CV.RN.030874-9.01,NE,-5.52,-35.47,FALSE
714,RNECP5,Cabeço Preto V,EOL.CV.RN.030876-5.01,NE,-5.48,-36,FALSE
715,RNCEM2,MORRO DOS VENTOS II,EOL.CV.RN.030889-7.01,NE,-5.36,-35.84,FALSE
716,RNECA1,Caiçara I,EOL.CV.RN.030895-1.02,NE,-5,-36.91,FALSE
717,RNECAD,CARCARÁ II,EOL.CV.RN.030897-8.01,NE,-4.95,-37,FALSE
718,RNETER,TERRAL,EOL.CV.RN.030898-6.01,NE,-4.96,-37.04,FALSE
719,RNECP6,Cabeço Preto VI,EOL.CV.RN.030900-1.01,NE,-5.45,-35.95,FALSE
720,RNEJU1,Junco I,EOL.CV.RN.030902-8.02,NE,-5.03,-36.92,FALSE
721,RNEJU2,Junco II,EOL.CV.RN.030914-1.02,NE,-5.03,-36.93,FALSE
722,RNECA2,Caiçara II,EOL.CV.RN.030915-0.02,NE,-4.99,-36.93,FALSE
723,RNEBF4,Baixa do Feijão IV,EOL.CV.RN.030931-1.01,NE,-5.34,-36.04,FALSE
724,RNEBF1,Baixa do Feijão I,EOL.CV.RN.030932-0.01,NE,-5.32,-36.06,FALSE
725,RNEBF2,Baixa do Feijão II,EOL.CV.RN.030933-8.01,NE,-5.37,-36.03,FALSE
726,RNEBF3,Baixa do Feijão III,EOL.CV.RN.030934-6.01,NE,-5.3,-36.04,FALSE
727,RNECP3,Cabeço Preto III,EOL.CV.RN.031015-8.01,NE,-5.4,-35.98,FALSE
728,RNEMC1,Macambira I,EOL.CV.RN.031025-5.01,NE,-6.05,-36.56,FALSE
729,RNEMC2,Macambira II,EOL.CV.RN.031026-3.01,NE,-6.08,-36.53,FALSE
730,RNECV5,Campo dos Ventos V,EOL.CV.RN.031069-7.01,NE,-5.29,-35.95,FALSE
731,RNECV3,Campo dos Ventos III,EOL.CV.RN.031071-9.01,NE,-5.34,-35.97,FALSE
732,RNECV1,Campo dos Ventos I,EOL.CV.RN.031072-7.01,NE,-5.35,-35.94,FALSE
733,RNEDIM,Ventos de Santo Dimas,EOL.CV.RN.031372-6.01,NE,-5.23,-35.79,FALSE
734,RNEBEN,Ventos de São Benedito,EOL.CV.RN.031373-4.01,NE,-5.23,-35.79,FALSE
735,RNEMTO,Ventos de São Martinho,EOL.CV.RN.031412-9.01,NE,-5.28,-35.78,FALSE
736,RNEURS,Santa Úrsula,EOL.CV.RN.031425-0.01,NE,-5.29,-35.79,FALSE
737,RNEMON,Santa Mônica,EOL.CV.RN.031427-7.01,NE,-5.28,-35.8,FALSE
738,RNUE15,União dos Ventos 15,EOL.CV.RN.031642-3.01,NE,-5.28,-35.76,FALSE
739,RNUE14,União dos Ventos 14,EOL.CV.RN.031643-1.01,NE,-5.1,-35.85,FALSE
740,RNUE12,União dos Ventos 12,EOL.CV.RN.031645-8.01,NE,-5.09,-35.87,FALSE
741,RNECVE,Cabeço Vermelho,EOL.CV.RN.031651-2.01,NE,-5.51,-36.02,FALSE
742,RNUE16,União dos Ventos 16,EOL.CV.RN.031652-0.01,NE,-5.27,-35.77,FALSE
743,RNECVD,Cabeço Vermelho II,EOL.CV.RN.031665-2.01,NE,-5.49,-35.99,FALSE
744,RNUE13,União dos Ventos 13,EOL.CV.RN.031697-0.01,NE,-5.09,-35.86,FALSE
745,RNEVA5,Vila Amazonas V,EOL.CV.RN.031750-0.01,NE,-5,-36.95,FALSE
746,RNEVP2,Vila Pará II,EOL.CV.RN.031757-8.01,NE,-5.04,-36.91,FALSE
747,RNEVP1,Vila Pará I,EOL.CV.RN.031759-4.01,NE,-5.04,-36.91,FALSE
748,RNEVP3,Vila Pará III,EOL.CV.RN.031765-9.01,NE,-5.06,-36.91,FALSE
749,RNEARO,Aroeira,EOL.CV.RN.031801-9.01,NE,-5.34,-36.11,FALSE
750,RNEJER,Jerico,EOL.CV.RN.031802-7.01,NE,-5.37,-36.09,FALSE
751,RNESA1,Santana I,EOL.CV.RN.031810-8.01,NE,-6.03,-36.44,FALSE
752,RNESA2,Santana II,EOL.CV.RN.031811-6.01,NE,-6.07,-36.45,FALSE
753,RNUEG6,Calango 6,EOL.CV.RN.031812-4.01,NE,-6.01,-36.45,FALSE
754,RNEUBZ,Umbuzeiros,EOL.CV.RN.031826-4.01,NE,-5.41,-36.08,FALSE
755,RNEAV1,Aventura I,EOL.CV.RN.031887-6.01,NE,-5.37,-35.8,FALSE
756,RNECM1,UEE CMR_CUMARU 01,EOL.CV.RN.032207-5.01,NE,-5.15,-35.76,FALSE
757,RNECM2,CUMARU II,EOL.CV.RN.032208-3.01,NE,-5.18,-35.78,FALSE
758,RNECM3,CUMARU III,EOL.CV.RN.032209-1.01,NE,-5.13,-35.8,FALSE
759,RNEDOM,São Domingos,EOL.CV.RN.032215-6.01,NE,-5.21,-35.82,FALSE
760,RNEPRA,Pedra Rajada,EOL.CV.RN.032352-7.01,NE,-5.91,-36.31,FALSE
761,RNEPRD,Pedra Rajada II,EOL.CV.RN.032353-5.01,NE,-5.89,-36.29,FALSE
762,RNEENE,Esperança do Nordeste,EOL.CV.RN.032354-3.01,NE,-5.08,-35.96,FALSE
763,RNEPVN,Paraíso dos Ventos do Nordeste,EOL.CV.RN.032355-1.01,NE,-5.08,-35.94,FALSE
764,RNEPOT,Potiguar,EOL.CV.RN.032356-0.01,NE,-5.06,-35.9,FALSE
765,RNETS1,TERRA SANTA I,EOL.CV.RN.032495-7.01,NE,-5.25,-36.05,FALSE
766,RNETS2,TERRA SANTA II,EOL.CV.RN.032501-5.01,NE,-5.22,-36.1,FALSE
767,RNEMV1,MONTE VERDE I,EOL.CV.RN.032518-0.01,NE,-5.5,-36.19,FALSE
768,RNEMV2,MONTE VERDE II,EOL.CV.RN.032519-8.01,NE,-5.46,-36.2,FALSE
769,RNLE01,VENTOS DE SANTA LEIA 01,EOL.CV.RN.032593-7.01,NE,-5.7474873212031,-35.9015274354742,TRUE
770,RNEJD1,JANDAIRA I,EOL.CV.RN.032870-7.01,NE,-5.42,-36.02,FALSE
771,RNEAV2,AVENTURA II,EOL.CV.RN.033002-7.01,NE,-5.32,-35.73,FALSE
772,RNEAV3,AVENTURA III,EOL.CV.RN.033026-4.01,NE,-5.32,-35.75,FALSE
773,RNEFG1,FILGUEIRA I,EOL.CV.RN.033429-4.01,NE,-5.02,-36.99,FALSE
774,RNEFG2,FILGUEIRA II,EOL.CV.RN.033430-8.02,NE,-5.01,-37.03,FALSE
775,RNACA2,ACAUA II,EOL.CV.RN.033598-3.01,NE,-6.07,-36.67,FALSE
776,RNESB1,São Bento do Norte I,EOL.CV.RN.033640-8.01,NE,-5.13,-35.93,FALSE
777,RNESB2,São Bento do Norte II,EOL.CV.RN.033642-4.01,NE,-5.15,-35.94,FALSE
778,RNESB3,São Bento do Norte III,EOL.CV.RN.033643-2.01,NE,-5.07,-36.03,FALSE
779,RNESM1,São Miguel I,EOL.CV.RN.033644-0.01,NE,-5.15,-35.99,FALSE
780,RNESM2,São Miguel II,EOL.CV.RN.033645-9.01,NE,-5.16,-36,FALSE
781,RNESM3,São Miguel III,EOL.CV.RN.033647-5.01,NE,-5.16,-36,FALSE
782,RNEBE1,Boa Esperança I,EOL.CV.RN.033666-1.01,NE,-5.53,-35.97,FALSE
783,RNLE02,VENTOS DE SANTA LEIA 02,EOL.CV.RN.033681-5.01,NE,-5.7474873212031,-35.9015274354742,TRUE
784,RNLE04,VENTOS DE SANTA LEIA 04,EOL.CV.RN.033690-4.01,NE,-5.8,-36.1,FALSE
785,RNLE05,VENTOS DE SANTA LEIA 05,EOL.CV.RN.033691-2.01,NE,-5.78,-36.07,FALSE
786,RNEVAI,Vila Acre I,EOL.CV.RN.033752-8.01,NE,-5.06,-37.03,FALSE
787,RNEVA2,Vila Acre II,EOL.CV.RN.033753-6.01,NE,-5.04,-37.02,FALSE
788,RNES01,SANTO AGOSTINHO 1,EOL.CV.RN.033831-1.01,NE,-5.51,-36.22,FALSE
789,RNES02,SANTO AGOSTINHO 2,EOL.CV.RN.033833-8.01,NE,-5.53,-36.22,FALSE
790,RNES03,UEE S AGOSTINHO 03,EOL.CV.RN.033834-6.01,NE,-5.7474873212031,-35.9015274354742,TRUE
791,RNES04,SANTO AGOSTINHO 4,EOL.CV.RN.033835-4.01,NE,-5.58,-36.21,FALSE
792,RNES05,SANTO AGOSTINHO 5,EOL.CV.RN.033836-2.01,NE,-5.55,-36.19,FALSE
793,RNES06,SANTO AGOSTINHO 6,EOL.CV.RN.033838-9.01,NE,-5.57,-36.19,FALSE
794,RNES13,SANTO AGOSTINHO 13,EOL.CV.RN.033853-2.01,NE,-5.64,-36.24,FALSE
795,RNES14,SANTO AGOSTINHO 14,EOL.CV.RN.033854-0.01,NE,-5.64,-36.24,FALSE
796,RNES17,SANTO AGOSTINHO 17,EOL.CV.RN.033857-5.01,NE,-5.58,-36.26,FALSE
797,RNACA3,ACAUA III,EOL.CV.RN.033864-8.01,NE,-6.09,-36.62,FALSE
798,RNES18,SANTO AGOSTINHO 18,EOL.CV.RN.033872-9.01,NE,-5.55,-36.25,FALSE
799,RNES21,SANTO AGOSTINHO 21,EOL.CV.RN.033875-3.01,NE,-5.5,-36.21,FALSE
800,RNEMV3,MONTE VERDE III,EOL.CV.RN.033881-8.01,NE,-5.44,-36.22,FALSE
801,RNLE03,VENTOS DE SANTA LEIA 03,EOL.CV.RN.034937-2.01,NE,-5.84,-36.11,FALSE
802,RNEJD2,JANDAIRA II,EOL.CV.RN.035008-7.01,NE,-5.43,-36.02,FALSE
803,RNEAF1,AFONSO BEZERRA I,EOL.CV.RN.035158-0.01,NE,-5.32,-36.51,FALSE
804,RNEAF2,AFONSO BEZERRA II,EOL.CV.RN.035159-8.01,NE,-5.36,-36.47,FALSE
805,RNEAF3,AFONSO BEZERRA III,EOL.CV.RN.035160-1.01,NE,-5.41,-36.49,FALSE
806,RNEAF4,AFONSO BEZERRA IV,EOL.CV.RN.035161-0.01,NE,-5.35,-36.47,FALSE
807,RNEAG1,ANGICOS I,EOL.CV.RN.035165-2.01,NE,-5.32,-36.49,FALSE
808,RNEAG2,ANGICOS II,EOL.CV.RN.035166-0.01,NE,-5.36,-36.5,FALSE
809,RNESR1,SANTA ROSA E MUNDO NOVO I,EOL.CV.RN.035210-1.01,NE,-5.91,-36.15,FALSE
810,RNESR2,SANTA ROSA E MUNDO NOVO II,EOL.CV.RN.035211-0.01,NE,-5.88,-36.19,FALSE
811,RNESR3,SANTA ROSA E MUNDO NOVO III,EOL.CV.RN.035212-8.01,NE,-5.85,-36.26,FALSE
812,RNES25,SANTO AGOSTINHO 25,EOL.CV.RN.035214-4.01,NE,-5.57,-36.15,FALSE
813,RNES26,SANTO AGOSTINHO 26,EOL.CV.RN.035215-2.01,NE,-5.59,-36.15,FALSE
814,RNES27,SANTO AGOSTINHO 27,EOL.CV.RN.035216-0.01,NE,-5.56,-36.17,FALSE
815,RNEJD3,JANDAIRA III,EOL.CV.RN.035270-5.01,NE,-5.43,-36.01,FALSE
816,RNEJD4,JANDAIRA IV,EOL.CV.RN.035271-3.01,NE,-5.45,-36.01,FALSE
817,RNEPI2,Vila Piaui II,EOL.CV.RN.036973-0.01,NE,-5.1,-37.08,FALSE
818,RNECE1,Ventos de Vila Ceará I,EOL.CV.RN.036974-8.01,NE,-5.13,-37.04,FALSE
819,RNEPI1,Vila Piaui I,EOL.CV.RN.036975-6.01,NE,-5.1,-37.1,FALSE
820,RNECE2,Ventos de Vila Ceará II,EOL.CV.RN.036976-4.01,NE,-5.11,-37.04,FALSE
821,RNEAL2,VILA ALAGOAS II,EOL.CV.RN.036977-2.01,NE,-5.17,-37.09,FALSE
822,RNEPI3,Vila Piaui III,EOL.CV.RN.036979-9.01,NE,-5.1,-37.06,FALSE
823,RNECEA,VILA CEARA I,EOL.CV.RN.036980-2.01,NE,-5.1,-37.01,FALSE
824,RNEPB1,Ventos de Vila Paraiba I,EOL.CV.RN.036981-0.01,NE,-5.13,-36.98,FALSE
825,RNEMT1,VENTOS DE VILA MATO GROSSO I  ANTIGA VILA ALAGOAS,EOL.CV.RN.036984-5.01,NE,-5.17,-37.1,FALSE
826,RNEPB2,Ventos de Vila Paraíba II,EOL.CV.RN.036985-3.01,NE,-5.11,-36.98,FALSE
827,RNECM4,CUMARU IV,EOL.CV.RN.037020-7.01,NE,-5.16,-35.78,FALSE
828,RNECM5,CUMARU V,EOL.CV.RN.037021-5.01,NE,-5.14,-35.79,FALSE
829,RNESF1,SAO FERNANDO 1,EOL.CV.RN.037073-8.01,NE,-5.17,-36.01,FALSE
830,RNESF2,SAO FERNANDO 2,EOL.CV.RN.037075-4.01,NE,-5.18,-36.02,FALSE
831,RNESF3,SAO FERNANDO 3,EOL.CV.RN.037076-2.01,NE,-5.15,-36.04,FALSE
832,RNESF4,SAO FERNANDO 4,EOL.CV.RN.037077-0.01,NE,-5.12,-36.01,FALSE
833,RNEJR1,JERUSALEM I,EOL.CV.RN.037294-3.01,NE,-5.61,-36.11,FALSE
834,RNEJR2,JERUSALEM II,EOL.CV.RN.037295-1.01,NE,-5.63,-36.11,FALSE
835,RNEJR3,JERUSALEM III,EOL.CV.RN.037296-0.01,NE,-5.65,-36.1,FALSE
836,RNEJR4,JERUSALEM IV,EOL.CV.RN.037297-8.01,NE,-5.68,-36.1,FALSE
837,RNEJR5,JERUSALEM V,EOL.CV.RN.037298-6.01,NE,-5.68,-36.12,FALSE
838,RNEJR6,JERUSALEM VI,EOL.CV.RN.037299-4.01,NE,-5.69,-36.12,FALSE
839,RNESR4,SANTA ROSA E MUNDO NOVO IV,EOL.CV.RN.037663-9.01,NE,-5.87,-36.26,FALSE
840,RNESR5,SANTA ROSA E MUNDO NOVO V,EOL.CV.RN.037664-7.01,NE,-5.9,-36.2,FALSE
841,RNEAV4,AVENTURA IV,EOL.CV.RN.037949-2.01,NE,-5.34,-35.77,FALSE
842,RNEAV5,AVENTURA V,EOL.CV.RN.037950-6.01,NE,-5.34,-35.79,FALSE
843,RNECDU,COSTA DAS DUNAS,EOL.CV.RN.037959-0.01,NE,-5.23,-35.48,FALSE
844,RNEFTO,FAROL DE TOUROS,EOL.CV.RN.037999-9.01,NE,-5.25,-35.5,FALSE
845,RNEFIB,FIGUEIRA BRANCA,EOL.CV.RN.038002-4.01,NE,-5.24,-35.46,FALSE
846,RNEGAM,GAMELEIRA,EOL.CV.RN.038006-7.01,NE,-5.24,-35.45,FALSE
847,RNEMV4,MONTE VERDE IV,EOL.CV.RN.038035-0.01,NE,-5.48,-36.23,FALSE
848,RNERN2,Vila Rio Grande do Norte II,EOL.CV.RN.038140-3.01,NE,-5.14,-37.04,FALSE
849,RNERN1,Vila Rio Grande do Norte I,EOL.CV.RN.038141-1.01,NE,-5.16,-37.02,FALSE
850,RNEVS1,Vila Sergipe I,EOL.CV.RN.038142-0.01,NE,-5.15,-37.06,FALSE
851,RNEVS2,Vila Sergipe II,EOL.CV.RN.038143-8.01,NE,-5.16,-37.06,FALSE
852,RNEVS3,Vila Sergipe III,EOL.CV.RN.038144-6.01,NE,-5.18,-37.08,FALSE
853,RNEM01,VENTOS DE SANTA MARTINA 01,EOL.CV.RN.038310-4.01,NE,-5.73,-35.9,FALSE
854,RNEM09,VENTOS DE SANTA MARTINA 09,EOL.CV.RN.038318-0.01,NE,-5.82,-35.92,FALSE
855,RNEM10,VENTOS DE SANTA MARTINA 10,EOL.CV.RN.038319-8.01,NE,-5.85,-35.94,FALSE
856,RNEM11,VENTOS DE SANTA MARTINA 11,EOL.CV.RN.038320-1.01,NE,-5.78,-35.91,FALSE
857,RNEM12,VENTOS DE SANTA MARTINA 12,EOL.CV.RN.038321-0.01,NE,-5.76,-35.89,FALSE
858,RNEM13,VENTOS DE SANTA MARTINA 13,EOL.CV.RN.038322-8.01,NE,-5.71,-35.89,FALSE
859,RNEM14,VENTOS DE SANTA MARTINA 14,EOL.CV.RN.038323-6.01,NE,-5.71,-35.88,FALSE
860,RNEMA1,VILA MARANHAO I,EOL.CV.RN.038325-2.01,NE,-5.07,-36.99,FALSE
861,RNEMA2,VILA MARANHAO II,EOL.CV.RN.038326-0.01,NE,-5.05,-36.99,FALSE
862,RNEMA3,Vila Maranhao III,EOL.CV.RN.038327-9.01,NE,-5.12,-37,FALSE
863,RNEMV5,MONTE VERDE V,EOL.CV.RN.040584-1.01,NE,-5.49,-36.26,FALSE
864,RNEMV6,MONTE VERDE VI,EOL.CV.RN.040585-0.01,NE,-5.52,-36.28,FALSE
865,RNEEP1,VILA ESPIRITO SANTO I  ANTIGA POTIGUAR B21,EOL.CV.RN.040594-9.01,NE,-5.18,-37.11,FALSE
866,RNEEP2,VILA ESPIRITO SANTO II  ANTIGA POTIGUAR B22,EOL.CV.RN.040595-7.01,NE,-5.18,-37.13,FALSE
867,RNEEP3,VILA ESPIRITO SANTO III  ANTIGA POTIGUAR B23,EOL.CV.RN.040596-5.01,NE,-5.19,-37.15,FALSE
868,RNEEP4,VILA ESPIRITO SANTO IV  ANTIGA POTIGUAR B24,EOL.CV.RN.040597-3.01,NE,-5.22,-37.15,FALSE
869,RNEEP5,VILA ESPIRITO SANTO V  ANTIGA POTIGUAR B25,EOL.CV.RN.040598-1.01,NE,-5.23,-37.13,FALSE
870,RNEP31,POTIGUAR B 31,EOL.CV.RN.040600-7.01,NE,-5.26,-37.11,FALSE
871,RNEP32,POTIGUAR B 32,EOL.CV.RN.040601-5.01,NE,-5.18,-36.98,FALSE
872,RNEP33,POTIGUAR B 33,EOL.CV.RN.040602-3.01,NE,-5.26,-37.15,FALSE
873,RNEJ23,VENTOS DE SAO JANUARIO 23,EOL.CV.RN.040625-2.01,NE,-5.89,-35.96,FALSE
874,RNEBQ1,BOQUEIRAO I,EOL.CV.RN.040816-6.01,NE,-5.7,-36.13,FALSE
875,RNEBQ2,BOQUEIRAO II,EOL.CV.RN.040818-2.01,NE,-5.7,-36.06,FALSE
876,RNECT1,CATANDUBA RN I,EOL.CV.RN.043218-0.01,NE,-5.7474873212031,-35.9015274354742,TRUE
877,RNECT2,CATANDUBA RN II,EOL.CV.RN.043219-9.01,NE,-5.7474873212031,-35.9015274354742,TRUE
878,RNLE12,VENTOS DE SANTA LEIA 12,EOL.CV.RN.045010-3.01,NE,-5.7474873212031,-35.9015274354742,TRUE
879,RNLE13,VENTOS DE SANTA LEIA 13,EOL.CV.RN.045011-1.01,NE,-5.7474873212031,-35.9015274354742,TRUE
880,RNLE14,VENTOS DE SANTA LEIA 14,EOL.CV.RN.045012-0.01,NE,-5.7474873212031,-35.9015274354742,TRUE
881,RNTEB1,TODA ENERGIA DO BRASIL,EOL.CV.RN.046742-1.01,NE,-5.09,-37.1,FALSE
882,RNCA02,UEE CAJ1 CAJUI 01,EOL.CV.RN.047236-0.01,NE,-5.7474873212031,-35.9015274354742,TRUE
883,RNCB12,UEE CAJ1 CAJUI 12,EOL.CV.RN.047238-7.01,NE,-5.7474873212031,-35.9015274354742,TRUE
884,RNCC16,UEE CAJ1 CAJUI 16,EOL.CV.RN.047240-9.01,NE,-5.7474873212031,-35.9015274354742,TRUE
885,RNCB15,UEE CAJ1 CAJUI 15,EOL.CV.RN.049173-0.01,NE,-5.7474873212031,-35.9015274354742,TRUE
886,RNB13,UEE CAJ1 CAJUINAB13,EOL.CV.RN.049179-9.01,NE,-5.7474873212031,-35.9015274354742,TRUE
887,RNCB09,UEE CAJ1 CAJUI 09,EOL.CV.RN.049180-2.01,NE,-5.7474873212031,-35.9015274354742,TRUE
888,RSUECI,CIDREIRA,EOL.CV.RS.028712-1.01,S,-30.08,-50.17,FALSE
889,RSEVSO,Osório,EOL.CV.RS.028810-1.01,S,-29.96,-50.28,FALSE
890,RSEVSS,Sangradouro,EOL.CV.RS.028811-0.01,S,-29.97,-50.28,FALSE
891,RSPARQ,PARQUE EOLICO DE PALMARES,EOL.CV.RS.028855-1.01,S,-30.45,-50.39,FALSE
892,RSEVSI,Índios,EOL.CV.RS.028864-0.01,S,-29.98,-50.28,FALSE
893,RSEOS2,Osório 2,EOL.CV.RS.030286-4.01,S,-29.95,-50.25,FALSE
894,RSEVS3,Sangradouro 3,EOL.CV.RS.030330-5.01,S,-29.96,-50.32,FALSE
895,RSFAZD,FAZENDA ROSARIO 3,EOL.CV.RS.030334-8.01,S,-30.45,-50.42,FALSE
896,RSFAZE,FAZENDA ROSARIO,EOL.CV.RS.030343-7.01,S,-30.44,-50.38,FALSE
897,RSECC1,Cerro Chato I,EOL.CV.RS.030348-8.01,S,-30.84,-55.73,FALSE
898,RSECC2,Cerro Chato II,EOL.CV.RS.030349-6.01,S,-30.85,-55.69,FALSE
899,RSECC3,Cerro Chato III,EOL.CV.RS.030350-0.01,S,-30.8,-55.71,FALSE
900,RSEVS2,Sangradouro 2,EOL.CV.RS.030381-0.01,S,-29.94,-50.31,FALSE
901,RSEOS3,Osório 3,EOL.CV.RS.030449-2.01,S,-29.98,-50.26,FALSE
902,RSACA1,Atlântica I,EOL.CV.RS.030457-3.01,S,-30.32,-50.32,FALSE
903,RSEP2B,EOL Pontal 2B,EOL.CV.RS.030460-3.01,S,-30.28,-50.8,FALSE
904,RSACA4,Atlântica IV,EOL.CV.RS.030461-1.01,S,-30.29,-50.34,FALSE
905,RSACA2,Atlântica II,EOL.CV.RS.030462-0.01,S,-30.33,-50.32,FALSE
906,RSREB3,REB Cassino III,EOL.CV.RS.030468-9.01,S,-32.22,-52.2,FALSE
907,RSREB1,REB Cassino I,EOL.CV.RS.030469-7.01,S,-32.22,-52.2,FALSE
908,RSREB2,REB Cassino II,EOL.CV.RS.030477-8.01,S,-32.21,-52.21,FALSE
909,RSFAZN,FAZENDA ROSARIO 2,EOL.CV.RS.030478-6.01,S,-30.43,-50.4,FALSE
910,RSACA5,Atlântica V,EOL.CV.RS.030480-8.01,S,-30.29,-50.31,FALSE
911,RSEIN2,Índios 2,EOL.CV.RS.030734-3.01,S,-30,-50.33,FALSE
912,RSVC06,Verace VI,EOL.CV.RS.030740-8.01,S,-33.54,-53.28,FALSE
913,RSVC04,Verace IV,EOL.CV.RS.030741-6.01,S,-33.55,-53.23,FALSE
914,RSVC02,Verace II,EOL.CV.RS.030742-4.01,S,-33.51,-53.28,FALSE
915,RSVC01,Verace I,EOL.CV.RS.030745-9.01,S,-33.5,-53.27,FALSE
916,RSVC03,Verace III,EOL.CV.RS.030746-7.01,S,-33.52,-53.28,FALSE
917,RSVC07,Verace VII,EOL.CV.RS.030747-5.01,S,-33.57,-53.25,FALSE
918,RSVC09,Verace IX,EOL.CV.RS.030748-3.01,S,-33.58,-53.3,FALSE
919,RSVC10,Verace X,EOL.CV.RS.030749-1.01,S,-33.59,-53.27,FALSE
920,RSEIB1,EOL Ibirapuitã 1,EOL.CV.RS.030750-5.01,S,-30.77,-55.66,FALSE
921,RSCH04,EOL Chuí IV,EOL.CV.RS.030754-8.01,S,-33.67,-53.42,FALSE
922,RSVC08,Verace VIII,EOL.CV.RS.030755-6.01,S,-33.55,-53.31,FALSE
923,RSECC6,CERRO CHATO VI,EOL.CV.RS.030756-4.01,S,-30.78,-55.69,FALSE
924,RSCH05,EOL Chuí V,EOL.CV.RS.030760-2.01,S,-33.67,-53.42,FALSE
925,RSECDT,CERRO DOS TRINDADE,EOL.CV.RS.030762-9.01,S,-30.85,-55.75,FALSE
926,RSCH01,EOL Chuí I,EOL.CV.RS.030767-0.01,S,-33.66,-53.39,FALSE
927,RSECC4,CERRO CHATO IV,EOL.CV.RS.030784-0.01,S,-30.83,-55.75,FALSE
928,RSECC5,CERRO CHATO V,EOL.CV.RS.030786-6.01,S,-30.79,-55.75,FALSE
929,RSCH02,EOL Chuí II,EOL.CV.RS.030790-4.01,S,-33.66,-53.4,FALSE
930,RSMN02,Eólica Minuano II,EOL.CV.RS.030791-2.01,S,-33.72,-53.42,FALSE
931,RSCSE3,Corredor Senandes III,EOL.CV.RS.030819-6.01,S,-32.41,-52.36,FALSE
932,RSVC05,Verace V,EOL.CV.RS.030829-3.01,S,-33.54,-53.3,FALSE
933,RSVAR1,Vento Aragano,EOL.CV.RS.030833-1.01,S,-32.42,-52.37,FALSE
934,RSCSE4,Corredor Senandes IV,EOL.CV.RS.030840-4.01,S,-32.37,-52.34,FALSE
935,RSCSE2,Corredor Senandes II,EOL.CV.RS.030842-0.01,S,-32.39,-52.33,FALSE
936,RSMN01,Eólica Minuano I,EOL.CV.RS.030844-7.01,S,-33.72,-53.4,FALSE
937,RSEIN3,Índios 3,EOL.CV.RS.030894-3.01,S,-29.98,-50.33,FALSE
938,RSEP3B,Pontal 3B,EOL.CV.RS.030901-0.01,S,-30.26,-50.77,FALSE
939,RSUEXG,XANGRI-LÁ,EOL.CV.RS.031302-5.01,S,-29.78,-50.07,FALSE
940,RSEGAL,Galpões,EOL.CV.RS.031477-3.01,S,-30.88,-55.68,FALSE
941,RSECSE,Coxilha Seca,EOL.CV.RS.031487-0.01,S,-30.89,-55.74,FALSE
942,RSEP2A,Pontal 2A,EOL.CV.RS.031509-5.01,S,-30.27,-50.78,FALSE
943,RSECIN,Capão do Inglês,EOL.CV.RS.031510-9.01,S,-30.92,-55.71,FALSE
944,RSCH09,EOL Chuí 09,EOL.CV.RS.031517-6.01,S,-33.69,-53.38,FALSE
945,RSVC35,Verace 35,EOL.CV.RS.031539-7.01,S,-33.59,-53.36,FALSE
946,RSVC25,Verace 25,EOL.CV.RS.031541-9.01,S,-33.64,-53.33,FALSE
947,RSVC29,Verace 29,EOL.CV.RS.031557-5.01,S,-33.62,-53.36,FALSE
948,RSVC31,Verace 31,EOL.CV.RS.031558-3.01,S,-33.61,-53.33,FALSE
949,RSVC26,Verace 26,EOL.CV.RS.031559-1.01,S,-33.65,-53.3,FALSE
950,RSVC24,Verace 24,EOL.CV.RS.031561-3.01,S,-33.64,-53.31,FALSE
951,RSVC28,Verace 28,EOL.CV.RS.031578-8.01,S,-33.63,-53.35,FALSE
952,RSVC27,Verace 27,EOL.CV.RS.031600-8.01,S,-33.65,-53.32,FALSE
953,RSVC34,Verace 34,EOL.CV.RS.031601-6.01,S,-33.56,-53.35,FALSE
954,RSVC30,Verace 30,EOL.CV.RS.031602-4.01,S,-33.61,-53.34,FALSE
955,RSVC36,Verace 36,EOL.CV.RS.031610-5.01,S,-33.6,-53.37,FALSE
956,RSAG13,Aura Mangueira XIII,EOL.CV.RS.031646-6.01,S,-33.12,-52.9,FALSE
957,RSAG15,Aura Mangueira XV,EOL.CV.RS.031647-4.01,S,-33.16,-52.89,FALSE
958,RSAG12,Aura Mangueira XII,EOL.CV.RS.031653-9.01,S,-33.1,-52.88,FALSE
959,RSAR04,Aura Mirim IV,EOL.CV.RS.031663-6.01,S,-33.21,-52.93,FALSE
960,RSAG06,Aura Mangueira VI,EOL.CV.RS.031696-2.01,S,-33.05,-52.86,FALSE
961,RSAR08,Aura Mirim VIII,EOL.CV.RS.031699-7.01,S,-33.09,-52.9,FALSE
962,RSAG04,Aura Mangueira IV,EOL.CV.RS.031700-4.01,S,-33.07,-52.86,FALSE
963,RSAR06,Aura Mirim VI,EOL.CV.RS.031701-2.01,S,-33.1,-52.86,FALSE
964,RSAG17,Aura Mangueira XVII,EOL.CV.RS.031705-5.01,S,-33.1,-52.84,FALSE
965,RSAG11,Aura Mangueira XI,EOL.CV.RS.031719-5.01,S,-33.18,-52.92,FALSE
966,RSAG07,Aura Mangueira VII,EOL.CV.RS.031805-1.01,S,-33.18,-52.93,FALSE
967,RSAR02,Aura Mirim II,EOL.CV.RS.031806-0.01,S,-33.14,-52.91,FALSE
968,SCEOLC,EOLICA DE BOM JARDIM,EOL.CV.SC.028491-2.01,S,-28.38,-49.56,FALSE
969,SCPARQ,PARQUE EOLICO DO HORIZONTE,EOL.CV.SC.028674-5.01,S,-26.6,-52.71,FALSE
970,SCEOLI,AGUA DOCE,EOL.CV.SC.028793-8.01,S,-26.58,-51.68,FALSE
971,SCUPPT,Púlpito,EOL.CV.SC.029051-3.01,S,-28.47,-49.61,FALSE
972,SCEABA,Aquibatã,EOL.CV.SC.029052-1.01,S,-26.59,-51.75,FALSE
973,SCUSTO,SANTO ANTONIO,EOL.CV.SC.029053-0.01,S,-28.45,-49.59,FALSE
974,SCECCA,Cascata,EOL.CV.SC.029054-8.01,S,-26.59,-51.74,FALSE
975,SCUROU,Rio do Ouro,EOL.CV.SC.029055-6.01,S,-28.45,-49.61,FALSE
976,SCESTO,Salto,EOL.CV.SC.029056-4.01,S,-26.59,-51.81,FALSE
977,SCUBJD,Bom Jardim,EOL.CV.SC.029062-9.01,S,-28.44,-49.57,FALSE
978,SCECBO,Campo Belo,EOL.CV.SC.029065-3.01,S,-26.61,-51.74,FALSE
979,SCEAMO,Amparo,EOL.CV.SC.029069-6.01,S,-26.62,-51.57,FALSE
980,SCECAL,Cruz Alta,EOL.CV.SC.029070-0.01,S,-26.6,-51.73,FALSE
981,SCTUBA,TUBARAO P&D,EOL.CV.SC.032016-1.01,S,-28.48,-49.03,FALSE
982,SEBARR,BARRA DOS COQUEIROS,EOL.CV.SE.030296-1.01,NE,-10.81,-36.92,FALSE
