id,codigo,nome,capacidade_instalada,data_inicio_operacao,latitude,longitude,coordenadas_aproximadas
1,BAEA02,ASSURUA II,30,2016-04-05,-11.1638,-42.6707,FALSE
2,BAEA03,ASSURUA III,12.5,2018-04-21,-11.1677,-42.6849,FALSE
3,BAEA04,ASSURUA IV,30,2018-01-04,-11.0475,-42.6876,FALSE
4,BAEA05,ASSURUA V,20,2016-04-07,-11.1841,-42.7053,FALSE
5,BAEA07,ASSURUA VII,18,2016-04-05,-11.0711,-42.6788,FALSE
6,BAEABL,ABIL,23.7,2022-02-10,-14.2778,-42.5435,FALSE
7,BAEAN2,ANGICAL 2,10,2019-09-17,-14.419,-42.6419,FALSE
8,BAEANG,ANGICAL,12.95,2016-02-05,-14.3461,-42.6137,FALSE
9,BAEARA,ARAPAPA,4,2019-11-21,-14.4319,-42.6919,FALSE
10,BAEARZ,ARARINHA AZUL,21.15,2021-04-27,-14.4127,-42.6498,FALSE
11,BAEB01,VENTOS DA BAHIA I,28.6,2018-09-07,-11.9851,-41.528,FALSE
12,BAEB02,SERRA DA BABILONIA II,28.2,2018-12-12,-11.0955,-41.3057,FALSE
13,BAEB03,VENTOS DA BAHIA III,30.8,2018-09-12,-11.9747,-41.5221,FALSE
14,BAEB06,SERRA DA BABILONIA VI,25.85,2018-12-12,-11.049,-41.3252,FALSE
15,BAEB07,SERRA DA BABILONIA VII,28.2,2018-12-12,-11.0566,-41.3155,FALSE
16,BAEB08,SERRA DA BABILONIA VIII,28.2,2018-12-12,-11.0837,-41.301,FALSE
17,BAEB09,VENTOS DA BAHIA IX,28.6,2018-09-12,-11.9851,-41.4924,FALSE
18,BAEB0A,SERRA DA BABILONIA A,20.4,2021-05-18,-11.0783,-41.2983,FALSE
19,BAEB0B,SERRA DA BABILONIA B,30.6,2021-05-15,-11.1266,-41.3264,FALSE
20,BAEB0C,SERRA DA BABILONIA C,25.5,2021-06-19,-3.3174,-39.3695,FALSE
21,BAEB0D,SERRA DA BABILONIA D,30.6,2021-07-06,-11.1427,-41.3316,FALSE
22,BAEB0E,SERRA DA BABILONIA E,25.5,2021-07-24,-11.1427,-41.3316,FALSE
23,BAEB0F,SERRA DA BABILONIA F,20.4,2021-08-03,-6.5573,-35.0147,FALSE
24,BAEB10,SERRA DA BABILONIA X,28.2,2018-12-12,-11.0681,-41.3188,FALSE
25,BAEB11,SERRA DA BABILONIA XI,28.2,2018-12-12,-11.0769,-41.3216,FALSE
26,BAEB12,SERRA DA BABILONIA XII,28.2,2018-12-12,-11.0989,-41.3158,FALSE
27,BAEB13,VENTOS DA BAHIA XIII,49.5,2021-12-15,-12.1461,-41.494,FALSE
28,BAEB14,VENTOS DA BAHIA XIV,33,2021-12-03,-12.0585,-41.4394,FALSE
29,BAEB18,VENTOS DA BAHIA XVIII,28.6,2018-09-12,-12.0155,-41.4954,FALSE
30,BAEB23,VENTOS DA BAHIA XXIII,49.5,2022-02-02,-12.0752,-41.4953,FALSE
31,BAEB27,VENTOS DA BAHIA XXVII,49.5,2022-02-05,-12.0862,-41.469,FALSE
32,BAEB9,SERRA DA BABILONIA IX,28.2,2018-12-12,-11.0902,-41.3154,FALSE
33,BAEBAD,BARAUNAS II,25.85,2016-03-11,-9.8717,-41.0631,FALSE
34,BAEBAU,BARAUNAS I,32.9,2015-11-20,-9.8868,-41.1203,FALSE
35,BAEBCO,BANDA DE COURO,32.9,2016-03-11,-9.8478,-41.0538,FALSE
36,BAEBVT,BOA VISTA DA LAGOINHA,30,2018-06-29,-11.7614,-41.3893,FALSE
37,BAEC08,CAMPO LARGO VIII,33.6,2021-05-04,-10.46,-41.3932,FALSE
38,BAEC09,CAMPO LARGO IX,25.2,2021-02-23,-10.4626,-41.394,FALSE
39,BAEC10,CAMPO LARGO X,33.6,2021-03-05,-10.5067,-41.4868,FALSE
40,BAEC11,CAMPO LARGO XI,16.8,2021-09-02,-10.4027,-41.4464,FALSE
41,BAEC12,CAMPO LARGO XII,54.6,2021-08-20,-10.4054,-41.4486,FALSE
42,BAEC13,CAMPO LARGO XIII,42,2021-09-02,-10.4025,-41.4935,FALSE
43,BAEC14,CAMPO LARGO XIV,21,2021-03-31,-10.4468,-41.5008,FALSE
44,BAEC17,CAMPO LARGO XVII,29.4,2021-04-07,-10.463,-41.5141,FALSE
45,BAEC19,CAMPO LARGO XIX,33.6,2021-05-21,-10.4409,-41.5723,FALSE
46,BAEC20,CAMPO LARGO XX,37.8,2021-06-25,-10.4805,-41.5769,FALSE
47,BAEC22,CAMPO LARGO XXII,33.6,2021-06-25,-10.5094,-41.6117,FALSE
48,BAECA3,CAPOEIRAS III,27.5,2018-04-12,-11.1761,-42.7386,FALSE
49,BAECAC,ACACIA,16.2,2022-05-18,-13.9156,-42.6978,FALSE
50,BAECAI,CAITITU,22.2,2016-02-16,-14.4528,-42.641,FALSE
51,BAECAR,CARCARA,10,2020-02-14,-14.2836,-42.5933,FALSE
52,BAECAU,ACAUA,6,2019-11-13,-14.4128,-42.6599,FALSE
53,BAECLA,CAMPO LARGO I,29.7,2018-09-21,-10.4654,-41.4935,FALSE
54,BAECLB,CAMPO LARGO II,29.7,2018-12-21,-10.511,-41.4545,FALSE
55,BAECLC,CAMPO LARGO III,29.7,2018-08-22,-10.5029,-41.5401,FALSE
56,BAECLD,CAMPO LARGO IV,29.7,2018-08-22,-10.4898,-41.5115,FALSE
57,BAECLE,CAMPO LARGO V,29.7,2018-10-31,-10.423,-41.4285,FALSE
58,BAECLF,CAMPO LARGO VI,29.7,2018-11-02,-10.4211,-41.3957,FALSE
59,BAECLG,CAMPO LARGO VII,29.7,2018-07-04,-10.5229,-41.4936,FALSE
60,BAECLO,CAMPO LARGO XV,29.7,2018-11-23,-10.5089,-41.4528,FALSE
61,BAECLP,CAMPO LARGO XVI,29.7,2018-09-28,-10.4408,-41.4676,FALSE
62,BAECLR,CAMPO LARGO XVIII,29.7,2018-10-31,-10.4448,-41.4975,FALSE
63,BAECLU,CAMPO LARGO XXI,29.7,2018-10-06,-10.4496,-41.4481,FALSE
64,BAECNA,CASA NOVA A,27,2020-12-24,-9.2602,-41.0168,FALSE
65,BAECND,CASA NOVA II,32.9,2017-12-09,-9.2706,-41.0501,FALSE
66,BAECNT,CASA NOVA III,28.2,2018-02-28,-9.3148,-41.1175,FALSE
67,BAECO2,CORRUPIAO 2,18.8,2021-04-09,-14.4154,-42.6411,FALSE
68,BAECO3,CORRUPIAO 3,10,2020-02-13,-14.2702,-42.5755,FALSE
69,BAECOQ,COQUEIRINHO,29.6,2016-02-17,-14.4199,-42.6287,FALSE
70,BAECOR,CORRUPIAO,27.75,2016-02-05,-14.2927,-42.5853,FALSE
71,BAECP1,CURRAL DE PEDRAS I,20,2018-04-12,-11.1339,-42.6543,FALSE
72,BAECP2,CURRAL DE PEDRAS II,27.5,2018-04-13,-11.2118,-42.7012,FALSE
73,BAECQ2,COQUEIRINHO 2,16,2019-09-19,-14.5031,-42.6514,FALSE
74,BAECR1,CRISTALANDIA I,30,2017-09-01,-13.9312,-41.5609,FALSE
75,BAECR2,CRISTALANDIA II,30,2017-09-01,-13.9701,-41.5502,FALSE
76,BAECR3,CRISTALANDIA  III,30,2017-09-01,-14.0095,-41.5333,FALSE
77,BAECT2,CAITITU 2,10,2020-01-28,-14.3318,-42.6128,FALSE
78,BAECT3,CAITITU 3,10,2020-01-29,-14.3202,-42.6103,FALSE
79,BAECTA,CAETITE A,23.8,2015-09-09,-14.1416,-42.4782,FALSE
80,BAECTB,CAETITE B,22.1,2015-09-09,-14.1147,-42.4748,FALSE
81,BAECTC,CAETITE C,8.5,2015-09-09,-14.1082,-42.4746,FALSE
82,BAEDF1,DELFINA I,28,2017-10-31,-10.0575,-40.9787,FALSE
83,BAEDF2,DELFINA II,28,2017-11-02,-10.0369,-40.9586,FALSE
84,BAEDF3,DELFINA III,28,2017-11-02,-10.0044,-40.9342,FALSE
85,BAEDF4,DELFINA IV,8,2017-10-31,-10.0657,-40.9809,FALSE
86,BAEDF5,DELFINA V,28,2017-10-31,-10.0229,-40.9284,FALSE
87,BAEDF6,DELFINA VI,30,2017-10-31,-10.0286,-40.9526,FALSE
88,BAEDF7,DELFINA VII,30,2017-10-31,-9.986,-40.9111,FALSE
89,BAEDF8,ZEUS II,29.4,2019-08-30,-9.9699,-40.8816,FALSE
90,BAEDI2,DIAMANTE II,17.5,2018-04-13,-11.1056,-42.6731,FALSE
91,BAEDI3,DIAMANTE III,17.5,2018-04-13,-11.0904,-42.683,FALSE
92,BAEFDS,FOLHA DE SERRA,21,2022-02-02,-14.55,-42.5806,FALSE
93,BAEIM2,INHAMBU 2,16.45,2021-04-07,-14.4514,-42.6505,FALSE
94,BAEINH,INHAMBU,31.45,2016-02-05,-14.3912,-42.5939,FALSE
95,BAEJ20,VENTOS DE SAO JANUARIO 20,50.4,2020-05-14,-10.4419,-40.4614,FALSE
96,BAEJ21,VENTOS DE SAO JANUARIO 21,50.4,2020-06-03,-10.4267,-40.5056,FALSE
97,BAEJ22,VENTOS DE SAO JANUARIO 22,50.4,2020-07-31,-10.4736,-40.5239,FALSE
98,BAEJAB,JABUTICABA,9,2022-02-10,-14.3257,-42.5719,FALSE
99,BAEJCE,JACARANDA DO CERRADO,21,2022-02-02,-14.5562,-42.582,FALSE
100,BAELA1,LARANJEIRAS I,27.5,2018-04-13,-11.1228,-42.6841,FALSE
101,BAELA3,LARANJEIRAS III,25,2019-04-24,-11.0354,-42.6321,FALSE
102,BAELA5,LARANJEIRAS V,25,2018-04-13,-11.1145,-42.6711,FALSE
103,BAELA9,LARANJEIRAS IX,25,2019-04-24,-11.0812,-42.618,FALSE
104,BAEMBU,MORRO BRANCO I,32.9,2015-11-04,-9.8497,-41.0565,FALSE
105,BAEMUS,MUSSAMBE,32.9,2015-10-14,-9.8628,-41.0834,FALSE
106,BAENGI,ANGICO,8.1,2022-05-24,-13.8948,-42.7027,FALSE
107,BAEPGO,ESPIGAO,10.08,2016-01-01,-14.477,-42.5853,FALSE
108,BAEPPG,PAPAGAIO,10,2019-10-04,-14.4815,-42.6409,FALSE
109,BAEPSA,PAU SANTO,18.9,2022-03-22,-14.1,-42.0336,FALSE
110,BAES08,VENTOS DE SANTA ESPERANCA 08,25.2,2022-02-02,-11.587,-41.3751,FALSE
111,BAES13,VENTOS DE SANTA ESPERANCA 13,33.6,2022-01-27,-11.5834,-41.3568,FALSE
112,BAES15,VENTOS DE SANTA ESPERANCA 15,46.2,2022-01-13,-11.5583,-41.3017,FALSE
113,BAES16,VENTOS DE SANTA ESPERANCA 16,42,2022-01-14,-11.5126,-41.2787,FALSE
114,BAES17,VENTOS DE SANTA ESPERANCA 17,42,2021-11-13,-11.508,-41.2946,FALSE
115,BAES21,VENTOS DE SANTA ESPERANCA 21,46.2,2021-11-13,-11.5501,-41.2845,FALSE
116,BAES22,VENTOS DE SANTA ESPERANCA 22,46.2,2021-12-30,-11.5293,-41.2728,FALSE
117,BAES25,VENTOS DE SANTA ESPERANCA 25,25.2,2021-12-31,-11.5941,-41.3396,FALSE
118,BAES26,VENTOS DE SANTA ESPERANCA 26,46.2,2021-11-13,-11.5316,-41.3209,FALSE
119,BAESAC,VENTOS DE SANTA APARECIDA,27.3,2018-11-24,-10.913,-41.2214,FALSE
120,BAESAU,VENTOS DE SANTA AURORA,27.3,2018-11-24,-10.9761,-41.2199,FALSE
121,BAESBE,VENTOS DA SANTA BEATRIZ,27.3,2018-11-24,-10.9397,-41.2289,FALSE
122,BAESEF,SERRA DO FOGO,31.185,2020-12-05,-9.8051,-41.0227,FALSE
123,BAESEM,VENTOS DE SANTA EMILIA,27.3,2018-11-14,-11.0064,-41.2271,FALSE
124,BAESEV,SERRA DO VENTO,31.185,2020-11-19,-9.816,-41.0389,FALSE
125,BAESGA,VENTOS DO SAO GABRIEL,27.3,2018-11-24,-10.9582,-41.2334,FALSE
126,BAESMR,VENTOS DO SAO MARIO,30,2018-06-29,-11.5874,-41.2285,FALSE
127,BAESPL,VENTOS DO SAO PAULO,28,2018-06-29,-11.5787,-41.3034,FALSE
128,BAESSA,SAO SALVADOR,18.9,2022-05-18,-13.8379,-42.6486,FALSE
129,BAESTA,VENTOS DO SANTO ABRAAO,28,2018-06-29,-11.6249,-41.3521,FALSE
130,BAESTD,VENTOS DA SANTA DULCE,28,2018-06-29,-11.5985,-41.3394,FALSE
131,BAESTE,VENTOS DA SANTA ESPERANCA,28,2018-06-29,-11.6075,-41.3157,FALSE
132,BAETAB,TABUA,15,2022-02-10,-14.3159,-42.5721,FALSE
133,BAETAM,TAMANDUA MIRIM,29.6,2016-02-16,-14.3776,-42.6094,FALSE
134,BAETBQ,TABOQUINHA,18.9,2022-06-08,-13.9077,-42.705,FALSE
135,BAETE2,TEIU 2,8,2019-11-20,-14.4452,-42.6917,FALSE
136,BAETE3,TEIU 3,23.5,2021-12-04,-14.4088,-42.6486,FALSE
137,BAETEI,TEIU,16.65,2016-02-05,-14.3381,-42.5911,FALSE
138,BAETM2,TAMANDUA MIRIM 2,16,2019-11-14,-14.4688,-42.6712,FALSE
139,BAEUMC,UMBURANA DE CHEIRO,31.185,2020-12-31,-9.8355,-41.0427,FALSE
140,BAEUR8,UMBURANAS 8,25,2019-02-06,-10.6045,-41.5,FALSE
141,BAEURA,UMBURANAS 1,25,2019-04-24,-10.6813,-41.5299,FALSE
142,BAEURB,UMBURANAS 2,25,2019-04-05,-10.6638,-41.507,FALSE
143,BAEURC,UMBURANAS 3,20,2019-04-09,-10.6618,-41.5209,FALSE
144,BAEURE,UMBURANAS 5,17.5,2019-03-30,-10.6271,-41.5011,FALSE
145,BAEURF,UMBURANAS 6,20,2019-03-21,-10.6624,-41.5358,FALSE
146,BAEURI,UMBURANAS 9,17.5,2019-03-13,-10.7191,-41.603,FALSE
147,BAEURJ,UMBURANAS 10,20,2019-03-19,-10.7098,-41.5869,FALSE
148,BAEURK,UMBURANAS 11,15,2019-02-21,-10.7061,-41.5705,FALSE
149,BAEURM,UMBURANAS 13,20,2019-03-08,-10.6663,-41.57,FALSE
150,BAEURO,UMBURANAS 15,20,2019-04-05,-10.6178,-41.5308,FALSE
151,BAEURP,UMBURANAS 16,25,2019-02-06,-10.5938,-41.5138,FALSE
152,BAEURQ,UMBURANAS 17,22.5,2019-02-06,-10.7118,-41.6098,FALSE
153,BAEURR,UMBURANAS 18,7.5,2019-03-15,-10.5969,-41.5336,FALSE
154,BAEURS,UMBURANAS 19,25,2019-02-22,-10.6846,-41.6105,FALSE
155,BAEURU,UMBURANAS 21,22.5,2019-01-04,-10.6617,-41.604,FALSE
156,BAEURW,UMBURANAS 23,15,2019-03-13,-10.6373,-41.6102,FALSE
157,BAEURY,UMBURANAS 25,17.5,2019-03-01,-10.6523,-41.5799,FALSE
158,BAEVAQ,VAQUETA,23.4,2022-02-10,-14.2596,-42.5543,FALSE
159,BAEVC1,VENTOS DE CAMPO FORMOSO I,30,2016-01-23,-10.6286,-40.6858,FALSE
160,BAEVC2,VENTOS DE CAMPO FORMOSO II,30,2015-12-08,-10.5198,-40.6117,FALSE
161,BAPDR3,PEDRA DO REINO III,18,2013-06-07,-9.4986,-40.879,FALSE
162,BAPEDD,PEDRA DO REINO IV,20,2018-12-27,-9.5029,-40.9142,FALSE
163,BAPEDO,PEDRA DO REINO,30,2013-02-04,-9.5175,-40.8864,FALSE
164,BASJ01,VENTOS DE SAO JANUARIO,33.6,2020-10-02,-10.3227,-40.4367,FALSE
165,BASJ03,VENTOS DE SAO JANUARIO 03,33.6,2020-11-06,-10.3105,-40.4404,FALSE
166,BASJ04,VENTOS DE SAO JANUARIO 4,29.4,2020-09-15,-10.3869,-40.4589,FALSE
167,BASJ05,VENTOS DE SAO JANUARIO 05,42,2020-12-03,-10.2898,-40.4341,FALSE
168,BASJ06,VENTOS DE SAO JANUARIO 06,37.8,2020-11-30,-10.4109,-40.4664,FALSE
169,BASJ10,VENTOS DE SAO JANUARIO 10,42,2021-01-30,-5.1529,-36.0422,FALSE
170,BASJ11,VENTOS DE SAO JANUARIO 11,42,2021-01-06,-10.4409,-41.5723,FALSE
171,BASJ13,VENTOS DE SAO JANUARIO 13,42,2020-09-04,-10.2597,-40.464,FALSE
172,BASJ14,VENTOS DE SAO JANUARIO 14,42,2020-09-04,-10.3678,-40.4422,FALSE
173,BAUEAR,DOS ARACAS,31.86,2014-10-11,-14.1296,-42.5597,FALSE
174,BAUEAT,AMETISTA,28.56,2015-03-04,-14.1324,-42.5924,FALSE
175,BAUEAV,ALVORADA,8,2014-07-04,-14.1852,-42.5911,FALSE
176,BAUEBR,BORGO,20.16,2016-01-01,-14.5084,-42.5867,FALSE
177,BAUECB,CANDIBA,9.6,2014-07-04,-14.1857,-42.6466,FALSE
178,BAUECE,CAETITE,30.24,2016-01-01,-14.4689,-42.5836,FALSE
179,BAUECR,CRISTAL,29.9,2017-11-10,-11.7965,-41.3934,FALSE
180,BAUEDA,DAMASCENA,30,2016-04-30,-11.8567,-41.4742,FALSE
181,BAUEDP,DA PRATA,21.84,2014-10-11,-13.9499,-42.6382,FALSE
182,BAUEDR,DOIS RIACHOS,30,2015-11-14,-11.8225,-41.4588,FALSE
183,BAUEDU,DOURADOS,28.56,2015-03-04,-13.8633,-42.7281,FALSE
184,BAUEEP,ESPERANCA,28,2017-12-21,-11.8616,-41.4161,FALSE
185,BAUEGB,GUANAMBI,20.8,2014-07-04,-14.2017,-42.6183,FALSE
186,BAUEGP,GUIRAPA,28.8,2014-07-04,-14.2189,-42.6414,FALSE
187,BAUEIH,ILHEUS,11.2,2014-07-04,-13.8823,-42.6631,FALSE
188,BAUEIP,IGAPORA,30.4,2014-07-04,-13.8606,-42.6574,FALSE
189,BAUEJO,JOANA,28.2,2014-09-26,-13.9185,-42.6205,FALSE
190,BAUELA,LICINIO DE ALMEIDA,24,2014-07-04,-14.1769,-42.6541,FALSE
191,BAUEMA,MARON,30.24,2015-03-04,-14.0857,-42.6203,FALSE
192,BAUEMC,MACAUBAS,35.07,2012-07-06,-12.3512,-42.3385,FALSE
193,BAUEMI,EMILIANA,28.2,2014-10-09,-13.91,-42.6241,FALSE
194,BAUEMN,MANICOBA,30,2017-12-06,-11.8934,-41.4583,FALSE
195,BAUEMR,MORRAO,30.24,2014-10-11,-14.0885,-42.6827,FALSE
196,BAUENC,NOSSA SENHORA DA CONCEICAO,28.8,2014-07-04,-13.8957,-42.6769,FALSE
197,BAUENH,NOVO HORIZONTE,30.06,2012-07-06,-12.3124,-42.3511,FALSE
198,BAUEPB,PEDRA BRANCA,30,2013-03-02,-9.8746,-41.0957,FALSE
199,BAUEPD,PINDAI,24,2014-07-04,-14.2021,-42.6589,FALSE
200,BAUEPI,PILOES,30.24,2015-03-04,-14.0292,-42.6161,FALSE
201,BAUEPL,SAO PEDRO DO LAGO,30,2013-03-02,-9.8863,-41.1033,FALSE
202,BAUEPO,PELOURINHO,21.84,2016-01-01,-14.5292,-42.5867,FALSE
203,BAUEPR,PRIMAVERA,29.9,2017-11-10,-11.7334,-41.373,FALSE
204,BAUEPS,PORTO SEGURO,6.4,2014-07-04,-13.8629,-42.6727,FALSE
205,BAUEPT,PLANALTINA,27.2,2014-07-04,-13.9879,-42.6389,FALSE
206,BAUEPV,PAJEU DO VENTO,25.6,2014-07-04,-14.0148,-42.6339,FALSE
207,BAUERV,RIO VERDE,30.4,2014-07-04,-14.164,-42.6006,FALSE
208,BAUESE,SERAIMA,30.24,2014-10-11,-14.1473,-42.7119,FALSE
209,BAUESG,SETE GAMELEIRAS,30,2013-03-26,-9.8637,-41.1041,FALSE
210,BAUESJ,SAO JUDAS,29.9,2017-12-01,-11.6643,-41.362,FALSE
211,BAUESP,SERRA DO ESPINHACO,18.48,2016-01-01,-14.4957,-42.5829,FALSE
212,BAUESR,SEABRA,30.06,2012-07-06,-12.2742,-42.3662,FALSE
213,BAUESS,SERRA DO SALTO,19.2,2014-07-04,-14.1555,-42.6382,FALSE
214,BAUET1,CAETITE 1,30,2014-10-03,-14.1632,-42.4845,FALSE
215,BAUET2,CAETITE 2,30,2014-10-08,-14.185,-42.503,FALSE
216,BAUET3,CAETITE 3,30,2014-10-08,-14.2194,-42.507,FALSE
217,BAUETQ,TANQUE,30,2014-10-11,-14.1025,-42.6107,FALSE
218,BAUEVA,VENTOS DA ANDORINHA,30,2015-11-14,-10.5833,-40.6375,FALSE
219,BAUEVG,VENTOS DE GUARAS I,30,2016-04-26,-10.6061,-40.6545,FALSE
220,BAUEVM,VENTOS DE MORRINHOS,30,2015-11-14,-10.5695,-40.6292,FALSE
221,BAUEVN,VENTOS DO NORDESTE,23.52,2014-10-11,-14.1197,-42.6142,FALSE
222,BAUEVS,VENTOS DO SERTAO,30,2016-01-01,-10.5583,-40.5692,FALSE
223,BAENGI,ANGICO,8.1,2022-05-24,-13.8948,-42.7027,FALSE
224,BAETBQ,TABOQUINHA,21.6,2022-06-08,-13.9077,-42.705,FALSE
225,BAEAMC,AMESCLA,13.5,2022-08-19,-13.84,-42.7,FALSE
226,BAEGEL,ANGELIM,21.6,2022-09-16,-14.04,-42.65,FALSE
227,BAEBAB,BARBATIMAO,16.2,2022-09-16,-13.83,-42.7,FALSE
228,BAECED,CEDRO,3,2022-08-19,-14.33,-42.57,FALSE
229,BAEFAC,FACHEIO,16.2,2022-08-20,-13.99,-42.69,FALSE
230,BAEIBM,IMBURANA MACHO,16.2,2022-08-19,-13.86,-42.69,FALSE
231,BAEJAT,JATAI,16.2,2022-08-19,-13.83,-42.69,FALSE
232,BAEJUA,JUAZEIRO,18.9,2022-08-19,-13.84,-42.69,FALSE
233,BAESBU,SABIU,13.5,2022-08-19,-14.02,-42.66,FALSE
234,BAEUMB,UMBUZEIRO,18.9,2022-08-19,-13.98,-42.67,FALSE
235,032113-3,VELLOZIA,16.5,2022-08-19,-12.2023374625433,-41.5941335420757,TRUE
236,BAEMNN,MANINEIRO,13.8,2022-07-16,-14.02,-42.68,FALSE
237,BAEPDA,PAU D'AGUA,18,2022-08-19,-14.54,-42.58,FALSE
238,BAEMLG,MULUNGU,13.5,2022-09-14,-14.01,-42.67,FALSE
239,BAEQUN,QUINA,10.8,2022-08-16,-13.98,-42.68,FALSE
240,BAMBD,MORRO BRANCO II,31.185,2022-08-10,-9.84,-41.04,FALSE
241,BATU02,TUCANO II,24.8,2023-03-30,-11.19,-38.7816,FALSE
242,BATU03,TUCANO III,43.4,2022-11-21,-11.3294,-38.8044,FALSE
243,BATU04,TUCANO IV,43.4,2023-03-01,-11.42,-38.8127,FALSE
244,BATU06,TUCANO VI,49.6,2022-07-09,-11.2277,-38.7919,FALSE
245,BATU07,TUCANO VII,55.8,2022-12-29,-11.2563,-38.8111,FALSE
246,BATU08,TUCANO VIII,49.6,2023-03-05,-11.2858,-38.7988,FALSE
247,BATU10,TUCANO X,43.4,2022-10-31,-11.2983,-38.8011,FALSE
248,BAJA15,VENTOS DE SAO JANUARIO 15,72,2025-01-03,-11.08,-41.27,FALSE
249,032804-9,AURA CAETITE 03,29.4,2025-01-21,-12.2023374625433,-41.5941335420757,TRUE
250,032805-7,AURA CAETITE 04,21.2,2025-01-21,-12.2023374625433,-41.5941335420757,TRUE
251,BAJA16,VENTOS DE SAO JANUARIO 16,72,2025-06-07,-11.1,-41.28,FALSE
252,BAJA17,VENTOS DE SAO JANUARIO 17,72,2025-01-03,-11.13,-41.29,FALSE
253,BAJA18,VENTOS DE SAO JANUARIO 18,72,2023-06-16,-11.13,-41.3,FALSE
254,BASV03,VENTOS DE SAO VITOR 03,31,2023-02-07,-10.93,-42.55,FALSE
255,BASV04,VENTOS DE SAO VITOR 04,31,2023-02-07,-10.94,-42.56,FALSE
256,BASV10,VENTOS DE SAO VITOR 10,43.4,2023-03-31,-10.95,-42.53,FALSE
257,BASV11,VENTOS DE SAO VITOR 11,31,2023-03-31,-10.93,-42.54,FALSE
258,BASV12,VENTOS DE SAO VITOR 12,31,2023-08-06,-10.99,-42.52,FALSE
259,BASV14,VENTOS DE SAO VITOR 14,37.2,2023-05-16,-10.99,-42.5,FALSE
260,BASV01,VENTOS DE SAO VITOR 01,31,2023-02-07,-10.9,-42.54,FALSE
261,BASV02,VENTOS DE SAO VITOR 02,31,2023-02-07,-10.91,-42.55,FALSE
262,BASV05,VENTOS DE SAO VITOR 05,31,2023-02-08,-10.96,-42.56,FALSE
263,BASV06,VENTOS DE SAO VITOR 06,31,2022-08-06,-10.97,-42.56,FALSE
264,BASV07,VENTOS DE SAO VITOR 07,43.4,2023-08-05,-10.99,-42.56,FALSE
265,BASV08,VENTOS DE SAO VITOR 08,31,2023-05-02,-10.99,-42.54,FALSE
266,BASV09,VENTOS DE SAO VITOR 09,31,2023-05-02,-10.97,-42.54,FALSE
267,BASV13,VENTOS DE SAO VITOR 13,31,2023-08-05,-10.98,-42.51,FALSE
268,035172-5,AURA TANQUE NOVO 03,12.6,2025-01-21,-12.2023374625433,-41.5941335420757,TRUE
269,BAEB23,VENTOS DA BAHIA XXIII,49.5,2022-08-06,-12.0752,-41.4953,FALSE
270,BATU16,TUCANO XVI,12.4,2023-01-24,-11.3597,-38.8038,FALSE
271,BAB20,BARAUNAS XX,31.185,2022-08-15,-9.79,-41.01,FALSE
272,037004-5,CAETITE D,50.4,2022-11-15,-12.2023374625433,-41.5941335420757,TRUE
273,037005-3,CAETITE E,37.8,2023-02-06,-12.2023374625433,-41.5941335420757,TRUE
274,037006-1,CAETITE F,25.2,2023-03-30,-12.2023374625433,-41.5941335420757,TRUE
275,BAJA19,VENTOS DE SAO JANUARIO 19,72,2023-06-16,-12.2023374625433,-41.5941335420757,TRUE
276,BAB15,BARAUNAS XV  ANTIGA MASSAROCA I,48.51,2022-11-21,-9.75,-40.98,FALSE
277,BABAQ,BARAUNAS IV  ANTIGA MASSAROCA II,41.58,2023-01-02,-9.67,-41.11,FALSE
278,BAVE01,VENTOS DE SANTA EUGENIA 01,51.3,2023-04-05,-11.39,-42.15,FALSE
279,BAVE02,VENTOS DE SANTA EUGENIA 02,11.4,2023-04-29,-11.37,-42.18,FALSE
280,BAVE03,VENTOS DE SANTA EUGENIA 03,39.9,2023-03-06,-11.41,-42.16,FALSE
281,BAVE05,VENTOS DE SANTA EUGENIA 05,34.2,2023-06-06,-11.45,-42.17,FALSE
282,BAVE06,VENTOS DE SANTA EUGENIA 06,34.2,2023-12-24,-11.49,-42.13,FALSE
283,BAVE07,VENTOS DE SANTA EUGENIA 07,17.1,2023-04-29,-11.38,-42.18,FALSE
284,BAVE08,VENTOS DE SANTA EUGENIA 08,28.5,2023-06-06,-11.47,-42.17,FALSE
285,038085-7,VENTOS DE SANTA EUGENIA 09,39.9,2023-08-21,-12.2023374625433,-41.5941335420757,TRUE
286,BAVE10,VENTOS DE SANTA EUGENIA 10,45.6,2023-11-13,-11.5,-42.15,FALSE
287,BAVE11,VENTOS DE SANTA EUGENIA 11,28.5,2023-11-28,-11.44,-42.16,FALSE
288,BAVE12,VENTOS DE SANTA EUGENIA 12,39.9,2023-03-06,-11.43,-42.16,FALSE
289,038089-0,VENTOS DE SANTA EUGENIA 13,45.6,2023-07-05,-12.2023374625433,-41.5941335420757,TRUE
290,BASM01,VENTOS DE SANTA EUGENIA 14,22.8,2023-12-26,-12.2023374625433,-41.5941335420757,TRUE
291,040777-1,BREJINHOS A,37.8,2023-07-15,-12.2023374625433,-41.5941335420757,TRUE
292,040778-0,BREJINHOS B,42,2023-08-04,-12.2023374625433,-41.5941335420757,TRUE
293,BAOI21,OITIS 21,44,2023-01-01,-9.05,-41.71,FALSE
294,BAOI22,OITIS 22,49.5,2022-09-08,-9.07,-41.71,FALSE
295,044878-8,SERRA DA MANGABEIRA,79.8,2023-10-15,-12.2023374625433,-41.5941335420757,TRUE
296,044940-7,AROEIRA 1,30,2026-03-08,-12.2023374625433,-41.5941335420757,TRUE
297,044959-8,AURA CAETITE 01,29.4,2025-01-21,-12.2023374625433,-41.5941335420757,TRUE
298,044960-1,AURA CAETITE 02,29.4,2025-01-21,-12.2023374625433,-41.5941335420757,TRUE
299,044961-0,AURA TANQUE NOVO 01,21.2,2025-01-21,-12.2023374625433,-41.5941335420757,TRUE
300,044962-8,AURA TANQUE NOVO 02,15.9,2025-01-21,-12.2023374625433,-41.5941335420757,TRUE
301,BACAN1,CANUDOS I,49.7,2023-01-08,-10.19,-38.78,FALSE
302,BACAN2,CANUDOS II,49.7,2023-01-06,-10.15,-38.77,FALSE
303,047205-0,VENTOS DE SANTO ANTONIO 01,5.3,2025-01-01,-12.2023374625433,-41.5941335420757,TRUE
304,047208-5,VENTOS DE SANTO ANTONIO 04,5.3,2025-01-01,-12.2023374625433,-41.5941335420757,TRUE
305,050463-7,ASSURUA 4 I,36,2023-06-21,-12.2023374625433,-41.5941335420757,TRUE
306,050464-5,ASSURUA 4 II,31.5,2023-03-01,-12.2023374625433,-41.5941335420757,TRUE
307,050465-3,ASSURUA 4 III,36,2023-07-28,-12.2023374625433,-41.5941335420757,TRUE
308,050466-1,ASSURUA 4 IV,36,2023-07-28,-12.2023374625433,-41.5941335420757,TRUE
309,050467-0,ASSURUA 4 V,36,2023-06-21,-12.2023374625433,-41.5941335420757,TRUE
310,050468-8,ASSURUA 4 VI,36,2023-06-21,-12.2023374625433,-41.5941335420757,TRUE
311,050844-6,MORRO 1,42,2026-01-01,-12.2023374625433,-41.5941335420757,TRUE
312,050845-4,MORRO 2,29.4,2026-01-01,-12.2023374625433,-41.5941335420757,TRUE
313,051585-0,VENTOS DE SANTA LUZIA 11,5.3,2024-01-01,-12.2023374625433,-41.5941335420757,TRUE
314,051586-8,VENTOS DE SANTA LUZIA 12,5.3,2024-01-01,-12.2023374625433,-41.5941335420757,TRUE
315,051587-6,VENTOS DE SANTA LUZIA 13,5.3,2024-01-01,-12.2023374625433,-41.5941335420757,TRUE
316,051588-4,VENTOS DE SANTA LUZIA 14,5.3,2024-01-01,-12.2023374625433,-41.5941335420757,TRUE
317,051589-2,VENTOS DE SANTA LUZIA 15,5.3,2024-06-07,-12.2023374625433,-41.5941335420757,TRUE
318,051590-6,VENTOS DE SANTA LUZIA 16,5.3,2024-01-01,-12.2023374625433,-41.5941335420757,TRUE
319,051591-4,VENTOS DE SANTA LUZIA 17,5.3,2024-01-01,-12.2023374625433,-41.5941335420757,TRUE
320,051592-2,VENTOS DE SANTO ANTONIO 05,5.3,2025-01-01,-12.2023374625433,-41.5941335420757,TRUE
321,051593-0,VENTOS DE SANTO ANTONIO 06,5.3,2025-01-01,-12.2023374625433,-41.5941335420757,TRUE
322,051594-9,VENTOS DE SANTO ANTONIO 07,5.3,2025-01-01,-12.2023374625433,-41.5941335420757,TRUE
323,051595-7,VENTOS DE SANTO ANTONIO 08,5.3,2025-01-01,-12.2023374625433,-41.5941335420757,TRUE
324,CEBBR,EOL BEBERIBE,25.6,2008-09-11,-4.1936,-38.0766,FALSE
325,CEDUNA,DUNAS DE PARACURU,42,2012-12-22,-3.4367,-38.9854,FALSE
326,CEEBC2,BONS VENTOS CACIMBAS 2,23.1,2018-06-16,-3.8884,-41.0401,FALSE
327,CEEBC3,BONS VENTOS CACIMBAS 3,14.7,2018-05-10,-3.8672,-41.0202,FALSE
328,CEEBC4,BONS VENTOS CACIMBAS 4,10.5,2018-05-18,-3.9321,-41.0267,FALSE
329,CEEBC5,BONS VENTOS CACIMBAS 5,21,2018-05-18,-3.9239,-41.0282,FALSE
330,CEEBC7,BONS VENTOS CACIMBAS 7,16.8,2018-06-16,-3.8662,-41.0382,FALSE
331,CEECAA,CACIMBAS 1,18.9,2016-12-20,-3.2533,-39.2811,FALSE
332,CEECH1,PEDRA CHEIROSA,25.2,2017-06-27,-2.9976,-39.7337,FALSE
333,CEECH2,PEDRA CHEIROSA II,23.1,2017-06-27,-2.9995,-39.7316,FALSE
334,CEECVA,CATAVENTOS ACARAU I,28,2018-05-29,-2.843,-40.0631,FALSE
335,CEEEST,ESTRELA,29.7,2017-03-18,-3.2478,-39.2942,FALSE
336,CEEGOB,GOIABEIRA,23.1,2018-12-22,-4.5921,-37.7139,FALSE
337,CEEGRR,GARROTE,23.1,2017-12-01,-4.735,-37.3247,FALSE
338,CEEIT1,ITAREMA I,27,2016-04-01,-2.9225,-39.8407,FALSE
339,CEEIT2,ITAREMA II,27,2016-02-23,-2.9211,-39.8618,FALSE
340,CEEIT3,ITAREMA III,15,2016-04-06,-2.9476,-39.8369,FALSE
341,CEEIT4,ITAREMA IV,21,2016-07-27,-2.9291,-39.8758,FALSE
342,CEEIT5,ITAREMA V,21,2016-01-01,-2.9665,-39.8795,FALSE
343,CEEIT6,ITAREMA VI,24,2016-07-27,-2.9291,-39.8758,FALSE
344,CEEIT7,ITAREMA VII,21,2016-07-27,-2.953,-39.8785,FALSE
345,CEEIT8,ITAREMA VIII,21,2016-07-27,-2.9799,-39.8935,FALSE
346,CEEIT9,ITAREMA IX,30,2016-07-29,-2.9291,-39.8758,FALSE
347,CEEMAU,MALHADINHA I,23.1,2016-10-20,-3.9466,-41.123,FALSE
348,CEEOLI,CANOA QUEBRADA,10.5,2008-12-06,-4.5358,-37.6953,FALSE
349,CEEOPR,EOLICA DE PRAINHA,10,2014-01-01,-3.8708,-38.3803,FALSE
350,CEEOVE,OURO VERDE,29.7,2017-04-06,-3.2792,-39.3059,FALSE
351,CEEPTM,PITOMBEIRA,27.3,2018-12-22,-4.6006,-37.6489,FALSE
352,CEESCT,SANTA CATARINA,18.9,2018-12-22,-4.5945,-37.682,FALSE
353,CEESI3,SANTO INACIO III,29.4,2017-12-05,-4.7654,-37.292,FALSE
354,CEESI4,SANTO INACIO IV,23.1,2017-12-05,-4.7458,-37.309,FALSE
355,CEESM1,SERRA DO MATO I,21,2021-10-28,-3.2707,-39.3963,FALSE
356,CEESM2,SERRA DO MATO II,21,2021-10-29,-3.276,-39.3513,FALSE
357,CEESM3,SERRA DO MATO III,21,2021-10-29,-3.2625,-39.3482,FALSE
358,CEESM4,SERRA DO MATO IV,21,2021-12-04,-3.2201,-39.3962,FALSE
359,CEESM5,SERRA DO MATO V,21,2021-11-30,-3.2322,-39.402,FALSE
360,CEESM6,SERRA DO MATO VI,16.8,2021-11-18,-3.2456,-39.4073,FALSE
361,CEESMA,SANTA MONICA I,18.9,2016-10-11,-3.2594,-39.2817,FALSE
362,CEESR1,SERROTE I,25.2,2021-01-13,-4.5358,-37.6953,FALSE
363,CEESR2,SERROTE II,25.2,2021-01-13,-3.2882,-39.3328,FALSE
364,CEESR3,SERROTE III,21,2021-01-13,-3.3044,-39.3521,FALSE
365,CEESR4,SERROTE IV,16.8,2021-01-13,-3.3077,-39.3903,FALSE
366,CEESR5,SERROTE V,29.4,2021-01-27,-3.3174,-39.3695,FALSE
367,CEESR6,SERROTE VI,29.4,2021-02-27,-3.2275,-39.3729,FALSE
368,CEESR7,SERROTE VII,29.4,2021-04-09,-3.3157,-39.3244,FALSE
369,CEESR8,SERROTE VIII,29.4,2021-03-23,-3.338,-39.3294,FALSE
370,CEESRM,SAO RAIMUNDO,23.1,2017-12-01,-4.7789,-37.2932,FALSE
371,CEEUBA,UBATUBA,12.6,2018-12-22,-4.6566,-37.6123,FALSE
372,CEEVFO,VENTO FORMOSO,27.51,2016-10-07,-3.8529,-41.1834,FALSE
373,CEEVHZ,VENTOS DE HORIZONTE,16.8,2018-12-22,-4.6228,-37.6904,FALSE
374,CEEVIT,VENTOS DE TIANGUA,27.75,2016-09-28,-3.8796,-41.1534,FALSE
375,CEEVMC,VENTOS DO MORRO DO CHAPEU,27.51,2016-10-06,-3.878,-41.1751,FALSE
376,CEEVPA,VENTOS DO PARAZINHO,29.12,2016-09-28,-3.8888,-41.1857,FALSE
377,CEEVTN,VENTOS DE TIANGUA NORTE,29.12,2016-09-28,-3.8944,-41.1969,FALSE
378,CEFRC,EOL RIO CHORO,25.2,2009-01-31,-4.1256,-38.1503,FALSE
379,CEICAR,ICARAI,16.8,2013-06-29,-3.0274,-39.6209,FALSE
380,CEJAI,JANDAIA I,24,2020-05-30,-4.4129,-37.8761,FALSE
381,CEJAN,JANDAIA,27,2020-05-30,-4.4096,-37.8171,FALSE
382,CELGMO,LAGOA DO MATO,3.23,2009-01-16,-13.8379,-42.6486,FALSE
383,CEMUCU,MUCURIPE,2.4,2014-01-01,-14.2596,-42.5543,FALSE
384,CENSF,NOSSA SENHORA DE FATIMA,29.1,2020-06-02,-4.4339,-37.8697,FALSE
385,CEPRU,EOL PARACURU,25.2,2008-11-29,-3.4315,-38.962,FALSE
386,CEQUIX,QUIXABA,25.5,2012-10-25,-4.5634,-37.6885,FALSE
387,CESCL,SAO CLEMENTE,21,2020-05-30,-4.4088,-37.8442,FALSE
388,CESJN,SAO JANUARIO,21,2020-06-02,-4.4914,-37.8025,FALSE
389,CETAIA,TAIBA,5,1998-12-09,-3.4953,-38.9339,FALSE
390,CETAIB,TAIBA ALBATROZ,16.5,2008-11-19,-3.5103,-38.9164,FALSE
391,CEUCZ,ICARAIZINHO,54.6,2009-10-14,-3.0179,-39.6741,FALSE
392,CEUEAD,TAIBA ANDORINHA,14.7,2014-06-19,-3.5287,-38.898,FALSE
393,CEUEAG,TAIBA AGUIA,23.1,2014-06-19,-3.5481,-38.8883,FALSE
394,CEUEAP,SANTO ANTONIO DE PADUA,14,2014-11-11,-3.2733,-39.2246,FALSE
395,CEUEBC,BOCA DO CORREGO,24.3,2014-08-30,-3.0984,-39.6663,FALSE
396,CEUEBU,BURITI,30,2014-04-03,-2.8853,-39.9839,FALSE
397,CEUEBV,BONS VENTOS,50,2010-02-11,-4.4469,-37.7595,FALSE
398,CEUECJ,CAJUCOCO,30,2014-03-21,-2.9158,-39.9544,FALSE
399,CEUECL,COLONIA,18.9,2014-06-19,-3.5426,-38.8782,FALSE
400,CEUECO,COQUEIROS,27,2014-11-07,-2.8855,-39.9721,FALSE
401,CEUECQ,CANOA QUEBRADA,57,2010-01-26,-4.467,-37.758,FALSE
402,CEUEEM,EMBUACA,27.3,2014-03-29,-3.2147,-39.3288,FALSE
403,CEUEEN,ENACEL,31.5,2010-03-18,-4.5097,-37.7608,FALSE
404,CEUEFC,FAISA V,29.4,2014-10-30,-3.3699,-39.2621,FALSE
405,CEUEFD,FAISA II,27.3,2014-07-31,-3.3189,-39.2397,FALSE
406,CEUEFL,FLEIXEIRAS I,30.004,2014-01-28,-3.2011,-39.3647,FALSE
407,CEUEFQ,FAISA IV,25.2,2014-03-29,-3.3218,-39.2671,FALSE
408,CEUEFT,FAISA III,25.2,2014-03-29,-3.3478,-39.2651,FALSE
409,CEUEFU,FAISA I,29.4,2014-03-29,-3.3218,-39.2671,FALSE
410,CEUEGU,GUAJIRU,30.004,2013-11-22,-3.2632,-39.2159,FALSE
411,CEUEID,ICARAI II,37.8,2014-03-28,-3.066,-39.5969,FALSE
412,CEUEIG,ILHA GRANDE,29.7,2014-08-20,-3.0666,-39.7026,FALSE
413,CEUEIU,ICARAI I,27.3,2014-03-29,-3.0812,-39.5949,FALSE
414,CEUEMU,MUNDAU,30.004,2014-04-01,-3.1936,-39.3746,FALSE
415,CEUEPM,PRAIA DO MORGADO,28.8,2010-05-26,-2.8151,-40.2348,FALSE
416,CEUERB,RIBEIRAO,21.6,2014-09-25,-3.0983,-39.6785,FALSE
417,CEUESC,SAO CRISTOVAO,26,2014-11-11,-3.2579,-39.2475,FALSE
418,CEUESJ,SAO JORGE,24,2014-11-11,-3.247,-39.2502,FALSE
419,CEUETR,TRAIRI,25.388,2013-11-22,-3.2217,-39.29,FALSE
420,CEUEVR,VOLTA DO RIO,42,2010-09-03,-2.8514,-39.9658,FALSE
421,CEUFM,PRAIA DE FORMOSA,105,2009-08-26,-2.9051,-41.0392,FALSE
422,CEUPRJ,PRAIAS DE PARAJURU,28.8,2009-08-19,-4.3631,-37.8839,FALSE
423,CEEGRV,GRAVIER,71.4,2022-08-06,-4.755,-37.3361,FALSE
424,MAED72,DELTA 7 II,35.1,2019-10-15,-2.6981,-42.5892,FALSE
425,MAED7I,DELTA 7 I,27,2019-10-16,-2.6809,-42.6001,FALSE
426,MAED8I,DELTA 8 I,35.1,2019-11-01,-2.7017,-42.5704,FALSE
427,MAEDS1,DELTA 6 I,29.7,2019-01-10,-2.6889,-42.5676,FALSE
428,MAEDS2,DELTA 6 II,24.3,2019-01-25,-2.6576,-42.6127,FALSE
429,MAEDS3,DELTA 5 II,27,2018-12-28,-2.6723,-42.6037,FALSE
430,MAEDT1,DELTA 3 I,27.6,2017-09-01,-2.6716,-42.6205,FALSE
431,MAEDT2,DELTA 3 II,27.6,2017-07-20,-2.6278,-42.6643,FALSE
432,MAEDT3,DELTA 3 III,27.6,2017-09-01,-2.6609,-42.6328,FALSE
433,MAEDT4,DELTA 3 IV,27.6,2017-07-26,-2.6577,-42.6141,FALSE
434,MAEDT5,DELTA 3 V,27.6,2017-07-20,-2.64,-42.6373,FALSE
435,MAEDT6,DELTA 3 VI,27.6,2017-07-13,-2.6298,-42.648,FALSE
436,MAEDT7,DELTA 3 VII,27.6,2017-07-07,-2.6184,-42.658,FALSE
437,MAEDT8,DELTA 3 VIII,27.6,2017-11-07,-2.6672,-42.6427,FALSE
438,MAEDT9,DELTA 5 I,27,2018-12-28,-2.6962,-42.5477,FALSE
439,D29112,ALHANDRA,6.3,2011-01-29,-7.27,-34.93,FALSE
440,PBALBA,ALBATROZ,4.8,2009-01-31,-6.5475,-34.968,FALSE
441,PBATLA,ATLANTICA,4.8,2009-01-17,-6.5474,-34.9737,FALSE
442,PBCAMU,CAMURIM,4.8,2009-01-31,-6.5576,-34.9721,FALSE
443,PBCANO,CANOAS,31.5,2017-09-30,-6.8834,-36.7637,FALSE
444,PBCARA,CARAVELA,4.8,2009-01-31,-6.556,-34.969,FALSE
445,PBCH1,CHAFARIZ 1,34.65,2021-08-13,-6.9729,-36.8793,FALSE
446,PBCH2,CHAFARIZ 2,34.65,2021-09-15,-6.9969,-36.894,FALSE
447,PBCH3,CHAFARIZ 3,34.65,2021-09-25,-7.0016,-36.8983,FALSE
448,PBCH4,CHAFARIZ 4,34.65,2021-10-21,-7.0337,-36.9355,FALSE
449,PBCH5,CHAFARIZ 5,34.65,2021-09-25,-7.0039,-36.9131,FALSE
450,PBCH6,CHAFARIZ 6,31.185,2021-08-23,-6.9786,-36.8539,FALSE
451,PBCH7,CHAFARIZ 7,34.65,2021-07-29,-6.924,-36.8607,FALSE
452,PBCN2,CANOAS 2,34.65,2021-12-31,-6.8825,-36.7914,FALSE
453,PBCN3,CANOAS 3,34.65,2021-12-31,-6.8721,-36.7594,FALSE
454,PBCN4,CANOAS 4,34.65,2021-12-31,-6.8436,-36.7355,FALSE
455,PBCOEH,COELHOS II,4.8,2009-02-10,-6.5701,-34.9674,FALSE
456,PBCOEL,COELHOS III,4.8,2009-03-05,-6.5701,-34.9674,FALSE
457,PBCOEO,COELHOS IV,4.8,2009-01-14,-6.5814,-34.9747,FALSE
458,PBCOES,COELHOS I,4.8,2009-03-05,-6.5758,-34.9718,FALSE
459,PBLAGA,LAGOA 1,31.5,2017-10-31,-6.879,-36.8184,FALSE
460,PBLAGO,LAGOA 2,31.5,2017-09-30,-6.8409,-36.7911,FALSE
461,PBLG3,LAGOA 3,34.65,2021-12-18,-6.8712,-36.8262,FALSE
462,PBLG4,LAGOA 4,20.79,2021-12-03,-6.8837,-36.8429,FALSE
463,PBMATA,MATARACA,4.8,2009-01-14,-6.5823,-34.9785,FALSE
464,PBMILL,MILLENNIUM,10.2,2007-11-28,-6.4939,-34.9719,FALSE
465,PBPRES,PRESIDENTE,4.8,2009-01-14,-6.5747,-34.976,FALSE
466,PBVA1,VENTOS DE ARAPUA 1,24.255,2021-11-11,-7.0482,-36.9524,FALSE
467,PBVA2,VENTOS DE ARAPUA 2,34.65,2021-11-11,-7.0292,-36.9624,FALSE
468,PBVA3,VENTOS DE ARAPUA 3,13.86,2021-11-11,-7.0508,-36.9679,FALSE
469,PBVITO,VITORIA,4.5,2010-11-28,-6.5573,-35.0147,FALSE
470,PBCH3,CHAFARIZ 3,6.93,2022-10-05,-7.0016,-36.8983,FALSE
471,PBSS02,SERRA DO SERIDO II,33,2025-01-01,-7.11995997977373,-35.9815623996129,TRUE
472,PBSS03,SERRA DO SERIDO III,44,2025-01-01,-7.11995997977373,-35.9815623996129,TRUE
473,PBSS04,SERRA DO SERIDO IV,44,2025-01-01,-7.11995997977373,-35.9815623996129,TRUE
474,PBSS06,SERRA DO SERIDO VI,49.5,2025-01-01,-7.11995997977373,-35.9815623996129,TRUE
475,PBSS07,SERRA DO SERIDO VII,44,2025-01-01,-7.11995997977373,-35.9815623996129,TRUE
476,PBSS09,SERRA DO SERIDO IX,49.5,2025-01-01,-7.11995997977373,-35.9815623996129,TRUE
477,D31006,CAMINHO DA PRAIA,2,2012-09-17,-8.3344,-35.0053,FALSE
478,PEEBR1,VENTOS DE SANTA BRIGIDA I,13.6,2015-12-25,-8.8099,-36.7487,FALSE
479,PEEBR2,VENTOS DE SANTA BRIGIDA II,27.2,2015-12-25,-8.7969,-36.7338,FALSE
480,PEEBR3,VENTOS DE SANTA BRIGIDA III,28.9,2015-12-25,-8.8451,-36.7697,FALSE
481,PEEBR4,VENTOS DE SANTA BRIGIDA IV,27.2,2015-12-25,-8.8338,-36.7602,FALSE
482,PEEBR5,VENTOS DE SANTA BRIGIDA V,28.9,2015-12-25,-8.8465,-36.7302,FALSE
483,PEEBR6,VENTOS DE SANTA BRIGIDA VI,28.9,2015-12-25,-8.8681,-36.7471,FALSE
484,PEEBR7,VENTOS DE SANTA BRIGIDA VII,27.2,2015-12-25,-8.8025,-36.7579,FALSE
485,PEECL1,VENTOS DE SAO CLEMENTE I,31.365,2016-05-25,-8.7263,-36.6999,FALSE
486,PEECL2,VENTOS DE SAO CLEMENTE II,31.365,2016-05-25,-8.7093,-36.7337,FALSE
487,PEECL3,VENTOS DE SAO CLEMENTE III,31.365,2016-05-25,-8.754,-36.7181,FALSE
488,PEECL4,VENTOS DE SAO CLEMENTE IV,31.365,2016-05-25,-8.7627,-36.7509,FALSE
489,PEECL5,VENTOS DE SAO CLEMENTE V,31.365,2016-06-14,-8.7076,-36.7668,FALSE
490,PEECL6,VENTOS DE SAO CLEMENTE VI,27.675,2016-05-25,-8.7819,-36.7576,FALSE
491,PEECL7,VENTOS DE SAO CLEMENTE VII,25.83,2016-05-25,-8.7513,-36.7514,FALSE
492,PEECL8,VENTOS DE SAO CLEMENTE VIII,22.14,2016-06-21,-8.7045,-36.7757,FALSE
493,PEEPF2,PAU FERRO II,77,2021-12-22,-9.0365,-38.0999,FALSE
494,PEESV1,SERRA DAS VACAS I,23.92,2015-12-18,-8.9113,-36.7477,FALSE
495,PEESV2,SERRA DAS VACAS II,22.295,2015-12-18,-8.8954,-36.7259,FALSE
496,PEESV3,SERRA DAS VACAS III,22.235,2015-12-18,-8.9031,-36.7579,FALSE
497,PEESV4,SERRA DAS VACAS IV,22.295,2015-12-18,-8.9137,-36.7298,FALSE
498,PEESV5,SERRA DAS VACAS V,25.3,2017-12-01,-8.9154,-36.7757,FALSE
499,PEESV6,SERRA DAS VACAS VII,25.3,2017-12-01,-8.9209,-36.7822,FALSE
500,PEETA2,TACAICO II,77,2021-12-22,-9.0167,-38.0747,FALSE
501,PEGRVT,GRAVATA FRUITRADE,4.95,2010-04-24,-8.2682,-35.5964,FALSE
502,PEMAND,MANDACARU,4.95,2010-04-24,-8.279,-35.5964,FALSE
503,PEPIRA,PIRAUA,4.95,2010-05-05,-7.4953,-35.4955,FALSE
504,PESNTM,SANTA MARIA,4.95,2010-04-24,-8.2947,-35.5956,FALSE
505,PEUEPF,PAU FERRO,30.55,2015-02-04,-9.0625,-38.1186,FALSE
506,PEUEPG,PEDRA DO GERONIMO,30.55,2015-02-04,-9.0672,-38.1448,FALSE
507,PEUETA,TACAICO,18.8,2015-02-04,-9.0187,-38.056,FALSE
508,PEXAVA,XAVANTE,4.95,2010-04-24,-8.175,-35.3889,FALSE
509,PIANT,VENTOS DE SANTO ANTERO,48.4,2022-07-23,-8.0036,-40.5175,FALSE
510,PIBER,VENTOS DE SAO BERNARDO,44,2022-08-18,-7.9966,-40.513,FALSE
511,049354-6,SERRA DAS VACAS B,44,2026-01-01,-8.05420336300506,-39.9037443257032,TRUE
512,031807-8,OURO BRANCO 1,33.6,2023-07-01,-8.05420336300506,-39.9037443257032,TRUE
513,031808-6,OURO BRANCO 2,33.6,2023-07-10,-8.05420336300506,-39.9037443257032,TRUE
514,031809-4,QUATRO VENTOS,21,2023-07-10,-8.05420336300506,-39.9037443257032,TRUE
515,PIDELT,DELTA DO PARNAIBA,30,2014-07-02,-2.8371,-41.7074,FALSE
516,PIEAU1,VENTOS DE SANTO AUGUSTO I,18.4,2017-02-18,-7.743,-40.6752,FALSE
517,PIEAU2,VENTOS DE SANTO AUGUSTO II,27.6,2016-12-29,-7.7721,-40.6784,FALSE
518,PIEAU3,VENTOS DE SANTO AUGUSTO III,29.6,2016-01-16,-7.3723,-40.7072,FALSE
519,PIEAU4,VENTOS DE SANTO AUGUSTO IV,28.9,2016-02-06,-7.3858,-40.6978,FALSE
520,PIEAU5,VENTOS DE SANTO AUGUSTO V,29.6,2016-01-22,-7.4093,-40.6951,FALSE
521,PIEAU6,VENTOS DE SANTO AUGUSTO VI,29.9,2017-03-24,-7.714,-40.6761,FALSE
522,PIEAU7,VENTOS DE SANTO AUGUSTO VII,18.4,2017-03-04,-7.7253,-40.6793,FALSE
523,PIEAU8,VENTOS DE SANTO AUGUSTO VIII,18.4,2016-12-24,-7.7707,-40.6777,FALSE
524,PIEES1,VENTOS DE SANTO ESTEVAO I,25.3,2016-06-23,-7.7442,-40.6208,FALSE
525,PIEES2,VENTOS DE SANTO ESTEVAO II,25.3,2017-05-06,-7.7482,-40.6296,FALSE
526,PIEES3,VENTOS DE SANTO ESTEVAO III,29.9,2016-12-09,-7.7283,-40.6584,FALSE
527,PIEES4,VENTOS DE SANTO ESTEVAO IV,29.9,2017-10-03,-7.7266,-40.5941,FALSE
528,PIEES5,VENTOS DE SANTO ESTEVAO V,27.6,2016-12-13,-7.7599,-40.6733,FALSE
529,PIEJ01,VENTOS DE SANTA JOANA I,28.9,2016-01-16,-7.4237,-40.6715,FALSE
530,PIEJ02,VENTOS DE SANTA JOANA II,30,2015-12-18,-7.5697,-40.7032,FALSE
531,PIEJ03,VENTOS DE SANTA JOANA III,29.6,2016-03-11,-7.4377,-40.7465,FALSE
532,PIEJ04,VENTOS DE SANTA JOANA IV,27.2,2016-01-16,-7.4513,-40.6864,FALSE
533,PIEJ05,VENTOS DE SANTA JOANA V,28.9,2016-01-22,-7.3709,-40.6742,FALSE
534,PIEJ06,VENTOS DE SANTA JOANA VI,30,2015-12-18,-7.5266,-40.7442,FALSE
535,PIEJ07,VENTOS DE SANTA JOANA VII,28.9,2016-01-30,-7.413,-40.6686,FALSE
536,PIEJ08,VENTOS DE SANTA JOANA VIII,30,2015-12-18,-7.5977,-40.7325,FALSE
537,PIEJ10,VENTOS DE SANTA JOANA X,29.6,2015-07-09,-7.4387,-40.7083,FALSE
538,PIEJ11,VENTOS DE SANTA JOANA XI,29.6,2015-07-09,-7.483,-40.7998,FALSE
539,PIEJ12,VENTOS DE SANTA JOANA XII,28.9,2015-07-09,-7.486,-40.754,FALSE
540,PIEJ13,VENTOS DE SANTA JOANA XIII,29.6,2015-07-09,-7.4104,-40.7109,FALSE
541,PIEJ14,VENTOS DE SANTA JOANA XV,28.9,2015-07-09,-7.4778,-40.7674,FALSE
542,PIEJ15,VENTOS DE SANTA JOANA XIV,30,2015-12-18,-7.5109,-40.7344,FALSE
543,PIEJ16,VENTOS DE SANTA JOANA XVI,28.9,2015-07-09,-7.4588,-40.7237,FALSE
544,PIEJ9,VENTOS DE SANTA JOANA IX,29.6,2015-08-27,-7.4517,-40.7441,FALSE
545,PIELB1,AURA LAGOA DO BARRO 01,27,2018-10-27,-8.6983,-41.6357,FALSE
546,PIELB2,AURA LAGOA DO BARRO 02,27,2018-12-13,-8.6538,-41.5654,FALSE
547,PIELB3,AURA LAGOA DO BARRO 03,27,2018-12-21,-8.6137,-41.5514,FALSE
548,PIELB4,AURA LAGOA DO BARRO 04,27,2018-12-28,-8.5934,-41.542,FALSE
549,PIELB5,AURA LAGOA DO BARRO 05,24,2018-11-02,-8.5934,-41.542,FALSE
550,PIELB6,AURA LAGOA DO BARRO 06,27,2018-12-18,-8.633,-41.5608,FALSE
551,PIELB7,AURA LAGOA DO BARRO 07,27,2018-11-27,-8.6756,-41.6345,FALSE
552,PIEO01,VENTOS DE SANTO ONOFRE I,30,2015-12-18,-7.5533,-40.7255,FALSE
553,PIEO02,VENTOS DE SANTO ONOFRE II,30,2015-12-18,-7.5946,-40.7304,FALSE
554,PIEO03,VENTOS DE SANTO ONOFRE III,30,2015-12-18,-7.555,-40.7257,FALSE
555,PIEO04,VENTOS DE SANTO ONOFRE IV,27.6,2017-06-14,-7.7409,-40.7243,FALSE
556,PIEQN1,AURA QUEIMADA NOVA 01,32.2,2021-12-08,-8.6838,-41.5891,FALSE
557,PIEQN2,AURA QUEIMADA NOVA 02,50.6,2021-12-08,-8.6288,-41.595,FALSE
558,PIEQN3,AURA QUEIMADA NOVA 03,9,2018-12-01,-8.6674,-41.6308,FALSE
559,PIESAD,VENTOS DE SANTO ADRIANO,29.7,2017-07-18,-7.3292,-40.5812,FALSE
560,PIESAL,VENTOS DE SANTO ALBANO,29.7,2017-07-19,-7.3546,-40.6026,FALSE
561,PIESAN,VENTOS DE SANTA ANGELINA,29.7,2016-07-05,-7.3047,-40.53,FALSE
562,PIESBA,VENTOS DE SANTA BARBARA,29.7,2017-05-26,-7.3034,-40.5363,FALSE
563,PIESED,VENTOS DE SANTA EDWIGES,29.7,2017-06-24,-7.3069,-40.555,FALSE
564,PIESFA,VENTOS DE SANTA FATIMA,29.7,2017-07-28,-7.2986,-40.5557,FALSE
565,PIESRE,VENTOS DE SANTA REGINA,29.7,2017-07-19,-7.3301,-40.59,FALSE
566,PIEV08,VENTOS DE SAO VICENTE 08,29.4,2017-10-06,-8.0121,-40.6317,FALSE
567,PIEV09,VENTOS DE SAO VICENTE 09,29.4,2017-12-06,-8.0173,-40.6585,FALSE
568,PIEV10,VENTOS DE SAO VICENTE 10,29.4,2017-11-17,-8.0065,-40.6378,FALSE
569,PIEV11,VENTOS DE SAO VICENTE 11,29.4,2017-11-09,-7.9957,-40.6349,FALSE
570,PIEV12,VENTOS DE SAO VICENTE 12,29.4,2017-08-29,-8.0214,-40.6178,FALSE
571,PIEV13,VENTOS DE SAO VICENTE 13,29.4,2017-09-19,-8.0031,-40.6115,FALSE
572,PIEV14,VENTOS DE SAO VICENTE 14,29.4,2017-08-02,-7.9895,-40.5834,FALSE
573,PIEVI1,VENTOS DE SAO VIRGILIO 1,29.9,2017-08-30,-7.6882,-40.6883,FALSE
574,PIEVI2,VENTOS DE SAO VIRGILIO 2,29.9,2017-02-10,-7.7917,-40.728,FALSE
575,PIEVI3,VENTOS DE SAO VIRGILIO 3,19.8,2017-09-29,-7.7835,-40.6575,FALSE
576,PIPORD,PORTO DO DELTA,30.8,2016-11-04,-2.8428,-41.6976,FALSE
577,PIPORO,PORTO SALGADO,20,2014-07-10,-2.8398,-41.727,FALSE
578,PIPORT,PORTO DAS BARCAS,20,2014-07-02,-2.8207,-41.7418,FALSE
579,PIPSAL,PEDRA DO SAL,18,2008-12-30,-2.8262,-41.7071,FALSE
580,PISA02,VENTOS DE SANTA ANGELA 02,31.5,2020-11-12,-8.5442,-41.5751,FALSE
581,PISA03,VENTOS DE SANTA ANGELA 03,31.5,2020-11-12,-8.5764,-41.5778,FALSE
582,PISA04,VENTOS DE SANTA ANGELA 04,31.5,2020-11-12,-8.6002,-41.5908,FALSE
583,PISA05,VENTOS DE SANTA ANGELA 05,31.5,2020-12-29,-8.4625,-41.4451,FALSE
584,PISA06,VENTOS DE SANTA ANGELA 06,31.5,2020-12-30,-8.4891,-41.4516,FALSE
585,PISA07,VENTOS DE SANTA ANGELA 07,25.2,2020-12-30,-8.5306,-41.4805,FALSE
586,PISA08,VENTOS DE SANTA ANGELA 08,31.5,2020-12-31,-8.5608,-41.4984,FALSE
587,PISA09,VENTOS DE SANTA ANGELA 09,44.1,2020-12-31,-8.5952,-41.4795,FALSE
588,PISA10,VENTOS DE SANTA ANGELA 10,40.95,2020-12-31,-8.6329,-41.4971,FALSE
589,PISA11,VENTOS DE SANTA ANGELA 11,44.1,2020-12-31,-8.6671,-41.5098,FALSE
590,PISA12,VENTOS DE SANTA ANGELA 12,30,2021-03-19,-8.7616,-41.4303,FALSE
591,PISA13,VENTOS DE SANTA ANGELA 13,28.35,2021-03-19,-8.7664,-41.4087,FALSE
592,PISA14,VENTOS DE SANTA ANGELA 14,42.6,2020-12-31,-8.7088,-41.5181,FALSE
593,PISA15,VENTOS DE SANTA ANGELA 15,44.1,2021-03-27,-8.722,-41.4741,FALSE
594,PISA16,VENTOS DE SANTA ANGELA 16,31.5,2021-05-19,-8.7326,-41.559,FALSE
595,PISA17,VENTOS DE SANTA ANGELA 17,47.25,2021-04-07,-8.7159,-41.4209,FALSE
596,PISA18,VENTOS DE SANTA ANGELA 18,31.5,2021-03-13,-8.7389,-41.3999,FALSE
597,PISA19,VENTOS DE SANTA ANGELA 19,30,2021-04-07,-8.7462,-41.4716,FALSE
598,PISA20,VENTOS DE SANTA ANGELA 20,30,2021-02-13,-8.7818,-41.452,FALSE
599,PISA21,VENTOS DE SANTA ANGELA 21,30,2021-01-28,-8.8066,-41.4651,FALSE
600,PITESA,TESTA BRANCA III,22,2016-08-12,-2.7998,-41.792,FALSE
601,PITEST,TESTA BRANCA I,22,2016-09-23,-2.8166,-41.7822,FALSE
602,PIVI15,VENTOS DE SANTO APOLINARIO,35.2,2022-06-04,-7.9702,-40.5994,FALSE
603,PIVSA1,VENTOS DE SANTA ANGELA 01,31.5,2020-11-12,-8.5198,-41.5584,FALSE
604,PIVSR1,VENTOS DE SAO ROQUE 1,49.5,2022-07-08,-8.7646,-41.6575,FALSE
605,PIVSR2,VENTOS DE SAO ROQUE 2,49.5,2022-07-15,-8.8056,-41.6504,FALSE
606,038105-5,VENTOS DE SAO ROQUE 03,45.6,2023-12-18,-8.07292799069481,-42.786979911802,TRUE
607,PIVSR3,VENTOS DE SAO ROQUE 4,49.5,2023-10-10,-8.8299,-41.5908,FALSE
608,038107-1,VENTOS DE SAO ROQUE 05,45.6,2023-12-18,-8.07292799069481,-42.786979911802,TRUE
609,PIVSR6,VENTOS DE SAO ROQUE 16,49.5,2023-05-31,-8.8998,-41.5911,FALSE
610,PIVSR7,VENTOS DE SAO ROQUE 17,49.5,2023-07-02,-8.8975,-41.5555,FALSE
611,PIVSR4,VENTOS DE SAO ROQUE 8,49.5,2023-01-19,-8.9352,-41.6045,FALSE
612,PIVSR5,VENTOS DE SAO ROQUE 11,49.5,2023-01-05,-8.8264,-41.6269,FALSE
613,PIOI10,OITIS 10,49.5,2023-02-13,-9.05,-41.77,FALSE
614,PIOI02,OITIS 2,27.5,2023-01-01,-9.01,-41.73,FALSE
615,PIOI03,OITIS 3,49.5,2023-01-01,-9.01,-41.75,FALSE
616,PIOI04,OITIS 4,49.5,2023-01-01,-9.02,-41.75,FALSE
617,PIOI05,OITIS 5,49.5,2022-11-12,-9.04,-41.75,FALSE
618,PIOI06,OITIS 6,49.5,2022-07-15,-9.05,-41.74,FALSE
619,PIOI07,OITIS 7,49.5,2022-08-10,-9.07,-41.73,FALSE
620,PIOI08,OITIS 8,49.5,2023-01-01,-9.0982,-41.7609,FALSE
621,PIOI09,OITIS 9,49.5,2023-02-07,-9.05,-41.77,FALSE
622,PIOI01,OITIS 1,49.5,2022-10-17,-9,-41.72,FALSE
623,PIVI16,VENTOS DE SANTA ALEXANDRINA,44,2022-08-06,-7.9855,-40.58,FALSE
624,PIVI05,VENTOS DE SANTO ALDERICO,39.6,2022-11-30,-8.0416,-40.6663,FALSE
625,PIVI15,VENTOS DE SANTO APOLINARIO,35.2,2022-06-04,-7.9702,-40.5994,FALSE
626,PIVI01,VENTOS DE SAO CAIO,35.2,2023-07-04,-7.9955,-40.7694,FALSE
627,PIVI04,VENTOS DE SAO CIRIACO,48.4,2023-02-18,-8.0469,-40.6841,FALSE
628,PIVI02,VENTOS DE SAO CIRO,35.2,2023-06-03,-8.0347,-40.7405,FALSE
629,PIVI18,VENTOS DE SAO JOAO PAULO II,30.8,2022-08-15,-7.9886,-40.5613,FALSE
630,PIVI03,VENTOS DE SAO CRISPIM,48.4,2023-05-24,-8.0355,-40.6761,FALSE
631,PREOLI,EOLIO   ELETRICA DE PALMAS,2.5,1999-02-01,-26.5781,-51.7004,FALSE
632,RJUEGG,GARGAU,28.05,2010-10-28,-21.5657,-41.0731,FALSE
633,BAELA2,LARANJEIRAS II,30,2018-04-13,-11.1311,-42.6968,FALSE
634,RNARAT,ARATUA I,14.4,2012-01-31,-5.0919,-36.3377,FALSE
635,RNARIZ,ARIZONA 1,28,2013-10-01,-5.3042,-35.382,FALSE
636,RNCEE1,EURUS I,30,2014-12-03,-5.3655,-35.8621,FALSE
637,RNCEE3,EURUS III,30,2014-12-03,-5.3971,-35.8748,FALSE
638,RNCEM1,MORRO DOS VENTOS I,28.8,2014-03-29,-5.3628,-35.819,FALSE
639,RNCEM2,MORRO DOS VENTOS II,29.16,2015-04-16,-5.3601,-35.8355,FALSE
640,RNCEM3,MORRO DOS VENTOS III,28.8,2014-03-29,-5.3744,-35.8683,FALSE
641,RNCEM4,MORRO DOS VENTOS IV,28.8,2014-03-29,-5.382,-35.8809,FALSE
642,RNCEM6,MORRO DOS VENTOS VI,28.8,2014-03-29,-5.3437,-35.8783,FALSE
643,RNCEM9,MORRO DOS VENTOS IX,30,2014-03-29,-5.3053,-35.9132,FALSE
644,RNEAB1,ASA BRANCA I,27,2015-08-05,-5.2323,-35.8266,FALSE
645,RNEAB2,ASA BRANCA II,27,2015-09-15,-5.2286,-35.8808,FALSE
646,RNEAB3,ASA BRANCA III,27,2015-09-04,-5.255,-35.8436,FALSE
647,RNEAB4,ASA BRANCA IV,32,2014-12-06,-5.3291,-35.9916,FALSE
648,RNEAB5,ASA BRANCA V,32,2014-12-06,-5.3828,-36.0088,FALSE
649,RNEAB6,ASA BRANCA VI,32,2014-12-06,-5.3596,-35.9987,FALSE
650,RNEAB7,ASA BRANCA VII,32,2014-12-06,-5.2529,-35.943,FALSE
651,RNEAB8,ASA BRANCA VIII,32,2014-12-06,-5.2812,-35.9804,FALSE
652,RNEAF1,AFONSO BEZERRA I,29.4,2022-04-30,-5.32,-36.51,FALSE
653,RNEAF2,AFONSO BEZERRA II,29.4,2022-04-30,-5.36,-36.47,FALSE
654,RNEAF3,AFONSO BEZERRA III,29.4,2022-05-03,-5.41,-36.49,FALSE
655,RNEAF4,AFONSO BEZERRA IV,16.8,2022-05-03,-5.35,-36.47,FALSE
656,RNEAG1,ANGICOS I,25.2,2022-05-14,-5.32,-36.49,FALSE
657,RNEAG2,ANGICOS II,29.4,2022-05-14,-5.36,-36.5,FALSE
658,RNEAL2,VILA ALAGOAS II,21,2022-02-18,-5.1718,-37.0928,FALSE
659,RNEARO,AROEIRA,32.9,2017-12-28,-5.3387,-36.1129,FALSE
660,RNEAV1,AVENTURA I,28.2,2018-03-20,-5.3801,-35.8068,FALSE
661,RNEAV2,AVENTURA II,21,2021-07-08,-5.3211,-35.7351,FALSE
662,RNEAV3,AVENTURA III,25.2,2021-07-08,-5.3288,-35.7594,FALSE
663,RNEAV4,AVENTURA IV,29.4,2021-07-08,-5.3421,-35.7786,FALSE
664,RNEAV5,AVENTURA V,29.4,2021-07-08,-5.3485,-35.7951,FALSE
665,RNEBE1,BOA ESPERANCA I,30.8,2019-01-05,-5.5294,-35.9725,FALSE
666,RNEBEN,VENTOS DE SAO BENEDITO,29.4,2016-08-13,-5.2263,-35.7852,FALSE
667,RNEBF1,BAIXA DO FEIJAO I,30,2016-05-21,-5.322,-36.0606,FALSE
668,RNEBF2,BAIXA DO FEIJAO II,30,2016-05-21,-5.3698,-36.0317,FALSE
669,RNEBF3,BAIXA DO FEIJAO III,30,2016-05-21,-5.3022,-36.0381,FALSE
670,RNEBF4,BAIXA DO FEIJAO IV,30,2016-05-21,-5.3449,-36.04,FALSE
671,RNECA1,CAICARA I,27,2015-12-05,-4.9977,-36.9147,FALSE
672,RNECA2,CAICARA II,18,2015-12-09,-4.9877,-36.9287,FALSE
673,RNECAD,CARCARA II,30,2014-12-09,-4.9457,-37.0036,FALSE
674,RNECAU,CARCARA I,30,2015-03-24,-4.9438,-36.9918,FALSE
675,RNECBR,COSTA BRANCA,20.7,2014-12-03,-5.4215,-35.8526,FALSE
676,RNECDU,COSTA DAS DUNAS,28.4,2021-06-25,-5.2334,-35.4885,FALSE
677,RNECE1,VENTOS DE VILA CEARA I,31.185,2020-02-29,-5.1271,-37.0368,FALSE
678,RNECE2,VENTOS DE VILA CEARA II,31.185,2020-02-08,-5.1057,-37.0368,FALSE
679,RNECEA,VILA CEARA I,31.95,2020-12-19,-5.1009,-37.0151,FALSE
680,RNECM1,UEE CMR_CUMARU 01,42,2021-08-04,-5.1525,-35.7644,FALSE
681,RNECM2,CUMARU II,42,2021-08-13,-5.1813,-35.7806,FALSE
682,RNECM3,CUMARU III,42,2021-10-16,-5.1319,-35.8098,FALSE
683,RNECM4,CUMARU IV,42,2021-10-16,-5.16,-35.7833,FALSE
684,RNECM5,CUMARU V,37.8,2021-10-16,-5.1458,-35.7989,FALSE
685,RNECNB,CARNAUBAS,27,2017-06-17,-5.152,-35.6629,FALSE
686,RNECP3,CABECO PRETO III,26,2016-11-17,-5.4183,-35.9862,FALSE
687,RNECP5,CABECO PRETO V,26,2016-11-17,-5.4799,-36.0044,FALSE
688,RNECP6,CABECO PRETO VI,18,2016-11-19,-5.4643,-35.9355,FALSE
689,RNECUT,DREEN CUTIA,23.1,2018-12-22,-5.1034,-35.9031,FALSE
690,RNECV1,CAMPO DOS VENTOS I,25.2,2016-06-23,-5.3536,-35.9344,FALSE
691,RNECV2,CAMPO DOS VENTOS II,30,2014-12-04,-5.3201,-35.9322,FALSE
692,RNECV3,CAMPO DOS VENTOS III,25.2,2016-05-05,-5.3356,-35.9669,FALSE
693,RNECV5,CAMPO DOS VENTOS V,25.2,2016-06-04,-5.3242,-35.9436,FALSE
694,RNECVD,CABECO VERMELHO II,16.8,2018-05-22,-5.4948,-35.9877,FALSE
695,RNECVE,CABECO VERMELHO,28.6,2018-05-22,-5.4928,-36.0037,FALSE
696,RNEDIM,VENTOS DE SANTO DIMAS,29.4,2016-10-11,-5.2338,-35.7903,FALSE
697,RNEDOM,SAO DOMINGOS,25.2,2016-08-27,-5.2071,-35.8232,FALSE
698,RNEENE,ESPERANCA DO NORDESTE,27.3,2018-12-28,-5.0828,-35.9552,FALSE
699,RNEEP1,VILA ESPIRITO SANTO I  ANTIGA POTIGUAR B21,33.6,2021-11-26,-5.1869,-37.1132,FALSE
700,RNEEP2,VILA ESPIRITO SANTO II  ANTIGA POTIGUAR B22,37.8,2022-02-18,-5.1877,-37.1357,FALSE
701,RNEEP3,VILA ESPIRITO SANTO III  ANTIGA POTIGUAR B23,37.8,2022-01-11,-5.1994,-37.1536,FALSE
702,RNEEP4,VILA ESPIRITO SANTO IV  ANTIGA POTIGUAR B24,37.8,2022-02-25,-5.2251,-37.1547,FALSE
703,RNEEP5,VILA ESPIRITO SANTO V  ANTIGA POTIGUAR B25,37.8,2021-12-31,-5.2347,-37.1342,FALSE
704,RNEEU4,EURUS IV,27,2015-08-20,-5.2622,-35.8145,FALSE
705,RNEFG1,FILGUEIRA I,39.05,2022-01-22,-5.0207,-36.9989,FALSE
706,RNEFG2,FILGUEIRA II,28.4,2021-11-04,-5.0127,-37.0396,FALSE
707,RNEFIB,FIGUEIRA BRANCA,10.65,2021-07-17,-5.2424,-35.4615,FALSE
708,RNEFTO,FAROL DE TOUROS,24.85,2021-09-16,-5.255,-35.5018,FALSE
709,RNEGAM,GAMELEIRA,17.75,2021-08-06,-5.2444,-35.4591,FALSE
710,RNEGUA,DREEN GUAJIRU,21,2018-12-28,-5.0924,-35.9073,FALSE
711,RNEJ23,VENTOS DE SAO JANUARIO 23,58.8,2021-12-24,-5.8908,-35.9608,FALSE
712,RNEJAN,GE JANGADA,27.3,2018-12-29,-5.0575,-36.0146,FALSE
713,RNEJER,JERICO,32.9,2017-12-28,-5.3689,-36.0927,FALSE
714,RNEJU1,JUNCO I,24,2015-12-05,-5.0265,-36.9165,FALSE
715,RNEJU2,JUNCO II,24,2015-12-05,-5.0132,-36.916,FALSE
716,RNEJUR,JUREMAS,16.1,2014-12-05,-5.3898,-35.8463,FALSE
717,RNELAN,LANCHINHA,28,2016-02-19,-6.1353,-36.722,FALSE
718,RNEM01,VENTOS DE SANTA MARTINA 01,63,2021-10-14,-5.73,-35.9053,FALSE
719,RNEM09,VENTOS DE SANTA MARTINA 09,63,2021-06-19,-5.8192,-35.9228,FALSE
720,RNEM10,VENTOS DE SANTA MARTINA 10,63,2021-07-14,-5.8504,-35.9419,FALSE
721,RNEM11,VENTOS DE SANTA MARTINA 11,58.8,2021-08-19,-5.7831,-35.905,FALSE
722,RNEM12,VENTOS DE SANTA MARTINA 12,58.8,2021-09-17,-5.7592,-35.8861,FALSE
723,RNEM13,VENTOS DE SANTA MARTINA 13,63,2021-08-31,-5.7111,-35.8958,FALSE
724,RNEM14,VENTOS DE SANTA MARTINA 14,63,2021-11-19,-5.715,-35.8828,FALSE
725,RNEMA1,VILA MARANHAO I,31.95,2021-02-11,-5.076,-36.993,FALSE
726,RNEMA2,VILA MARANHAO II,31.95,2021-03-31,-5.052,-36.9945,FALSE
727,RNEMA3,VILA MARANHAO III,31.95,2020-09-29,-5.1293,-37.0052,FALSE
728,RNEMAC,MACACOS,20.7,2014-12-11,-5.412,-35.8483,FALSE
729,RNEMC1,MACAMBIRA I,18,2016-07-14,-6.0463,-36.5551,FALSE
730,RNEMC2,MACAMBIRA II,18,2016-07-23,-6.0754,-36.5302,FALSE
731,RNEMHE,GE MARIA HELENA,27.3,2018-12-28,-5.0681,-36.0145,FALSE
732,RNEMON,SANTA MONICA,29.4,2016-12-09,-5.2798,-35.8006,FALSE
733,RNEMT1,VENTOS DE VILA MATO GROSSO I  ANTIGA VILA ALAGOAS,58.905,2021-06-11,-5.1722,-37.1082,FALSE
734,RNEMTO,VENTOS DE SAO MARTINHO,14.7,2016-11-04,-5.2779,-35.7809,FALSE
735,RNEP31,POTIGUAR B 31,45.045,2021-04-20,-5.2696,-37.1139,FALSE
736,RNEP32,POTIGUAR B 32,48.51,2021-04-30,-5.1837,-36.9827,FALSE
737,RNEP33,POTIGUAR B 33,58.905,2021-06-02,-5.2682,-37.154,FALSE
738,RNEPB1,VENTOS DE VILA PARAIBA I,34.65,2020-05-28,-5.13,-36.977,FALSE
739,RNEPB2,VENTOS DE VILA PARAIBA II,34.65,2020-04-10,-5.1055,-36.9771,FALSE
740,RNEPEL,PELADO,20,2016-02-20,-6.0043,-36.4353,FALSE
741,RNEPEP,PEDRA PRETA,20.7,2014-12-03,-5.4268,-35.8534,FALSE
742,RNEPI1,VILA PIAUI I,37.8,2020-07-17,-5.0971,-37.1047,FALSE
743,RNEPI2,VILA PIAUI II,37.8,2020-08-27,-5.0982,-37.0795,FALSE
744,RNEPI3,VILA PIAUI III,42,2020-07-07,-5.1025,-37.0636,FALSE
745,RNEPOT,POTIGUAR,27.3,2018-12-28,-5.0619,-35.9048,FALSE
746,RNEPR1,RENASCENCA I,30,2014-12-24,-5.3043,-35.8692,FALSE
747,RNEPR2,RENASCENCA II,30,2014-12-24,-5.307,-35.8887,FALSE
748,RNEPR3,RENASCENCA III,30,2014-12-24,-5.2953,-35.8957,FALSE
749,RNEPR4,RENASCENCA IV,30,2014-12-24,-5.2981,-35.9164,FALSE
750,RNEPRA,PEDRA RAJADA,20,2017-12-07,-5.9142,-36.3092,FALSE
751,RNEPRD,PEDRA RAJADA II,20,2017-12-07,-5.8876,-36.2893,FALSE
752,RNEPVN,PARAISO DOS VENTOS DO NORDESTE,27.3,2019-01-05,-5.0848,-35.9444,FALSE
753,RNERED,REDUTO,27,2017-06-17,-5.1282,-35.6887,FALSE
754,RNERN1,VILA RIO GRANDE DO NORTE I,25.2,2020-03-25,-5.1569,-37.0209,FALSE
755,RNERN2,VILA RIO GRANDE DO NORTE II,37.8,2020-04-18,-5.141,-37.0401,FALSE
756,RNESA1,SANTANA I,30,2016-12-28,-6.0535,-36.4556,FALSE
757,RNESA2,SANTANA II,24,2016-12-28,-6.0428,-36.464,FALSE
758,RNESB1,SAO BENTO DO NORTE I,23.1,2019-01-29,-5.1274,-35.9326,FALSE
759,RNESB2,SAO BENTO DO NORTE II,23.1,2019-01-29,-5.1466,-35.9362,FALSE
760,RNESB3,SAO BENTO DO NORTE III,23.1,2019-04-08,-5.0743,-36.0307,FALSE
761,RNESCR,SANTO CRISTO,27,2017-06-17,-5.1355,-35.6207,FALSE
762,RNESF1,SAO FERNANDO 1,76.23,2020-10-03,-5.1769,-36.0113,FALSE
763,RNESF2,SAO FERNANDO 2,72.765,2020-12-15,-5.1801,-36.0287,FALSE
764,RNESF3,SAO FERNANDO 3,24.255,2020-12-25,-5.1529,-36.0422,FALSE
765,RNESF4,SAO FERNANDO 4,83.16,2021-03-30,-5.1288,-36.015,FALSE
766,RNESHE,SANTA HELENA,29.7,2015-05-06,-5.4721,-35.9162,FALSE
767,RNESJO,SAO JOAO,27,2017-06-20,-5.1287,-35.6538,FALSE
768,RNESM1,SAO MIGUEL I,21,2019-02-14,-5.154,-35.9853,FALSE
769,RNESM2,SAO MIGUEL II,21,2019-02-02,-5.1566,-35.9982,FALSE
770,RNESM3,SAO MIGUEL III,21,2019-02-14,-5.156,-35.9994,FALSE
771,RNESMA,SM  SANTA MARIA,29.7,2015-04-23,-5.4421,-35.9233,FALSE
772,RNESR1,SANTA ROSA E MUNDO NOVO I,33.6,2022-02-08,-5.9132,-36.1539,FALSE
773,RNESR2,SANTA ROSA E MUNDO NOVO II,29.4,2021-12-01,-5.8835,-36.1975,FALSE
774,RNESR3,SANTA ROSA E MUNDO NOVO III,33.6,2022-01-05,-5.8537,-36.2604,FALSE
775,RNESR4,SANTA ROSA E MUNDO NOVO IV,33.6,2022-01-01,-5.8744,-36.2667,FALSE
776,RNESR5,SANTA ROSA E MUNDO NOVO V,25.2,2021-12-18,-5.9004,-36.2055,FALSE
777,RNESS1,SERRA DE SANTANA I,20,2016-03-02,-6.0565,-36.5804,FALSE
778,RNESS2,SERRA DE SANTANA II,30,2016-03-02,-6.1014,-36.5786,FALSE
779,RNESS3,SERRA DE SANTANA III,30,2016-03-02,-6.0248,-36.5119,FALSE
780,RNESUR,VENTOS DE SANTO URIEL,16.2,2015-05-22,-5.4873,-35.9001,FALSE
781,RNETER,TERRAL,30,2015-03-24,-4.9618,-37.0355,FALSE
782,RNETS1,TERRA SANTA I,60.35,2021-08-14,-5.2569,-36.0575,FALSE
783,RNETS2,TERRA SANTA II,31.95,2021-06-29,-5.2298,-36.1029,FALSE
784,RNEUBZ,UMBUZEIROS,32.9,2018-03-30,-5.4115,-36.0834,FALSE
785,RNEURS,SANTA URSULA,27.3,2016-11-15,-5.2937,-35.7893,FALSE
786,RNEVA2,VILA ACRE II,31.185,2019-12-25,-5.0447,-37.0245,FALSE
787,RNEVA5,VILA AMAZONAS V,24,2016-08-27,-4.9881,-36.9646,FALSE
788,RNEVAI,VILA ACRE I,27.3,2017-06-23,-5.0636,-37.0291,FALSE
789,RNEVP1,VILA PARA I,27,2016-09-10,-5.0148,-36.9645,FALSE
790,RNEVP2,VILA PARA II,24,2016-09-15,-5.0357,-36.9644,FALSE
791,RNEVP3,VILA PARA III,24,2016-10-07,-5.0656,-36.9643,FALSE
792,RNEVS1,VILA SERGIPE I,37.8,2020-05-27,-5.1482,-37.0622,FALSE
793,RNEVS2,VILA SERGIPE II,37.8,2020-05-30,-5.1601,-37.0639,FALSE
794,RNEVS3,VILA SERGIPE III,16.8,2020-06-09,-5.1765,-37.081,FALSE
795,RNEVSM,VENTOS DE SAO MIGUEL,30,2014-12-24,-5.2839,-35.8755,FALSE
796,RNMEL0,MEL 02,20,2013-02-19,-4.9467,-36.9641,FALSE
797,RNMIAS,MIASSABA II,14.4,2011-12-22,-5.0826,-36.4074,FALSE
798,RNPARQ,CABECO PRETO IV,19.8,2012-05-04,-5.4484,-35.9561,FALSE
799,RNPARU,CABECO PRETO,19.8,2012-05-04,-5.4187,-35.954,FALSE
800,RNTEB1,TODA ENERGIA DO BRASIL,31.095,2021-09-07,-5.0922,-37.1055,FALSE
801,RNUAD,ALEGRIA II,100.65,2011-12-30,-5.1243,-36.3833,FALSE
802,RNUAU,ALEGRIA I,51,2010-12-30,-5.0942,-36.3631,FALSE
803,RNUE12,UNIAO DOS VENTOS 12,25.2,2018-02-10,-5.1044,-35.8533,FALSE
804,RNUE13,UNIAO DOS VENTOS 13,18.9,2018-01-27,-5.0837,-35.8623,FALSE
805,RNUE14,UNIAO DOS VENTOS 14,21,2018-01-26,-5.1053,-35.872,FALSE
806,RNUE15,UNIAO DOS VENTOS 15,31.5,2019-12-17,-5.2942,-35.7466,FALSE
807,RNUE16,UNIAO DOS VENTOS 16,28.875,2019-12-19,-5.2637,-35.7638,FALSE
808,RNUEAB,AREIA BRANCA,27.3,2014-02-18,-4.9686,-36.9009,FALSE
809,RNUEBV,DREEN BOA VISTA,14,2015-02-25,-5.1106,-35.9279,FALSE
810,RNUEC1,SANTA CLARA I,30,2014-03-29,-5.2432,-35.8988,FALSE
811,RNUEC2,SANTA CLARA II,30,2014-03-29,-5.2675,-35.9102,FALSE
812,RNUEC3,SANTA CLARA III,30,2014-03-29,-5.2688,-35.9036,FALSE
813,RNUEC4,SANTA CLARA IV,30,2014-03-29,-5.2394,-35.9135,FALSE
814,RNUEC5,SANTA CLARA V,30,2014-03-29,-5.2597,-35.9217,FALSE
815,RNUEC6,SANTA CLARA VI,30,2014-03-29,-5.2403,-35.927,FALSE
816,RNUEER,EURUS II,30,2015-01-01,-5.3919,-35.8331,FALSE
817,RNUEFA,FAROL,20,2015-02-25,-5.097,-36.0204,FALSE
818,RNUEG1,CALANGO 1,30,2016-01-30,-6.0339,-36.544,FALSE
819,RNUEG2,CALANGO 2,30,2016-01-30,-6.0166,-36.4835,FALSE
820,RNUEG3,CALANGO 3,30,2016-01-30,-6.0489,-36.546,FALSE
821,RNUEG4,CALANGO 4,30,2016-01-30,-6.0236,-36.472,FALSE
822,RNUEG5,CALANGO 5,30,2016-01-30,-6.0303,-36.488,FALSE
823,RNUEG6,CALANGO 6,30,2016-12-28,-6.0005,-36.4498,FALSE
824,RNUEM1,MANGUE SECO 1,26,2011-09-30,-5.174,-36.3024,FALSE
825,RNUEM2,MANGUE SECO 2,26,2011-09-24,-5.1658,-36.3192,FALSE
826,RNUEM3,MANGUE SECO 3,26,2011-08-26,-5.1851,-36.361,FALSE
827,RNUEM5,MANGUE SECO 5,26,2011-11-01,-5.1675,-36.407,FALSE
828,RNUEMD,MODELO II,25.85,2014-10-23,-5.4144,-35.9001,FALSE
829,RNUEMP,MODELO I,30.55,2014-10-25,-5.4308,-35.8931,FALSE
830,RNUEMT,MAR E TERRA,23.1,2014-02-18,-4.964,-36.9147,FALSE
831,RNUEOD,DREEN OLHO D'AGUA,30,2015-02-25,-5.0545,-35.9687,FALSE
832,RNUER1,RIACHAO VI,29.7,2015-06-01,-5.5376,-35.4467,FALSE
833,RNUER2,RIACHAO II,27,2015-06-01,-5.5694,-35.4473,FALSE
834,RNUER3,RIACHAO I,29.7,2015-06-27,-5.523,-35.4285,FALSE
835,RNUER4,RIACHAO IV,29.7,2015-06-01,-5.5211,-35.469,FALSE
836,RNUER6,EURUS VI,8,2014-03-29,-5.2329,-35.9319,FALSE
837,RNUER7,RIACHAO VII,29.7,2015-06-01,-5.5778,-35.464,FALSE
838,RNUERF,RN 15   RIO DO FOGO,49.3,2006-07-15,-5.3097,-35.3867,FALSE
839,RNUERN,RENASCENCA V,30,2015-01-01,-5.2698,-35.8589,FALSE
840,RNUERT,REI DOS VENTOS 3,60.12,2014-02-01,-5.1188,-36.1632,FALSE
841,RNUERU,REI DOS VENTOS 1,58.45,2014-02-01,-5.1009,-36.2021,FALSE
842,RNUES3,MIASSABA 3,68.47,2014-02-01,-5.1294,-36.4497,FALSE
843,RNUESB,DREEN SAO BENTO DO NORTE,30,2015-02-25,-5.053,-35.9784,FALSE
844,RNUEV1,UNIAO DOS VENTOS 1,22.4,2014-04-05,-5.0774,-35.8398,FALSE
845,RNUEV2,UNIAO DOS VENTOS 2,22.4,2014-04-05,-5.0806,-35.8258,FALSE
846,RNUEV3,UNIAO DOS VENTOS 3,22.4,2014-04-08,-5.0825,-35.81,FALSE
847,RNUEV4,UNIAO DOS VENTOS 4,11.2,2014-04-08,-5.0903,-35.798,FALSE
848,RNUEV5,UNIAO DOS VENTOS 5,24,2014-04-08,-5.0904,-35.782,FALSE
849,RNUEV6,UNIAO DOS VENTOS 6,12.8,2014-04-05,-5.0946,-35.767,FALSE
850,RNUEV7,UNIAO DOS VENTOS 7,14.4,2014-04-05,-5.0971,-35.752,FALSE
851,RNUEV8,UNIAO DOS VENTOS 8,14.4,2014-04-05,-5.0727,-35.888,FALSE
852,RNUEV9,UNIAO DOS VENTOS 9,11.2,2014-04-05,-5.0872,-35.887,FALSE
853,RNUEVX,UNIAO DOS VENTOS 10,14.4,2014-04-05,-5.1072,-35.889,FALSE
854,032080-3,AW SAO JOAO,25.2,2023-01-01,-5.7474873212031,-35.9015274354742,TRUE
855,032194-0,AW SANTA REGIA,37.8,2023-02-06,-5.7474873212031,-35.9015274354742,TRUE
856,032404-3,MUNDO NOVO VII,24.255,2024-04-09,-5.7474873212031,-35.9015274354742,TRUE
857,RNEMV1,MONTE VERDE I,67.2,2022-12-15,-5.5,-36.19,FALSE
858,RNEMV2,MONTE VERDE II,67.2,2023-01-11,-5.46,-36.2,FALSE
859,032593-7,VENTOS DE SANTA LEIA 01,67.5,2025-06-07,-5.7474873212031,-35.9015274354742,TRUE
860,RNEJD1,JANDAIRA I,10.395,2022-08-24,-5.42,-36.02,FALSE
861,033597-5,ACAUA I,25.2,2023-09-05,-5.7474873212031,-35.9015274354742,TRUE
862,033598-3,ACAUA II,21,2023-09-17,-5.7474873212031,-35.9015274354742,TRUE
863,033681-5,VENTOS DE SANTA LEIA 02,67.5,2025-06-07,-5.7474873212031,-35.9015274354742,TRUE
864,033690-4,VENTOS DE SANTA LEIA 04,67.1,2025-06-07,-5.7474873212031,-35.9015274354742,TRUE
865,033691-2,VENTOS DE SANTA LEIA 05,67.5,2023-08-25,-5.7474873212031,-35.9015274354742,TRUE
866,033831-1,SANTO AGOSTINHO 1,18.6,2023-10-15,-5.7474873212031,-35.9015274354742,TRUE
867,033833-8,SANTO AGOSTINHO 2,31,2023-08-10,-5.7474873212031,-35.9015274354742,TRUE
868,033834-6,SANTO AGOSTINHO 3,12.4,2023-07-10,-5.7474873212031,-35.9015274354742,TRUE
869,033835-4,SANTO AGOSTINHO 4,37.2,2023-05-04,-5.7474873212031,-35.9015274354742,TRUE
870,033836-2,SANTO AGOSTINHO 5,55.8,2023-05-18,-5.7474873212031,-35.9015274354742,TRUE
871,033838-9,SANTO AGOSTINHO 6,24.8,2024-12-08,-5.7474873212031,-35.9015274354742,TRUE
872,033853-2,SANTO AGOSTINHO 13,37.2,2023-04-25,-5.7474873212031,-35.9015274354742,TRUE
873,033854-0,SANTO AGOSTINHO 14,6.2,2023-04-25,-5.7474873212031,-35.9015274354742,TRUE
874,033857-5,SANTO AGOSTINHO 17,43.4,2023-04-25,-5.7474873212031,-35.9015274354742,TRUE
875,033864-8,ACAUA III,16.8,2023-09-01,-5.7474873212031,-35.9015274354742,TRUE
876,033872-9,SANTO AGOSTINHO 18,31,2023-10-15,-5.7474873212031,-35.9015274354742,TRUE
877,033875-3,SANTO AGOSTINHO 21,31,2023-07-06,-5.7474873212031,-35.9015274354742,TRUE
878,RNEMV3,MONTE VERDE III,58.8,2023-02-01,-5.44,-36.22,FALSE
879,033964-4,BAIXA DO SITIO,46.2,2023-08-30,-5.7474873212031,-35.9015274354742,TRUE
880,034498-2,ANEMUS WIND 1,37.8,2023-08-14,-5.7474873212031,-35.9015274354742,TRUE
881,034499-0,ANEMUS WIND 2,46.2,2023-05-06,-5.7474873212031,-35.9015274354742,TRUE
882,034612-8,PASSAGEM,52,2024-01-01,-5.7474873212031,-35.9015274354742,TRUE
883,034937-2,VENTOS DE SANTA LEIA 03,67.5,2023-08-04,-5.7474873212031,-35.9015274354742,TRUE
884,RNEJD2,JANDAIRA II,24.255,2022-09-04,-5.43,-36.02,FALSE
885,035214-4,SANTO AGOSTINHO 25,24.8,2023-03-02,-5.7474873212031,-35.9015274354742,TRUE
886,035215-2,SANTO AGOSTINHO 26,43.4,2023-03-02,-5.7474873212031,-35.9015274354742,TRUE
887,035216-0,SANTO AGOSTINHO 27,37.2,2023-03-10,-5.7474873212031,-35.9015274354742,TRUE
888,RNEJD3,JANDAIRA III,27.72,2022-07-15,-5.43,-36.01,FALSE
889,RNEJD4,JANDAIRA IV,27.72,2022-08-15,-5.45,-36.01,FALSE
890,RNEJR1,JERUSALEM I,29.4,2022-12-30,-5.61,-36.11,FALSE
891,RNEJR2,JERUSALEM II,29.4,2022-12-30,-5.63,-36.11,FALSE
892,RNEJR3,JERUSALEM III,29.4,2022-12-30,-5.65,-36.1,FALSE
893,RNEJR4,JERUSALEM IV,29.4,2022-12-30,-5.68,-36.1,FALSE
894,RNEJR5,JERUSALEM V,29.4,2022-12-30,-5.68,-36.12,FALSE
895,RNEJR6,JERUSALEM VI,33.6,2022-12-30,-5.69,-36.12,FALSE
896,RNEMV4,MONTE VERDE IV,46.2,2023-02-16,-5.48,-36.23,FALSE
897,RNEMV5,MONTE VERDE V,33.6,2023-02-11,-5.49,-36.26,FALSE
898,RNEMV6,MONTE VERDE VI,46.2,2022-12-26,-5.52,-36.28,FALSE
899,RNEBQ1,BOQUEIRAO I,42,2022-12-30,-5.7,-36.13,FALSE
900,RNEBQ2,BOQUEIRAO II,37.8,2022-12-30,-5.7,-36.06,FALSE
901,044974-1,OESTE SERIDO I,25.2,2025-01-01,-5.7474873212031,-35.9015274354742,TRUE
902,044975-0,OESTE SERIDO II,21,2024-01-01,-5.7474873212031,-35.9015274354742,TRUE
903,044976-8,OESTE SERIDO III,25.2,2024-01-01,-5.7474873212031,-35.9015274354742,TRUE
904,045010-3,VENTOS DE SANTA LEIA 12,64.9,2025-06-07,-5.7474873212031,-35.9015274354742,TRUE
905,045011-1,VENTOS DE SANTA LEIA 13,66.1,2025-06-07,-5.7474873212031,-35.9015274354742,TRUE
906,045012-0,VENTOS DE SANTA LEIA 14,66.1,2025-06-07,-5.7474873212031,-35.9015274354742,TRUE
907,047161-5,OESTE SERIDO XI,33.6,2025-01-01,-5.7474873212031,-35.9015274354742,TRUE
908,047162-3,OESTE SERIDO IX,25.2,2024-01-01,-5.7474873212031,-35.9015274354742,TRUE
909,047165-8,OESTE SERIDO IV,25.2,2024-01-01,-5.7474873212031,-35.9015274354742,TRUE
910,047166-6,OESTE SERIDO V,25.2,2025-01-01,-5.7474873212031,-35.9015274354742,TRUE
911,047198-4,VENTOS DE SANTA TEREZA 14,39.2,2023-07-15,-5.7474873212031,-35.9015274354742,TRUE
912,047235-2,VENTOS DE SANTA TEREZA 01,44.8,2023-07-23,-5.7474873212031,-35.9015274354742,TRUE
913,047239-5,VENTOS DE SANTA TEREZA 05,44.8,2023-07-20,-5.7474873212031,-35.9015274354742,TRUE
914,047244-1,VENTOS DE SANTA TEREZA 10,39.2,2023-05-30,-5.7474873212031,-35.9015274354742,TRUE
915,047247-6,VENTOS DE SANTA TEREZA 13,39.2,2023-07-15,-5.7474873212031,-35.9015274354742,TRUE
916,049664-2,VENTOS DE SAO RAFAEL 01,6,2024-01-01,-5.7474873212031,-35.9015274354742,TRUE
917,049665-0,VENTOS DE SAO RAFAEL 02,6,2024-01-01,-5.7474873212031,-35.9015274354742,TRUE
918,049666-9,VENTOS DE SAO RAFAEL 03,6,2024-01-01,-5.7474873212031,-35.9015274354742,TRUE
919,049667-7,VENTOS DE SAO RAFAEL 04,6,2024-01-01,-5.7474873212031,-35.9015274354742,TRUE
920,049668-5,VENTOS DE SAO RAFAEL 05,6,2024-01-01,-5.7474873212031,-35.9015274354742,TRUE
921,049669-3,VENTOS DE SAO RAFAEL 06,6,2024-01-01,-5.7474873212031,-35.9015274354742,TRUE
922,049670-7,VENTOS DE SAO RAFAEL 07,6,2024-01-01,-5.7474873212031,-35.9015274354742,TRUE
923,049671-5,VENTOS DE SAO RAFAEL 08,6,2024-01-01,-5.7474873212031,-35.9015274354742,TRUE
924,050015-1,VENTOS DE SAO RAFAEL 09,6,2024-01-01,-5.7474873212031,-35.9015274354742,TRUE
925,050016-0,VENTOS DE SAO RAFAEL 10,6,2024-01-01,-5.7474873212031,-35.9015274354742,TRUE
926,050017-8,VENTOS DE SAO RAFAEL 11,6,2024-01-01,-5.7474873212031,-35.9015274354742,TRUE
927,051067-0,ANEMUS WIND 3,54.6,2023-08-07,-5.7474873212031,-35.9015274354742,TRUE
928,RSACA1,ATLANTICA I,30,2014-02-19,-30.3188,-50.3161,FALSE
929,RSACA2,ATLANTICA II,30,2014-03-01,-30.3266,-50.3234,FALSE
930,RSACA4,ATLANTICA IV,30,2014-03-22,-30.2919,-50.335,FALSE
931,RSACA5,ATLANTICA V,30,2013-11-14,-30.2915,-50.305,FALSE
932,RSAG04,AURA MANGUEIRA IV,21,2017-09-02,-33.0656,-52.864,FALSE
933,RSAG06,AURA MANGUEIRA VI,27,2017-09-15,-33.0512,-52.8585,FALSE
934,RSAG07,AURA MANGUEIRA VII,24,2016-12-27,-33.1895,-52.9301,FALSE
935,RSAG11,AURA MANGUEIRA XI,9,2017-02-02,-33.1761,-52.9207,FALSE
936,RSAG12,AURA MANGUEIRA XII,15,2017-06-02,-33.0991,-52.8783,FALSE
937,RSAG13,AURA MANGUEIRA XIII,15,2017-05-13,-33.1184,-52.9001,FALSE
938,RSAG15,AURA MANGUEIRA XV,18,2017-03-25,-33.1634,-52.8937,FALSE
939,RSAG17,AURA MANGUEIRA XVII,15,2017-07-21,-33.0951,-52.8435,FALSE
940,RSAR02,AURA MIRIM II,30,2016-12-27,-33.138,-52.912,FALSE
941,RSAR04,AURA MIRIM IV,15,2017-02-02,-33.2078,-52.9297,FALSE
942,RSAR06,AURA MIRIM VI,9,2017-07-08,-33.0984,-52.862,FALSE
943,RSAR08,AURA MIRIM VIII,9,2017-07-08,-33.0871,-52.8957,FALSE
944,RSCH01,EOL CHUI I,24,2015-06-16,-33.6565,-53.3936,FALSE
945,RSCH02,EOL CHUI II,22,2015-06-16,-33.6594,-53.4003,FALSE
946,RSCH04,EOL CHUI IV,22,2015-06-09,-33.6647,-53.4164,FALSE
947,RSCH05,EOL CHUI V,30,2015-05-23,-33.6681,-53.4218,FALSE
948,RSCH09,EOL CHUI 09,17.9,2015-10-22,-33.6877,-53.381,FALSE
949,RSCSE2,CORREDOR SENANDES II,21.6,2015-02-04,-32.3862,-52.327,FALSE
950,RSCSE3,CORREDOR SENANDES III,27,2015-01-23,-32.4127,-52.3555,FALSE
951,RSCSE4,CORREDOR SENANDES IV,29.7,2015-04-11,-32.3689,-52.342,FALSE
952,RSECC1,CERRO CHATO I,30,2012-01-06,-30.8407,-55.7251,FALSE
953,RSECC2,CERRO CHATO II,30,2011-08-31,-30.8485,-55.6856,FALSE
954,RSECC3,CERRO CHATO III,30,2011-06-07,-30.8018,-55.7142,FALSE
955,RSECIN,CAPAO DO INGLES,10,2015-12-16,-30.9163,-55.7084,FALSE
956,RSECSE,COXILHA SECA,30,2015-12-22,-30.8879,-55.7353,FALSE
957,RSEGAL,GALPOES,8,2015-12-16,-30.8808,-55.6765,FALSE
958,RSEIB1,EOL IBIRAPUITA 1,25.2,2015-08-27,-30.7709,-55.6629,FALSE
959,RSEIN2,INDIOS 2,29.9,2014-12-16,-30.0035,-50.3319,FALSE
960,RSEIN3,INDIOS 3,23,2014-12-16,-29.9831,-50.3324,FALSE
961,RSEOS2,OSORIO 2,27.6,2012-12-19,-29.9535,-50.252,FALSE
962,RSEOS3,OSORIO 3,29.9,2013-02-15,-29.981,-50.255,FALSE
963,RSEP2A,PONTAL 2A,21.6,2016-12-02,-30.2648,-50.7834,FALSE
964,RSEP2B,EOL PONTAL 2B,11.2,2015-04-25,-30.2779,-50.7978,FALSE
965,RSEP3B,PONTAL 3B,27,2017-01-17,-30.2559,-50.7662,FALSE
966,RSEVS2,SANGRADOURO 2,29.9,2012-10-02,-29.939,-50.313,FALSE
967,RSEVS3,SANGRADOURO 3,27.6,2012-05-22,-29.9595,-50.3155,FALSE
968,RSEVSI,INDIOS,50,2006-12-13,-29.9776,-50.2831,FALSE
969,RSEVSO,OSORIO,50,2006-06-29,-29.9583,-50.2833,FALSE
970,RSEVSS,SANGRADOURO,50,2006-09-30,-29.9679,-50.2826,FALSE
971,RSFAZD,FAZENDA ROSARIO 3,16.1,2011-06-30,-30.4525,-50.4226,FALSE
972,RSFAZE,FAZENDA ROSARIO,9.2,2011-06-30,-30.4469,-50.3888,FALSE
973,RSFAZN,FAZENDA ROSARIO 2,23,2013-03-27,-30.4398,-50.4053,FALSE
974,RSMN01,EOLICA MINUANO I,22,2015-05-26,-33.7228,-53.399,FALSE
975,RSMN02,EOLICA MINUANO II,24,2015-05-26,-33.7174,-53.4167,FALSE
976,RSPARQ,PARQUE EOLICO DE PALMARES,9.2,2010-12-29,-30.458,-50.3906,FALSE
977,RSREB1,REB CASSINO I,22,2015-01-14,-32.2169,-52.204,FALSE
978,RSREB2,REB CASSINO II,20,2015-01-14,-32.2103,-52.212,FALSE
979,RSREB3,REB CASSINO III,22,2015-01-14,-32.2183,-52.203,FALSE
980,RSUECI,CIDREIRA,70,2011-05-21,-30.0791,-50.1721,FALSE
981,RSUEXG,XANGRI LA,31.7,2014-12-11,-29.7767,-50.0736,FALSE
982,RSVAR1,VENTO ARAGANO,29.7,2015-04-30,-32.4145,-52.3729,FALSE
983,RSVC01,VERACE I,20,2015-02-24,-33.4952,-53.2711,FALSE
984,RSVC02,VERACE II,20,2015-02-24,-33.5086,-53.2832,FALSE
985,RSVC03,VERACE III,26,2015-02-24,-33.522,-53.279,FALSE
986,RSVC04,VERACE IV,30,2015-02-24,-33.5516,-53.2273,FALSE
987,RSVC05,VERACE V,30,2015-02-24,-33.5357,-53.3012,FALSE
988,RSVC06,VERACE VI,18,2015-02-24,-33.5431,-53.2769,FALSE
989,RSVC07,VERACE VII,30,2015-02-24,-33.5668,-53.246,FALSE
990,RSVC08,VERACE VIII,26,2015-02-24,-33.553,-53.3108,FALSE
991,RSVC09,VERACE IX,30,2015-02-24,-33.5767,-53.2953,FALSE
992,RSVC10,VERACE X,28,2015-02-24,-33.5913,-53.2716,FALSE
993,RSVC24,VERACE 24,19.69,2015-11-26,-33.6392,-53.3098,FALSE
994,RSVC25,VERACE 25,7.16,2015-11-26,-33.6395,-53.3253,FALSE
995,RSVC26,VERACE 26,14.32,2015-11-26,-33.6531,-53.3044,FALSE
996,RSVC27,VERACE 27,16.11,2015-11-26,-33.6543,-53.3238,FALSE
997,RSVC28,VERACE 28,12.53,2015-12-16,-33.6341,-53.3538,FALSE
998,RSVC29,VERACE 29,17.9,2015-12-16,-33.618,-53.3574,FALSE
999,RSVC30,VERACE 30,17.9,2015-12-16,-33.6103,-53.3443,FALSE
1000,RSVC31,VERACE 31,8.95,2015-12-16,-33.607,-53.3256,FALSE
1001,RSVC34,VERACE 34,14.32,2016-01-07,-33.5621,-53.3529,FALSE
1002,RSVC35,VERACE 35,12.53,2015-12-11,-33.5847,-53.3595,FALSE
1003,RSVC36,VERACE 36,21.48,2015-12-25,-33.5957,-53.3681,FALSE
1004,SCEABA,AQUIBATA,30,2011-12-13,-26.5849,-51.7534,FALSE
1005,SCEAMO,AMPARO,22.5,2011-12-24,-26.6183,-51.5645,FALSE
1006,SCECAL,CRUZ ALTA,30,2011-11-09,-26.5996,-51.7255,FALSE
1007,SCECBO,CAMPO BELO,10.5,2011-11-15,-26.6124,-51.7402,FALSE
1008,SCECCA,CASCATA,6,2011-10-27,-26.5889,-51.7427,FALSE
1009,SCEOLC,EOLICA DE BOM JARDIM,0.6,2002-03-30,-28.3867,-49.5614,FALSE
1010,SCEOLI,AGUA DOCE,9,2006-09-07,-26.5839,-51.6876,FALSE
1011,SCESTO,SALTO,30,2011-12-02,-26.5885,-51.8138,FALSE
1012,SCPARQ,PARQUE EOLICO DO HORIZONTE,4.8,2004-03-01,-26.6,-52.7167,FALSE
1013,SCTUBA,TUBARAO P&D,2.1,2014-11-10,-28.4809,-49.0372,FALSE
1014,SCUBJD,BOM JARDIM,30,2011-10-22,-28.4414,-49.5706,FALSE
1015,SCUPPT,PULPITO,30,2011-08-19,-28.471,-49.605,FALSE
1016,SCUROU,RIO DO OURO,30,2011-07-08,-28.4466,-49.6076,FALSE
1017,SEBARR,BARRA DOS COQUEIROS,34.5,2012-09-01,-10.81,-36.9293,FALSE
